lat,lon,alt,ultrasonicHeight(m),speed(mps),distance(m),max_altitude(m),max_ascent(m),max_speed(mps),max_distance(m),time(millisecond),datetime(utc),time,satellites,pressure(Pa),temperature(F),voltage(v),home_latitude,home_longitude,velocityX(mps),velocityY(mps),velocityZ(mps),pitch(deg),roll(deg),yaw(deg),powerlevel,isflying,istakingphoto,remainPowerPercent,remainLifePercent,currentCurrent,currentElectricity,currentVoltage,batteryTemperature,dischargeCount,flightmode,isMotorsOn,isTakingVideo,Rc_elevator,Rc_aileron,Rc_throttle,Rc_rudder,Rc_gyro,timestamp,Battery_Cell1,Battery_Cell2,Battery_Cell3,Battery_Cell4,Battery_Cell5,Battery_Cell6,Dronetype,AppVersion,Planename,FlyControllerSerialNumber,RemoteSerialNumber,BatterySerialNumber,CENTER_BATTERY.productDate,CENTER_BATTERY.serialNo,CENTER_BATTERY.fullCapacity,CENTER_BATTERY.productDateRaw,pitchRaw,rollRaw,yawRaw,gimbalPitchRaw,gimbalRollRaw,gimbalYawRaw,flyState,altitudeRaw,speedRaw,distanceRaw,velocityXRaw,velocityYRaw,velocityZRaw,data_reuse,App_Tip,App_Warning,downlinkSignalQuality,uplinkSignalQuality,transmissionChannel,rcModeSwitch,rcHome,rcPause,rcTransform,rcJoystickMode,appMode,FlyControllerSerialNumber_legacy,RemoteSerialNumber_legacy,BatterySerialNumber_legacy,Battery2SerialNumber,frontAvoidDist,backAvoidDist,isBrakingToAvoid,uav_category,x,y,z,vel_x,vel_y,vel_z,track_id
51.523957,5.870297,40.0,0.0,3.11,988.13,40.0,40.0,17.28,991.14,258974,2020-09-29 12:15:15.622,2020-09-29 14:15:15.622,19,0,0,11.909,51.519506,5.857977,-1.7,-2.6,0.0,-14.5,3.5,-122.8,0,1,0,81,100,-7798,3047,11909,3031.5,8,WP,1,0,0,0,0,0,0,1601381715621,3956,3953,3948,0,0,0,13,,,,,,,0,0,0,145.0,35.0,-1228.0,-87.0,0.0,-1243.0,14,400.0,31.06,9881.32,-17.0,-26.0,0.0,0,,,75,75,0,1,0,0,0,1,0,,,,,0.0,0.0,0,LSS,1621.289960210358,1005.5941508532319,39.7150470880639,-3.467745590628584,-2.1139246636584508,0.1011604747471588,0
51.523938,5.870247,40.1,0.0,4.53,984.09,40.1,40.1,17.28,991.14,259975,2020-09-29 12:15:16.623,2020-09-29 14:15:16.623,19,0,0,11.909,51.519506,5.857977,-2.3,-3.9,0.0,-12.0,4.0,-123.2,0,1,0,81,100,-7798,3047,11909,3031.5,8,WP,1,0,0,0,0,0,0,1601381716622,3956,3953,3948,0,0,0,13,,,,,,,0,0,0,120.0,40.0,-1232.0,-87.0,0.0,-1235.0,14,401.0,45.28,9840.87,-23.0,-39.0,0.0,0,,,75,75,0,1,0,0,0,1,0,,,,,0.0,0.0,0,LSS,1617.8204321984958,1003.4791396322963,39.81625955929508,-3.467745590628584,-2.1139246636584508,0.1011604747471588,0
51.523916,5.870187,40.0,0.0,4.84,979.25,40.1,40.1,17.28,991.14,260979,2020-09-29 12:15:17.626,2020-09-29 14:15:17.626,19,0,0,11.93,51.519506,5.857977,-2.4,-4.2,0.0,-8.1,2.4,-123.6,0,1,0,81,100,-7364,3043,11930,3031.5,8,WP,1,0,0,0,0,0,0,1601381717626,3956,3953,3948,0,0,0,13,,,,,,,0,0,0,81.0,24.0,-1236.0,-87.0,0.0,-1234.0,14,400.0,48.37,9792.46,-24.0,-42.0,0.0,0,,,75,75,0,1,0,0,0,1,0,,,,,0.0,0.0,0,LSS,1613.6569108057336,1001.0301018590237,39.717697153333916,-4.161382442186993,-2.4477796145507287,-0.09851177091091275,0
51.523894,5.870126,40.0,0.0,4.66,974.35,40.1,40.1,17.28,991.14,261977,2020-09-29 12:15:18.625,2020-09-29 14:15:18.625,19,0,0,11.93,51.519506,5.857977,-2.4,-4.0,0.0,-5.3,4.3,-123.5,0,1,0,81,100,-7364,3043,11930,3031.5,8,WP,1,0,0,0,0,0,0,1601381718624,3956,3953,3948,0,0,0,13,,,,,,,0,0,0,53.0,43.0,-1235.0,-87.0,0.0,-1234.0,14,400.0,46.65,9743.55,-24.0,-40.0,0.0,0,,,75,75,0,1,0,0,0,1,0,,,,,0.0,0.0,0,LSS,1609.4240060826203,998.5810612611809,39.71914857165768,-4.230730127827576,-2.4477824376698196,0.0014506726780114413,0
51.523873,5.870068,40.1,0.0,4.39,969.72,40.1,40.1,17.28,991.14,262978,2020-09-29 12:15:19.625,2020-09-29 14:15:19.626,19,0,0,11.867,51.519506,5.857977,-2.2,-3.8,0.0,-7.7,2.1,-124.9,0,1,0,81,100,-6620,3041,11867,3031.5,8,WP,1,0,0,0,0,0,0,1601381719625,3956,3953,3948,0,0,0,13,,,,,,,0,0,0,77.0,21.0,-1249.0,-87.0,0.0,-1234.0,14,401.0,43.91,9697.17,-22.0,-38.0,0.0,0,,,75,75,0,1,0,0,0,1,0,,,,,0.0,0.0,0,LSS,1605.3993012162402,996.2433646013578,39.82052655601774,-4.022637230843381,-2.3364957010327787,0.10132590284599313,0
51.523853,5.870011,40.0,0.0,4.3,965.13,40.1,40.1,17.28,991.14,263976,2020-09-29 12:15:20.624,2020-09-29 14:15:20.624,19,0,0,11.867,51.519506,5.857977,-2.2,-3.7,0.0,-7.4,1.6,-125.2,0,1,0,81,100,-6620,3041,11867,3031.5,8,WP,1,0,0,0,0,0,0,1601381720623,3956,3953,3948,0,0,0,13,,,,,,,0,0,0,74.0,16.0,-1252.0,-87.0,0.0,-1237.0,14,400.0,43.05,9651.29,-22.0,-37.0,0.0,0,,,75,75,0,1,0,0,0,1,0,,,,,0.0,0.0,0,LSS,1601.4439120224934,994.0169207400909,39.72186642494836,-3.953357168162461,-2.2253000570376265,-0.09860944581423148,0
51.523833,5.869956,40.0,0.0,4.3,960.71,40.1,40.1,17.28,991.14,264972,2020-09-29 12:15:21.619,2020-09-29 14:15:21.619,19,0,0,11.909,51.519506,5.857977,-2.2,-3.7,0.0,-8.9,1.4,-125.6,0,1,0,81,100,-7322,3034,11909,3031.5,8,WP,1,0,0,0,0,0,0,1601381721619,3956,3953,3948,0,0,0,13,,,,,,,0,0,0,89.0,14.0,-1256.0,-87.0,0.0,-1241.0,14,400.0,43.05,9607.14,-22.0,-37.0,0.0,0,,,75,75,0,1,0,0,0,1,0,,,,,0.0,0.0,0,LSS,1597.6273539211577,991.7905392457034,39.72316836283301,-3.8145973982729466,-2.2252377221983006,0.0013012690323653056,0
51.523812,5.8699,40.0,0.0,4.36,956.19,40.1,40.1,17.28,991.14,265978,2020-09-29 12:15:22.626,2020-09-29 14:15:22.626,19,0,0,11.909,51.519506,5.857977,-2.3,-3.7,0.0,-7.9,2.5,-126.1,0,1,0,81,100,-7322,3034,11909,3031.5,8,WP,1,0,0,0,0,0,0,1601381722625,3956,3953,3948,0,0,0,13,,,,,,,0,0,0,79.0,25.0,-1261.0,-87.0,0.0,-1244.0,14,400.0,43.57,9561.88,-23.0,-37.0,0.0,0,,,75,75,0,1,0,0,0,1,0,,,,,0.0,0.0,0,LSS,1593.7414226308256,989.4528798723422,39.7245018141802,-3.8839349477689566,-2.3364584337261993,0.0013327663053122737,0
51.523791,5.869845,40.0,0.0,4.36,951.72,40.1,40.1,17.28,991.14,266976,2020-09-29 12:15:23.624,2020-09-29 14:15:23.624,19,0,0,11.93,51.519506,5.857977,-2.3,-3.7,0.0,-8.2,3.2,-126.4,0,1,0,81,100,-6608,3032,11930,3031.5,8,WP,1,0,0,0,0,0,0,1601381723623,3966,3964,3959,0,0,0,13,,,,,,,0,0,0,82.0,32.0,-1264.0,-87.0,0.0,-1248.0,14,400.0,43.57,9517.19,-23.0,-37.0,0.0,0,,,75,100,0,1,0,0,0,1,0,,,,,0.0,0.0,0,LSS,1589.9248925477875,987.1152452016174,39.725814780732605,-3.8145693943693546,-2.3364337437805074,0.00131229203429913,0
51.523771,5.869789,40.0,0.0,4.44,947.22,40.1,40.1,17.28,991.14,267980,2020-09-29 12:15:24.628,2020-09-29 14:15:24.628,19,0,0,11.93,51.519506,5.857977,-2.3,-3.8,0.0,-7.2,2.2,-126.3,0,1,0,81,100,-6608,3032,11930,3031.5,8,WP,1,0,0,0,0,0,0,1601381724627,3966,3964,3959,0,0,0,13,,,,,,,0,0,0,72.0,22.0,-1263.0,-87.0,0.0,-1251.0,14,400.0,44.42,9472.16,-23.0,-38.0,0.0,0,,,75,100,0,1,0,0,0,1,0,,,,,0.0,0.0,0,LSS,1586.038919395279,984.8888507149906,39.72712465613483,-3.8839767884392833,-2.225250707763083,0.0013092024721573557,0
51.52375,5.869733,40.0,0.0,4.49,942.7,40.1,40.1,17.28,991.14,268978,2020-09-29 12:15:25.626,2020-09-29 14:15:25.626,19,0,0,11.93,51.519506,5.857977,-2.4,-3.8,0.0,-6.5,2.6,-126.8,0,1,0,81,100,-6272,3028,11930,3031.5,8,WP,1,0,0,0,0,0,0,1601381725625,3966,3964,3959,0,0,0,13,,,,,,,0,0,0,65.0,26.0,-1268.0,-87.0,0.0,-1253.0,14,400.0,44.94,9426.99,-24.0,-38.0,0.0,0,,,75,100,0,1,0,0,0,1,0,,,,,0.0,0.0,0,LSS,1582.1529774903208,982.5512002310784,39.72844853222256,-3.883945556941877,-2.3364495488440653,0.0013231959649983205,0
51.523729,5.869676,39.9,0.0,4.49,938.12,40.1,40.1,17.28,991.14,269980,2020-09-29 12:15:26.627,2020-09-29 14:15:26.627,19,0,0,11.93,51.519506,5.857977,-2.4,-3.8,0.0,-4.8,2.6,-127.1,0,1,0,81,100,-6272,3028,11930,3031.5,8,WP,1,0,0,0,0,0,0,1601381726627,3966,3964,3959,0,0,0,13,,,,,,,0,0,0,48.0,26.0,-1271.0,-87.0,0.0,-1257.0,14,399.0,44.94,9381.19,-24.0,-38.0,0.0,0,,,75,100,0,1,0,0,0,1,0,,,,,0.0,0.0,0,LSS,1578.1976024361252,980.2135157887565,39.62978633729068,-3.9533430358752164,-2.3364834898081543,-0.09861150861644716,0
51.523708,5.869621,39.9,0.0,4.36,933.66,40.1,40.1,17.28,991.14,270973,2020-09-29 12:15:27.621,2020-09-29 14:15:27.621,19,0,0,11.951,51.519506,5.857977,-2.3,-3.7,0.0,-6.4,2.7,-127.9,0,1,0,81,100,-6068,3026,11951,3031.5,8,WP,1,0,0,0,0,0,0,1601381727620,3966,3964,3959,0,0,0,13,,,,,,,0,0,0,64.0,27.0,-1279.0,-87.0,0.0,-1260.0,14,399.0,43.57,9336.57,-23.0,-37.0,0.0,0,,,75,100,0,1,0,0,0,1,0,,,,,0.0,0.0,0,LSS,1574.381058315454,977.8758928640676,39.631086631860285,-3.8145834247907544,-2.3364220037789023,0.0012996265615503742,0
51.523688,5.869566,40.0,0.0,4.44,929.22,40.1,40.1,17.28,991.14,271975,2020-09-29 12:15:28.622,2020-09-29 14:15:28.622,19,0,0,11.951,51.519506,5.857977,-2.3,-3.8,0.0,-5.7,2.8,-128.2,0,1,0,81,100,-6068,3026,11951,3031.5,8,WP,1,0,0,0,0,0,0,1601381728622,3966,3964,3959,0,0,0,13,,,,,,,0,0,0,57.0,28.0,-1282.0,-87.0,0.0,-1266.0,14,400.0,44.42,9292.16,-23.0,-38.0,0.0,0,,,75,100,0,1,0,0,0,1,0,,,,,0.0,0.0,0,LSS,1570.5645008542097,975.6495470965685,39.73236677193273,-3.8145967585105547,-2.22520201366406,0.10122810882451122,0
51.523667,5.869511,40.0,0.0,4.44,924.78,40.1,40.1,17.28,991.14,272986,2020-09-29 12:15:29.633,2020-09-29 14:15:29.633,19,0,0,12.057,51.519506,5.857977,-2.3,-3.8,0.0,-6.8,2.1,-128.9,0,1,0,81,100,-6100,3020,12057,3031.5,8,WP,1,0,0,0,0,0,0,1601381729633,3966,3964,3959,0,0,0,13,,,,,,,0,0,0,68.0,21.0,-1289.0,-87.0,0.0,-1270.0,14,400.0,44.42,9247.84,-23.0,-38.0,0.0,0,,,75,100,0,1,0,0,0,1,0,,,,,0.0,0.0,0,LSS,1566.7479497307922,973.3119298857266,39.733660836827596,-3.8145904239395074,-2.3364162928673933,0.0012934000872194468,0
51.523647,5.869456,40.0,0.0,4.49,920.3,40.1,40.1,17.28,991.14,273974,2020-09-29 12:15:30.621,2020-09-29 14:15:30.621,19,0,0,12.057,51.519506,5.857977,-2.4,-3.8,0.0,-6.0,2.7,-129.5,0,1,0,81,100,-6100,3020,12057,3031.5,8,WP,1,0,0,0,0,0,0,1601381730621,3966,3964,3959,0,0,0,13,,,,,,,0,0,0,60.0,27.0,-1295.0,-87.0,0.0,-1276.0,14,400.0,44.94,9203.05,-24.0,-38.0,0.0,0,,,75,100,0,1,0,0,0,1,0,,,,,0.0,0.0,0,LSS,1562.9313608607956,971.0855745260284,39.73493482656164,-3.814628151126943,-2.2252116009353515,0.0012733352397320222,0
51.523626,5.869401,39.9,0.0,4.41,915.85,40.1,40.1,17.28,991.14,274971,2020-09-29 12:15:31.619,2020-09-29 14:15:31.619,19,0,0,11.93,51.519506,5.857977,-2.4,-3.7,0.0,-6.6,3.4,-130.5,0,1,0,81,100,-5998,3018,11930,3031.5,8,WP,1,0,0,0,0,0,0,1601381731618,3966,3964,3959,0,0,0,13,,,,,,,0,0,0,66.0,34.0,-1305.0,-87.0,0.0,-1282.0,14,399.0,44.1,9158.5,-24.0,-37.0,0.0,0,,,75,75,0,1,0,0,0,1,0,,,,,0.0,0.0,0,LSS,1559.1147784000661,968.7479478698206,39.6362226660263,-3.81462174515247,-2.33642573338086,-0.09866144855078716,0
51.523605,5.869346,40.0,0.0,4.44,911.42,40.1,40.1,17.28,991.14,275978,2020-09-29 12:15:32.625,2020-09-29 14:15:32.625,19,0,0,11.93,51.519506,5.857977,-2.3,-3.8,0.0,-7.6,2.9,-131.0,0,1,0,81,100,-5998,3018,11930,3031.5,8,WP,1,0,0,0,0,0,0,1601381732625,3966,3964,3959,0,0,0,13,,,,,,,0,0,0,76.0,29.0,-1310.0,-87.0,0.0,-1289.0,14,400.0,44.42,9114.22,-23.0,-38.0,0.0,0,,,75,75,0,1,0,0,0,1,0,,,,,0.0,0.0,0,LSS,1555.2982412146216,966.4103544835525,39.73750736050357,-3.8145764931270643,-2.33639248053306,0.10123266088957461,0
51.523585,5.86929,40.0,0.0,4.44,906.9,40.1,40.1,17.28,991.14,276978,2020-09-29 12:15:33.625,2020-09-29 14:15:33.625,19,0,0,11.93,51.519506,5.857977,-2.3,-3.8,0.0,-7.1,3.5,-131.2,0,1,0,80,100,-6458,3016,11930,3031.5,8,WP,1,0,0,0,0,0,0,1601381733625,3966,3964,3959,0,0,0,13,,,,,,,0,0,0,71.0,35.0,-1312.0,-87.0,0.0,-1295.0,14,400.0,44.42,9069.0,-23.0,-38.0,0.0,0,,,75,75,0,1,0,0,0,1,0,,,,,0.0,0.0,0,LSS,1551.4122370409639,964.1839865531352,39.73878895502162,-3.884007793651802,-2.225224165196358,0.0012809361168836903,0
51.523564,5.869235,40.0,0.0,4.49,902.43,40.1,40.1,17.28,991.14,277979,2020-09-29 12:15:34.626,2020-09-29 14:15:34.626,19,0,0,11.93,51.519506,5.857977,-2.4,-3.8,0.0,-7.8,3.2,-131.5,0,1,0,80,100,-6458,3016,11930,3031.5,8,WP,1,0,0,0,0,0,0,1601381734626,3971,3970,3964,0,0,0,13,,,,,,,0,0,0,78.0,32.0,-1315.0,-87.0,0.0,-1298.0,14,400.0,44.94,9024.34,-24.0,-38.0,0.0,0,,,75,75,0,1,0,0,0,1,0,,,,,0.0,0.0,0,LSS,1547.5956684863258,961.8463837721504,39.74006738023286,-3.8146078462050754,-2.3364018704234693,0.0012777684382623976,0
51.523543,5.869179,40.0,0.0,4.49,897.93,40.1,40.1,17.28,991.14,278978,2020-09-29 12:15:35.625,2020-09-29 14:15:35.625,19,0,0,11.888,51.519506,5.857977,-2.4,-3.8,0.0,-7.9,3.3,-132.4,0,1,0,80,100,-6654,3009,11888,3031.5,8,WP,1,0,0,0,0,0,0,1601381735625,3971,3970,3964,0,0,0,13,,,,,,,0,0,0,79.0,33.0,-1324.0,-87.0,0.0,-1303.0,14,400.0,44.94,8979.26,-24.0,-38.0,0.0,0,,,75,75,0,1,0,0,0,1,0,,,,,0.0,0.0,0,LSS,1543.7096912564048,959.5087627752448,39.74135943898642,-3.883980863757111,-2.336420076986,0.0012913949765452526,0
51.523522,5.869123,40.0,0.0,4.49,893.4,40.1,40.1,17.28,991.14,279975,2020-09-29 12:15:36.622,2020-09-29 14:15:36.622,19,0,0,11.888,51.519506,5.857977,-2.4,-3.8,0.0,-6.7,4.2,-132.5,0,1,0,80,100,-6654,3009,11888,3031.5,8,WP,1,0,0,0,0,0,0,1601381736622,3971,3970,3964,0,0,0,13,,,,,,,0,0,0,67.0,42.0,-1325.0,-87.0,0.0,-1307.0,14,400.0,44.94,8934.01,-24.0,-38.0,0.0,0,,,75,100,0,1,0,0,0,1,0,,,,,0.0,0.0,0,LSS,1539.8237104492491,957.1711447608573,39.742648278294496,-3.8839844391539224,-2.3364170960002006,0.0012881771850012393,0
51.523501,5.869067,40.0,0.0,4.44,888.87,40.1,40.1,17.28,991.14,280972,2020-09-29 12:15:37.620,2020-09-29 14:15:37.620,19,0,0,11.909,51.519506,5.857977,-2.3,-3.8,0.0,-7.2,2.5,-132.6,0,1,0,80,100,-6936,3007,11909,3031.5,8,WP,1,0,0,0,0,0,0,1601381737619,3971,3970,3964,0,0,0,13,,,,,,,0,0,0,72.0,25.0,-1326.0,-87.0,0.0,-1311.0,14,400.0,44.42,8888.72,-23.0,-38.0,0.0,0,,,75,75,0,1,0,0,0,1,0,,,,,0.0,0.0,0,LSS,1535.937726064948,954.8335297255633,39.74393389612044,-3.883988014461649,-2.3364141184371165,0.0012849573578606686,0
51.523481,5.869011,40.0,0.0,4.49,884.36,40.1,40.1,17.28,991.14,281982,2020-09-29 12:15:38.630,2020-09-29 14:15:38.630,19,0,0,11.909,51.519506,5.857977,-2.4,-3.8,0.0,-7.0,3.3,-133.3,0,1,0,80,100,-6936,3007,11909,3031.5,8,WP,1,0,0,0,0,0,0,1601381738629,3971,3970,3964,0,0,0,13,,,,,,,0,0,0,70.0,33.0,-1333.0,-87.0,0.0,-1315.0,14,400.0,44.94,8843.6,-24.0,-38.0,0.0,0,,,75,75,0,1,0,0,0,1,0,,,,,0.0,0.0,0,LSS,1532.0517045467686,952.6071766449663,39.745199678889094,-3.8840251292629637,-2.2252093230049126,0.001265132490555154,0
51.52346,5.868956,40.0,0.0,4.49,879.9,40.1,40.1,17.28,991.14,283065,2020-09-29 12:15:39.713,2020-09-29 14:15:39.713,19,0,0,11.888,51.519506,5.857977,-2.4,-3.8,0.0,-6.9,3.9,-133.6,0,1,0,80,100,-6828,3001,11888,3031.5,8,WP,1,0,0,0,0,0,0,1601381739712,3971,3970,3964,0,0,0,13,,,,,,,0,0,0,69.0,39.0,-1336.0,-87.0,0.0,-1319.0,14,400.0,44.94,8799.03,-24.0,-38.0,0.0,0,,,75,100,0,1,0,0,0,1,0,,,,,0.0,0.0,0,LSS,1528.2351183815579,950.269588448785,39.746462299590405,-3.814625447730632,-2.336387293112627,0.0012619720476788276,0
51.523439,5.8689,40.0,0.0,4.53,875.35,40.1,40.1,17.28,991.14,283977,2020-09-29 12:15:40.624,2020-09-29 14:15:40.624,19,0,0,11.888,51.519506,5.857977,-2.3,-3.9,0.0,-6.5,3.4,-133.7,0,1,0,80,100,-6828,3001,11888,3031.5,8,WP,1,0,0,0,0,0,0,1601381740624,3971,3970,3964,0,0,0,13,,,,,,,0,0,0,65.0,34.0,-1337.0,-87.0,0.0,-1322.0,14,400.0,45.28,8753.51,-23.0,-39.0,0.0,0,,,75,75,0,1,0,0,0,1,0,,,,,0.0,0.0,0,LSS,1524.349123382805,947.9319823040851,39.74773834362611,-3.883998623460491,-2.3364052324105167,0.0012753884860237652,0
51.523418,5.868844,40.0,0.0,4.49,870.8,40.1,40.1,17.28,991.14,284983,2020-09-29 12:15:41.631,2020-09-29 14:15:41.631,19,0,0,12.015,51.519506,5.857977,-2.4,-3.8,0.0,-6.3,3.3,-134.1,0,1,0,80,100,-6914,2999,12015,3031.5,8,WP,1,0,0,0,0,0,0,1601381741630,3971,3970,3964,0,0,0,13,,,,,,,0,0,0,63.0,33.0,-1341.0,-87.0,0.0,-1325.0,14,400.0,44.94,8708.02,-24.0,-38.0,0.0,0,,,75,100,0,1,0,0,0,1,0,,,,,0.0,0.0,0,LSS,1520.4631248069957,945.5943791379516,39.7490111677883,-3.884002198679133,-2.3364022553742143,0.001272170266668703,0
51.523397,5.868789,40.0,0.0,4.49,866.36,40.1,40.1,17.28,991.14,285976,2020-09-29 12:15:42.623,2020-09-29 14:15:42.623,19,0,0,12.015,51.519506,5.857977,-2.4,-3.8,0.0,-6.7,3.8,-134.6,0,1,0,80,100,-6914,2999,12015,3031.5,8,WP,1,0,0,0,0,0,0,1601381742623,3971,3970,3964,0,0,0,13,,,,,,,0,0,0,67.0,38.0,-1346.0,-87.0,0.0,-1329.0,14,400.0,44.94,8663.57,-24.0,-38.0,0.0,0,,,75,100,0,1,0,0,0,1,0,,,,,0.0,0.0,0,LSS,1516.6465280380808,943.25679967418,39.75026429881552,-3.8146360459872684,-2.336378565189083,0.0012524872487806996,0
51.523377,5.868734,40.0,0.0,4.44,861.88,40.1,40.1,17.28,991.14,286972,2020-09-29 12:15:43.620,2020-09-29 14:15:43.620,19,0,0,11.93,51.519506,5.857977,-2.3,-3.8,0.0,-7.1,3.8,-135.2,0,1,0,80,100,-6734,2993,11930,3031.5,8,WP,1,0,0,0,0,0,0,1601381743619,3971,3970,3964,0,0,0,13,,,,,,,0,0,0,71.0,38.0,-1352.0,-87.0,0.0,-1333.0,14,400.0,44.42,8618.84,-23.0,-38.0,0.0,0,,,75,100,0,1,0,0,0,1,0,,,,,0.0,0.0,0,LSS,1512.8298946205023,941.0304820571685,39.75149787809971,-3.814672675823114,-2.22517387763844,0.0012329455501767547,0
51.523356,5.868678,40.0,0.0,4.49,857.36,40.1,40.1,17.28,991.14,287983,2020-09-29 12:15:44.630,2020-09-29 14:15:44.630,19,0,0,11.93,51.519506,5.857977,-2.4,-3.8,0.0,-7.3,3.6,-135.6,0,1,0,80,100,-6734,2993,11930,3031.5,8,WP,1,0,0,0,0,0,0,1601381744630,3971,3970,3964,0,0,0,13,,,,,,,0,0,0,73.0,36.0,-1356.0,-87.0,0.0,-1337.0,14,400.0,44.94,8573.61,-24.0,-38.0,0.0,0,,,75,100,0,1,0,0,0,1,0,,,,,0.0,0.0,0,LSS,1508.9438854622013,938.6928877273434,39.75276116924982,-3.884012775734295,-2.3363934236053048,0.0012626421520438849,0
51.523335,5.868622,40.0,0.0,4.49,852.85,40.1,40.1,17.28,991.14,288990,2020-09-29 12:15:45.638,2020-09-29 14:15:45.638,19,0,0,12.015,51.519506,5.857977,-2.4,-3.8,0.0,-7.0,4.0,-136.2,0,1,0,80,100,-6740,2991,12015,3031.5,8,WP,1,0,0,0,0,0,0,1601381745637,3965,3963,3957,0,0,0,13,,,,,,,0,0,0,70.0,40.0,-1362.0,-87.0,0.0,-1342.0,14,400.0,44.94,8528.45,-24.0,-38.0,0.0,0,,,75,75,0,1,0,0,0,1,0,,,,,0.0,0.0,0,LSS,1505.057872726908,936.3552963790711,39.754021240532154,-3.8840163508888503,-2.336390443584324,0.0012594239384270585,0
51.523314,5.868566,40.0,0.0,4.49,848.35,40.1,40.1,17.28,991.14,289984,2020-09-29 12:15:46.632,2020-09-29 14:15:46.632,19,0,0,12.015,51.519506,5.857977,-2.4,-3.8,0.0,-6.9,4.1,-136.5,0,1,0,80,100,-6740,2991,12015,3031.5,8,WP,1,0,0,0,0,0,0,1601381746631,3965,3963,3957,0,0,0,13,,,,,,,0,0,0,69.0,41.0,-1365.0,-87.0,0.0,-1347.0,14,400.0,44.94,8483.47,-24.0,-38.0,0.0,0,,,75,100,0,1,0,0,0,1,0,,,,,0.0,0.0,0,LSS,1501.1718564144116,934.0177080116354,39.75527809251582,-3.8840199262543003,-2.336387464279089,0.001256206293634166,0
51.523294,5.868511,40.0,0.0,4.49,843.88,40.1,40.1,17.28,991.14,290974,2020-09-29 12:15:47.622,2020-09-29 14:15:47.622,19,0,0,11.951,51.519506,5.857977,-2.4,-3.8,0.0,-7.4,4.0,-137.0,0,1,0,80,100,-6880,2987,11951,3031.5,8,WP,1,0,0,0,0,0,0,1601381747621,3965,3963,3957,0,0,0,13,,,,,,,0,0,0,74.0,40.0,-1370.0,-87.0,0.0,-1351.0,14,400.0,44.94,8438.78,-24.0,-38.0,0.0,0,,,75,100,0,1,0,0,0,1,0,,,,,0.0,0.0,0,LSS,1497.355209270575,931.79140205017,39.756499205012744,-3.814686395029645,-2.225162228080181,0.0012204851675451324,0
51.523272,5.868455,40.0,0.0,4.58,839.32,40.1,40.1,17.28,991.14,291973,2020-09-29 12:15:48.621,2020-09-29 14:15:48.621,19,0,0,11.951,51.519506,5.857977,-2.4,-3.9,0.0,-6.1,4.4,-137.5,0,1,0,80,100,-6880,2987,11951,3031.5,8,WP,1,0,0,0,0,0,0,1601381748620,3965,3963,3957,0,0,0,13,,,,,,,0,0,0,61.0,44.0,-1375.0,-87.0,0.0,-1355.0,14,400.0,45.79,8393.2,-24.0,-39.0,0.0,0,,,75,100,0,1,0,0,0,1,0,,,,,0.0,0.0,0,LSS,1493.4692186322948,929.3425606212959,39.75776591399995,-3.883994265227864,-2.4475833710213566,0.0012660582332705908,0
51.523251,5.868398,40.0,0.0,4.44,834.71,40.1,40.1,17.28,991.14,292993,2020-09-29 12:15:49.641,2020-09-29 14:15:49.641,19,0,0,11.909,51.519506,5.857977,-2.3,-3.8,0.0,-6.0,3.4,-137.8,0,1,0,80,100,-6914,2982,11909,3031.5,8,WP,1,0,0,0,0,0,0,1601381749640,3965,3963,3957,0,0,0,13,,,,,,,0,0,0,60.0,34.0,-1378.0,-87.0,0.0,-1361.0,14,400.0,44.42,8347.07,-23.0,-38.0,0.0,0,,,75,100,0,1,0,0,0,1,0,,,,,0.0,0.0,0,LSS,1489.5137860142095,927.0049607933956,39.7590293262935,-3.9534005701922186,-2.336398918855957,0.0012627632332518647,0
51.52323,5.868342,40.1,0.0,4.44,830.21,40.1,40.1,17.28,991.14,293978,2020-09-29 12:15:50.625,2020-09-29 14:15:50.625,18,0,0,11.909,51.519506,5.857977,-2.3,-3.8,0.0,-6.2,4.9,-138.3,0,1,0,80,100,-6914,2982,11909,3031.5,8,WP,1,0,0,0,0,0,0,1601381750625,3965,3963,3957,0,0,0,13,,,,,,,0,0,0,62.0,49.0,-1383.0,-87.0,0.0,-1365.0,14,401.0,44.42,8302.13,-23.0,-38.0,0.0,0,,,75,100,0,1,0,0,0,1,0,,,,,0.0,0.0,0,LSS,1485.627778637722,924.6673988546916,39.86027329551558,-3.884010994836096,-2.336361049124834,0.10119195655641236,0
51.523209,5.868287,40.1,0.0,4.49,825.68,40.1,40.1,17.28,991.14,294988,2020-09-29 12:15:51.635,2020-09-29 14:15:51.635,18,0,0,12.099,51.519506,5.857977,-2.4,-3.8,0.0,-5.2,5.3,-139.1,0,1,0,80,100,-6894,2980,12099,3031.5,8,WP,1,0,0,0,0,0,0,1601381751635,3965,3963,3957,0,0,0,13,,,,,,,0,0,0,52.0,53.0,-1391.0,-87.0,0.0,-1370.0,14,401.0,44.94,8256.79,-24.0,-38.0,0.0,0,,,75,100,0,1,0,0,0,1,0,,,,,0.0,0.0,0,LSS,1481.8111500501984,922.329845598609,39.86149795515331,-3.81466784824961,-2.33635237096384,0.0012240304860582755,0
51.523188,5.868231,40.0,0.0,4.44,821.16,40.1,40.1,17.28,991.14,295975,2020-09-29 12:15:52.622,2020-09-29 14:15:52.622,18,0,0,12.099,51.519506,5.857977,-2.3,-3.8,0.0,-5.7,5.0,-139.2,0,1,0,80,100,-6894,2980,12099,3031.5,8,WP,1,0,0,0,0,0,0,1601381752622,3965,3963,3957,0,0,0,13,,,,,,,0,0,0,57.0,50.0,-1392.0,-87.0,0.0,-1374.0,14,400.0,44.42,8211.62,-23.0,-38.0,0.0,0,,,75,75,0,1,0,0,0,1,0,,,,,0.0,0.0,0,LSS,1477.9250891222218,919.992260593729,39.76273553428592,-3.8840645188139167,-2.336384103450824,-0.09871168306229383,0
51.523168,5.868175,40.0,0.0,4.44,816.65,40.1,40.1,17.28,991.14,296985,2020-09-29 12:15:53.633,2020-09-29 14:15:53.633,18,0,0,11.93,51.519506,5.857977,-2.3,-3.8,0.0,-5.4,4.1,-139.5,0,1,0,79,100,-7010,2974,11930,3031.5,8,WP,1,0,0,0,0,0,0,1601381753632,3965,3963,3957,0,0,0,13,,,,,,,0,0,0,54.0,41.0,-1395.0,-87.0,0.0,-1378.0,14,400.0,44.42,8166.52,-23.0,-38.0,0.0,0,,,75,75,0,1,0,0,0,1,0,,,,,0.0,0.0,0,LSS,1474.0390155161726,917.7659520060836,39.763953881521275,-3.884077190373343,-2.2251648529110666,0.0012177213265894356,0
51.523147,5.868118,40.1,0.0,4.44,812.09,40.1,40.1,17.28,991.14,297977,2020-09-29 12:15:54.624,2020-09-29 14:15:54.624,18,0,0,11.93,51.519506,5.857977,-2.3,-3.8,0.0,-4.5,3.7,-140.1,0,1,0,79,100,-7010,2974,11930,3031.5,8,WP,1,0,0,0,0,0,0,1601381754624,3965,3963,3957,0,0,0,13,,,,,,,0,0,0,45.0,37.0,-1401.0,-87.0,0.0,-1383.0,14,401.0,44.42,8120.95,-23.0,-38.0,0.0,0,,,75,75,0,1,0,0,0,1,0,,,,,0.0,0.0,0,LSS,1470.0835879408546,915.4283817081139,39.865201021109385,-3.9533955300155985,-2.336369404096,0.10119512529370976,0
51.523126,5.868062,40.1,0.0,4.44,807.58,40.1,40.1,17.28,991.14,298983,2020-09-29 12:15:55.630,2020-09-29 14:15:55.630,18,0,0,11.993,51.519506,5.857977,-2.3,-3.8,0.0,-5.1,3.8,-140.4,0,1,0,79,100,-6666,2972,11993,3031.5,8,WP,1,0,0,0,0,0,0,1601381755630,3960,3959,3953,0,0,0,13,,,,,,,0,0,0,51.0,38.0,-1404.0,-87.0,0.0,-1388.0,14,401.0,44.42,8075.75,-23.0,-38.0,0.0,0,,,75,100,0,1,0,0,0,1,0,,,,,0.0,0.0,0,LSS,1466.1975394588067,913.0908201306668,39.86642893757937,-3.884052079279205,-2.3363606880534453,0.0012272856451645978,0
51.523106,5.868007,40.0,0.0,4.44,803.1,40.1,40.1,17.28,991.14,299974,2020-09-29 12:15:56.621,2020-09-29 14:15:56.622,18,0,0,11.993,51.519506,5.857977,-2.3,-3.8,0.0,-5.0,3.7,-140.6,0,1,0,79,100,-6666,2972,11993,3031.5,8,WP,1,0,0,0,0,0,0,1601381756621,3960,3959,3953,0,0,0,13,,,,,,,0,0,0,50.0,37.0,-1406.0,-87.0,0.0,-1392.0,14,400.0,44.42,8031.01,-23.0,-38.0,0.0,0,,,75,100,0,1,0,0,0,1,0,,,,,0.0,0.0,0,LSS,1462.3808383181236,910.8645261927095,39.767621866672926,-3.8147403641359423,-2.2251502107489554,-0.09875631016302214,0
51.523085,5.867951,40.0,0.0,4.44,798.58,40.1,40.1,17.28,991.14,300984,2020-09-29 12:15:57.631,2020-09-29 14:15:57.631,18,0,0,11.951,51.519506,5.857977,-2.3,-3.8,0.0,-4.5,4.4,-140.8,0,1,0,79,100,-6598,2966,11951,3031.5,8,WP,1,0,0,0,0,0,0,1601381757631,3960,3959,3953,0,0,0,13,,,,,,,0,0,0,45.0,44.0,-1408.0,-87.0,0.0,-1394.0,14,400.0,44.42,7985.84,-23.0,-38.0,0.0,0,,,75,100,0,1,0,0,0,1,0,,,,,0.0,0.0,0,LSS,1458.494782859737,908.5269705620478,39.7688434265786,-3.884059052033891,-2.3363547443230726,0.0012209323464470016,0
51.523064,5.867896,40.0,0.0,4.49,794.12,40.1,40.1,17.28,991.14,301977,2020-09-29 12:15:58.625,2020-09-29 14:15:58.625,18,0,0,11.951,51.519506,5.857977,-2.4,-3.8,0.0,-4.4,4.6,-141.5,0,1,0,79,100,-6598,2966,11951,3031.5,8,WP,1,0,0,0,0,0,0,1601381758624,3960,3959,3953,0,0,0,13,,,,,,,0,0,0,44.0,46.0,-1415.0,-87.0,0.0,-1398.0,14,400.0,44.94,7941.21,-24.0,-38.0,0.0,0,,,100,100,0,1,0,0,0,1,0,,,,,0.0,0.0,0,LSS,1454.6781297151508,906.1894377823385,39.77004596665955,-3.814692392696253,-2.336331905110137,0.0012019222928948924,0
51.523043,5.867841,40.0,0.0,4.49,789.64,40.1,40.1,17.28,991.14,302986,2020-09-29 12:15:59.634,2020-09-29 14:15:59.634,18,0,0,11.93,51.519506,5.857977,-2.4,-3.8,0.0,-3.8,4.7,-141.7,0,1,0,79,100,-6572,2964,11930,3031.5,8,WP,1,0,0,0,0,0,0,1601381759633,3960,3959,3953,0,0,0,13,,,,,,,0,0,0,38.0,47.0,-1417.0,-87.0,0.0,-1402.0,14,400.0,44.94,7896.36,-24.0,-38.0,0.0,0,,,100,100,0,1,0,0,0,1,0,,,,,0.0,0.0,0,LSS,1450.8614730574882,903.8519078807064,39.771245370326426,-3.8146959039679946,-2.3363290285113694,0.001198787490103964,0
51.523022,5.867785,40.0,0.0,4.49,785.12,40.1,40.1,17.28,991.14,303979,2020-09-29 12:16:00.627,2020-09-29 14:16:00.627,18,0,0,11.93,51.519506,5.857977,-2.4,-3.8,0.0,-4.3,5.1,-142.1,0,1,0,79,100,-6572,2964,11930,3031.5,8,WP,1,0,0,0,0,0,0,1601381760626,3960,3959,3953,0,0,0,13,,,,,,,0,0,0,43.0,51.0,-1421.0,-87.0,0.0,-1405.0,14,400.0,44.94,7851.24,-24.0,-38.0,0.0,0,,,100,100,0,1,0,0,0,1,0,,,,,0.0,0.0,0,LSS,1446.9754069318285,901.5143610847426,39.77245735566851,-3.884069713826775,-2.336345914163937,0.0012113627016526849,0
51.523001,5.86773,40.0,0.0,4.44,780.67,40.1,40.1,17.28,991.14,304981,2020-09-29 12:16:01.628,2020-09-29 14:16:01.629,18,0,0,12.057,51.519506,5.857977,-2.3,-3.8,0.0,-4.7,5.5,-142.3,0,1,0,79,100,-6662,2959,12057,3031.5,8,WP,1,0,0,0,0,0,0,1601381761628,3960,3959,3953,0,0,0,13,,,,,,,0,0,0,47.0,55.0,-1423.0,-87.0,0.0,-1408.0,14,400.0,44.42,7806.71,-23.0,-38.0,0.0,0,,,100,100,0,1,0,0,0,1,0,,,,,0.0,0.0,0,LSS,1443.1587432159092,899.1768369861152,39.773650446881504,-3.8147029585985566,-2.336323228488012,0.001192478279161444,0
51.522981,5.867674,40.0,0.0,4.44,776.17,40.1,40.1,17.28,991.14,305993,2020-09-29 12:16:02.641,2020-09-29 14:16:02.641,18,0,0,12.057,51.519506,5.857977,-2.3,-3.8,0.0,-5.7,4.2,-142.8,0,1,0,79,100,-6662,2959,12057,3031.5,8,WP,1,0,0,0,0,0,0,1601381762640,3960,3959,3953,0,0,0,13,,,,,,,0,0,0,57.0,42.0,-1428.0,-87.0,0.0,-1411.0,14,400.0,44.42,7761.69,-23.0,-38.0,0.0,0,,,100,100,0,1,0,0,0,1,0,,,,,0.0,0.0,0,LSS,1439.272638444231,896.9505550640802,39.77484038937473,-3.884108339991464,-2.2251382009997003,0.0011893311770017024,0
51.52296,5.867618,40.0,0.0,4.44,771.66,40.1,40.1,17.28,991.14,306983,2020-09-29 12:16:03.631,2020-09-29 14:16:03.631,18,0,0,12.036,51.519506,5.857977,-2.3,-3.8,0.0,-5.2,4.3,-143.4,0,1,0,79,100,-7170,2953,12036,3031.5,8,WP,1,0,0,0,0,0,0,1601381763630,3960,3959,3953,0,0,0,13,,,,,,,0,0,0,52.0,43.0,-1434.0,-87.0,0.0,-1415.0,14,400.0,44.42,7716.63,-23.0,-38.0,0.0,0,,,100,100,0,1,0,0,0,1,0,,,,,0.0,0.0,0,LSS,1435.3865617046406,894.61301715693,39.77604279877261,-3.8840803223047433,-2.3363370299167587,0.0012017916769546813,0
51.52294,5.867563,40.1,0.0,4.49,767.18,40.1,40.1,17.28,991.14,307983,2020-09-29 12:16:04.630,2020-09-29 14:16:04.630,18,0,0,12.036,51.519506,5.857977,-2.4,-3.8,0.0,-4.5,4.7,-144.0,0,1,0,79,100,-7170,2953,12036,3031.5,8,WP,1,0,0,0,0,0,0,1601381764630,3960,3959,3953,0,0,0,13,,,,,,,0,0,0,45.0,47.0,-1440.0,-87.0,0.0,-1421.0,14,401.0,44.94,7671.84,-24.0,-38.0,0.0,0,,,100,100,0,1,0,0,0,1,0,,,,,0.0,0.0,0,LSS,1431.5698785123816,892.3867747508111,39.87721086869652,-3.8147224249325915,-2.2250987053843323,0.10111609625044231,0
51.522919,5.867507,40.1,0.0,4.49,762.67,40.1,40.1,17.28,991.14,308971,2020-09-29 12:16:05.618,2020-09-29 14:16:05.618,18,0,0,11.972,51.519506,5.857977,-2.4,-3.8,0.0,-4.4,4.3,-144.4,0,1,0,79,100,-7018,2951,11972,3031.5,8,WP,1,0,0,0,0,0,0,1601381765618,3953,3952,3946,0,0,0,13,,,,,,,0,0,0,44.0,43.0,-1444.0,-87.0,0.0,-1427.0,14,401.0,44.94,7626.72,-24.0,-38.0,0.0,0,,,100,100,0,1,0,0,0,1,0,,,,,0.0,0.0,0,LSS,1427.683794675022,890.0492427171858,39.87840692147398,-3.884087416427549,-2.3363311594093434,0.0011954383221614538,0
51.522898,5.867451,40.1,0.0,4.49,758.17,40.1,40.1,17.28,991.14,309987,2020-09-29 12:16:06.634,2020-09-29 14:16:06.634,18,0,0,11.972,51.519506,5.857977,-2.4,-3.8,0.0,-4.9,4.6,-144.7,0,1,0,79,100,-7018,2951,11972,3031.5,8,WP,1,0,0,0,0,0,0,1601381766634,3953,3952,3946,0,0,0,13,,,,,,,0,0,0,49.0,46.0,-1447.0,-87.0,0.0,-1431.0,14,401.0,44.94,7581.7,-24.0,-38.0,0.0,0,,,100,100,0,1,0,0,0,1,0,,,,,0.0,0.0,0,LSS,1423.7977072606748,887.7117136629142,39.87959975613171,-3.8840909915775597,-2.336328181586278,0.0011922218556954087,0
51.522878,5.867396,40.0,0.0,4.49,753.7,40.1,40.1,17.28,991.14,310986,2020-09-29 12:16:07.634,2020-09-29 14:16:07.634,18,0,0,11.846,51.519506,5.857977,-2.4,-3.8,0.0,-5.0,4.7,-145.2,0,1,0,79,100,-7010,2947,11846,3031.5,8,WP,1,0,0,0,0,0,0,1601381767633,3953,3952,3946,0,0,0,13,,,,,,,0,0,0,50.0,47.0,-1452.0,-87.0,0.0,-1435.0,14,400.0,44.94,7537.02,-24.0,-38.0,0.0,0,,,100,100,0,1,0,0,0,1,0,,,,,0.0,0.0,0,LSS,1419.98096912697,885.4854520633064,39.7807585046707,-3.8147773381529926,-2.2251178890128713,-0.09879047315780731,0
51.522857,5.86734,40.0,0.0,4.44,749.17,40.1,40.1,17.28,991.14,311986,2020-09-29 12:16:08.633,2020-09-29 14:16:08.633,18,0,0,11.846,51.519506,5.857977,-2.3,-3.8,0.0,-4.5,4.3,-145.9,0,1,0,79,100,-7010,2947,11846,3031.5,8,WP,1,0,0,0,0,0,0,1601381768633,3953,3952,3946,0,0,0,13,,,,,,,0,0,0,45.0,43.0,-1459.0,-87.0,0.0,-1440.0,14,400.0,44.42,7491.66,-23.0,-38.0,0.0,0,,,100,100,0,1,0,0,0,1,0,,,,,0.0,0.0,0,LSS,1416.0948747363998,883.1479289540721,39.78194498058451,-3.884097964216572,-2.3363222396031698,0.0011858663784935007,0
51.522836,5.867283,40.0,0.0,4.49,744.58,40.1,40.1,17.28,991.14,312978,2020-09-29 12:16:09.625,2020-09-29 14:16:09.626,18,0,0,11.93,51.519506,5.857977,-2.4,-3.8,0.0,-3.8,3.9,-146.2,0,1,0,79,100,-6974,2945,11930,3031.5,8,WP,1,0,0,0,0,0,0,1601381769625,3953,3952,3946,0,0,0,13,,,,,,,0,0,0,38.0,39.0,-1462.0,-87.0,0.0,-1446.0,14,400.0,44.94,7445.75,-24.0,-38.0,0.0,0,,,100,100,0,1,0,0,0,1,0,,,,,0.0,0.0,0,LSS,1412.1393705312537,880.8103895328819,39.783143576368104,-3.9534721204761745,-2.3363385431789783,0.0011979800218605908,0
51.522815,5.867227,40.0,0.0,4.44,740.04,40.1,40.1,17.28,991.14,313987,2020-09-29 12:16:10.635,2020-09-29 14:16:10.635,18,0,0,11.93,51.519506,5.857977,-2.3,-3.8,0.0,-3.9,2.8,-146.4,0,1,0,79,100,-6974,2945,11930,3031.5,8,WP,1,0,0,0,0,0,0,1601381770634,3953,3952,3946,0,0,0,13,,,,,,,0,0,0,39.0,28.0,-1464.0,-87.0,0.0,-1450.0,14,400.0,44.42,7400.39,-23.0,-38.0,0.0,0,,,100,100,0,1,0,0,0,1,0,,,,,0.0,0.0,0,LSS,1408.25326895478,878.4728724395699,39.78432357293582,-3.8841051464284564,-2.336316226771484,0.0011793903610685808,0
51.522794,5.867171,40.0,0.0,4.44,735.53,40.1,40.1,17.28,991.14,314988,2020-09-29 12:16:11.635,2020-09-29 14:16:11.635,18,0,0,11.909,51.519506,5.857977,-2.3,-3.8,0.0,-4.0,2.8,-147.1,0,1,0,79,100,-6412,2941,11909,3031.5,8,WP,1,0,0,0,0,0,0,1601381771635,3953,3952,3946,0,0,0,13,,,,,,,0,0,0,40.0,28.0,-1471.0,-87.0,0.0,-1454.0,14,400.0,44.42,7355.27,-23.0,-38.0,0.0,0,,,100,100,0,1,0,0,0,1,0,,,,,0.0,0.0,0,LSS,1404.3671638012665,876.135358326289,39.78550034846569,-3.884108721630509,-2.3363132482713063,0.0011761709779879248,0
51.522773,5.867115,40.0,0.0,4.49,731.01,40.1,40.1,17.28,991.14,315987,2020-09-29 12:16:12.634,2020-09-29 14:16:12.634,18,0,0,11.909,51.519506,5.857977,-2.4,-3.8,0.0,-3.8,3.0,-147.4,0,1,0,79,100,-6412,2941,11909,3031.5,8,WP,1,0,0,0,0,0,0,1601381772634,3953,3952,3946,0,0,0,13,,,,,,,0,0,0,38.0,30.0,-1474.0,-87.0,0.0,-1460.0,14,400.0,44.94,7310.07,-24.0,-38.0,0.0,0,,,100,100,0,1,0,0,0,1,0,,,,,0.0,0.0,0,LSS,1400.4810550708498,873.7978471940336,39.78667390573645,-3.884112296696207,-2.336310268777221,0.0011729543722134212,0
51.522752,5.86706,40.0,0.0,4.44,726.53,40.1,40.1,17.28,991.14,316981,2020-09-29 12:16:13.629,2020-09-29 14:16:13.629,18,0,0,11.888,51.519506,5.857977,-2.3,-3.8,0.0,-4.4,3.8,-147.8,0,1,0,78,100,-6008,2934,11888,3031.5,8,WP,1,0,0,0,0,0,0,1601381773628,3953,3952,3946,0,0,0,13,,,,,,,0,0,0,44.0,38.0,-1478.0,-87.0,0.0,-1463.0,14,400.0,44.42,7265.33,-23.0,-38.0,0.0,0,,,100,100,0,1,0,0,0,1,0,,,,,0.0,0.0,0,LSS,1396.6643491289337,871.4603581239606,39.78782907264264,-3.8147451629023665,-2.3362882179289186,0.001154573455431241,0
51.522732,5.867005,40.0,0.0,4.44,722.07,40.1,40.1,17.28,991.14,317978,2020-09-29 12:16:14.625,2020-09-29 14:16:14.625,18,0,0,11.888,51.519506,5.857977,-2.3,-3.8,0.0,-4.8,3.4,-148.2,0,1,0,78,100,-6008,2934,11888,3031.5,8,WP,1,0,0,0,0,0,0,1601381774625,3953,3952,3946,0,0,0,13,,,,,,,0,0,0,48.0,34.0,-1482.0,-87.0,0.0,-1466.0,14,400.0,44.42,7220.68,-23.0,-38.0,0.0,0,,,100,100,0,1,0,0,0,1,0,,,,,0.0,0.0,0,LSS,1392.8476091668194,869.2341308885223,39.78896594076343,-3.8147791656231678,-2.225083542497543,0.0011362840707831155,0
51.522711,5.866949,40.1,0.0,4.44,717.56,40.1,40.1,17.28,991.14,318981,2020-09-29 12:16:15.629,2020-09-29 14:16:15.629,18,0,0,11.951,51.519506,5.857977,-2.3,-3.8,0.0,-4.3,3.6,-148.7,0,1,0,78,100,-6314,2932,11951,3031.5,8,WP,1,0,0,0,0,0,0,1601381775628,3953,3952,3946,0,0,0,13,,,,,,,0,0,0,43.0,36.0,-1487.0,-87.0,0.0,-1470.0,14,401.0,44.42,7175.6,-23.0,-38.0,0.0,0,,,100,100,0,1,0,0,0,1,0,,,,,0.0,0.0,0,LSS,1388.961511586588,866.8966421921341,39.89012995978135,-3.8841011522392845,-2.3362878444361237,0.10111204742553834,0
51.52269,5.866893,40.1,0.0,4.49,713.04,40.1,40.1,17.28,991.14,319988,2020-09-29 12:16:16.636,2020-09-29 14:16:16.636,18,0,0,11.951,51.519506,5.857977,-2.4,-3.8,0.0,-4.1,4.2,-149.1,0,1,0,78,100,-6314,2932,11951,3031.5,8,WP,1,0,0,0,0,0,0,1601381776635,3959,3958,3952,0,0,0,13,,,,,,,0,0,0,41.0,42.0,-1491.0,-87.0,0.0,-1475.0,14,401.0,44.94,7130.37,-24.0,-38.0,0.0,0,,,100,100,0,1,0,0,0,1,0,,,,,0.0,0.0,0,LSS,1385.0753886364403,864.5591428400194,39.891290763226095,-3.884126509121949,-2.336298494688449,0.0011602070982991454,0
51.522668,5.866838,40.1,0.0,4.44,708.54,40.1,40.1,17.28,991.14,320978,2020-09-29 12:16:17.625,2020-09-29 14:16:17.625,18,0,0,11.951,51.519506,5.857977,-2.3,-3.8,0.0,-4.0,4.5,-149.6,0,1,0,78,100,-6442,2928,11951,3031.5,8,WP,1,0,0,0,0,0,0,1601381777625,3959,3958,3952,0,0,0,13,,,,,,,0,0,0,40.0,45.0,-1496.0,-87.0,0.0,-1479.0,14,401.0,44.42,7085.44,-23.0,-38.0,0.0,0,,,100,100,0,1,0,0,0,1,0,,,,,0.0,0.0,0,LSS,1381.2586988551607,862.1104063798416,39.89244838601479,-3.814729010568161,-2.447478456251257,0.001157028076265044,0
51.522648,5.866784,40.1,0.0,4.41,704.13,40.1,40.1,17.28,991.14,321990,2020-09-29 12:16:18.637,2020-09-29 14:16:18.637,18,0,0,11.951,51.519506,5.857977,-2.4,-3.7,0.1,-4.4,5.6,-150.1,0,1,0,78,100,-6442,2928,11951,3031.5,8,WP,1,0,0,0,0,0,0,1601381778637,3959,3958,3952,0,0,0,13,,,,,,,0,0,0,44.0,56.0,-1501.0,-87.0,0.0,-1484.0,14,401.0,44.11,7041.29,-24.0,-37.0,1.0,0,,,100,100,0,1,0,0,0,1,0,,,,,0.0,0.0,0,LSS,1377.5113515795797,859.8842095336743,39.89355782839692,-3.7454221286068745,-2.2250531688385577,0.0011088724217057533,0
51.522627,5.866729,40.1,0.0,4.49,699.68,40.1,40.1,17.28,991.14,322984,2020-09-29 12:16:19.631,2020-09-29 14:16:19.631,18,0,0,11.824,51.519506,5.857977,-2.4,-3.8,0.0,-4.4,6.7,-150.2,0,1,0,78,100,-6670,2926,11824,3031.5,8,WP,1,0,0,0,0,0,0,1601381779631,3959,3958,3952,0,0,0,13,,,,,,,0,0,0,44.0,67.0,-1502.0,-87.0,0.0,-1487.0,14,401.0,44.94,6996.85,-24.0,-38.0,0.0,0,,,100,100,0,1,0,0,0,1,0,,,,,0.0,0.0,0,LSS,1373.6946245510705,857.5467377339376,39.89469418008923,-3.814766238662477,-2.3362709564650816,0.001135767907605236,0
51.522606,5.866673,40.1,0.0,4.44,695.12,40.1,40.1,17.28,991.14,323986,2020-09-29 12:16:20.633,2020-09-29 14:16:20.633,18,0,0,11.824,51.519506,5.857977,-2.3,-3.8,0.1,-4.0,6.4,-150.6,0,1,0,78,100,-6670,2926,11824,3031.5,8,WP,1,0,0,0,0,0,0,1601381780633,3959,3958,3952,0,0,0,13,,,,,,,0,0,0,40.0,64.0,-1506.0,-87.0,0.0,-1489.0,14,401.0,44.43,6951.23,-23.0,-38.0,1.0,0,,,100,100,0,1,0,0,0,1,0,,,,,0.0,0.0,0,LSS,1369.808487420884,855.2092500938405,39.89584227315851,-3.8841406818761417,-2.336286788687653,0.0011475032526037082,0
51.522585,5.866617,40.1,0.0,4.49,690.59,40.1,40.1,17.28,991.14,324985,2020-09-29 12:16:21.633,2020-09-29 14:16:21.633,18,0,0,11.951,51.519506,5.857977,-2.4,-3.8,0.0,-3.4,6.3,-151.3,0,1,0,78,100,-6914,2920,11951,3031.5,8,WP,1,0,0,0,0,0,0,1601381781632,3959,3958,3952,0,0,0,13,,,,,,,0,0,0,34.0,63.0,-1513.0,-87.0,0.0,-1494.0,14,401.0,44.94,6905.86,-24.0,-38.0,0.0,0,,,100,100,0,1,0,0,0,1,0,,,,,0.0,0.0,0,LSS,1365.9223467138415,852.8717654345521,39.896987146951346,-3.884144256894343,-2.33628380941037,0.0011442856300251745,0
51.522564,5.866561,40.1,0.0,4.44,686.06,40.1,40.1,17.28,991.14,325997,2020-09-29 12:16:22.645,2020-09-29 14:16:22.645,18,0,0,11.951,51.519506,5.857977,-2.3,-3.8,0.0,-3.5,6.3,-151.6,0,1,0,78,100,-6914,2920,11951,3031.5,8,WP,1,0,0,0,0,0,0,1601381782644,3959,3958,3952,0,0,0,13,,,,,,,0,0,0,35.0,63.0,-1516.0,-87.0,0.0,-1499.0,14,401.0,44.42,6860.6,-23.0,-38.0,0.0,0,,,100,100,0,1,0,0,0,1,0,,,,,0.0,0.0,0,LSS,1362.0362024297488,850.534283756821,39.898128800872655,-3.8841478321070766,-2.3362808293848443,0.00114106741265861,0
51.522544,5.866505,40.1,0.0,4.44,681.58,40.1,40.1,17.28,991.14,326980,2020-09-29 12:16:23.627,2020-09-29 14:16:23.627,18,0,0,11.93,51.519506,5.857977,-2.3,-3.8,0.0,-4.3,6.3,-151.8,0,1,0,78,100,-6962,2918,11930,3031.5,8,WP,1,0,0,0,0,0,0,1601381783627,3959,3958,3952,0,0,0,13,,,,,,,0,0,0,43.0,63.0,-1518.0,-87.0,0.0,-1503.0,14,401.0,44.42,6815.82,-23.0,-38.0,0.0,0,,,100,100,0,1,0,0,0,1,0,,,,,0.0,0.0,0,LSS,1358.1500248221396,848.3080640180074,39.89925243717465,-3.8841811385039793,-2.2250760497240396,0.0011230590496460035,0
51.522523,5.866449,40.1,0.0,4.44,677.08,40.1,40.1,17.28,991.14,327982,2020-09-29 12:16:24.629,2020-09-29 14:16:24.630,18,0,0,11.93,51.519506,5.857977,-2.3,-3.8,0.0,-4.0,5.3,-152.3,0,1,0,78,100,-6962,2918,11930,3031.5,8,WP,1,0,0,0,0,0,0,1601381784629,3959,3958,3952,0,0,0,13,,,,,,,0,0,0,40.0,53.0,-1523.0,-87.0,0.0,-1506.0,14,401.0,44.42,6770.79,-23.0,-38.0,0.0,0,,,100,100,0,1,0,0,0,1,0,,,,,0.0,0.0,0,LSS,1354.263873469427,845.9705883010082,39.900387692509696,-3.884154897095552,-2.336274871715104,0.0011346721135770607,0
51.522503,5.866392,40.1,0.0,4.49,672.55,40.1,40.1,17.28,991.14,328978,2020-09-29 12:16:25.625,2020-09-29 14:16:25.625,18,0,0,11.972,51.519506,5.857977,-2.4,-3.8,0.0,-3.6,5.2,-153.0,0,1,0,78,100,-7172,2914,11972,3031.5,8,WP,1,0,0,0,0,0,0,1601381785625,3959,3958,3952,0,0,0,13,,,,,,,0,0,0,36.0,52.0,-1530.0,-87.0,0.0,-1510.0,14,401.0,44.94,6725.52,-24.0,-38.0,0.0,0,,,100,100,0,1,0,0,0,1,0,,,,,0.0,0.0,0,LSS,1350.3082822179692,843.7443560751924,39.90151967608858,-3.953559122068947,-2.225088530311227,0.00113140203823912,0
51.522482,5.866337,40.1,0.0,4.5,668.05,40.1,40.1,17.28,991.14,329973,2020-09-29 12:16:26.621,2020-09-29 14:16:26.621,18,0,0,11.972,51.519506,5.857977,-2.4,-3.8,0.1,-3.7,5.8,-153.4,0,1,0,78,100,-7172,2914,11972,3031.5,8,WP,1,0,0,0,0,0,0,1601381786620,3945,3945,3938,0,0,0,13,,,,,,,0,0,0,37.0,58.0,-1534.0,-87.0,0.0,-1516.0,14,401.0,44.96,6680.5,-24.0,-38.0,1.0,0,,,100,100,0,1,0,0,0,1,0,,,,,0.0,0.0,0,LSS,1346.4915305418122,841.4069047688438,39.90263386733227,-3.8147908736480276,-2.3362504736051792,0.001113618843601335,0
51.522461,5.866281,40.1,0.0,4.49,663.49,40.1,40.1,17.28,991.14,330980,2020-09-29 12:16:27.627,2020-09-29 14:16:27.627,18,0,0,11.93,51.519506,5.857977,-2.4,-3.8,0.0,-4.6,4.9,-153.9,0,1,0,78,100,-6962,2907,11930,3031.5,8,WP,1,0,0,0,0,0,0,1601381787627,3945,3945,3938,0,0,0,13,,,,,,,0,0,0,46.0,49.0,-1539.0,-87.0,0.0,-1521.0,14,401.0,44.94,6634.91,-24.0,-38.0,0.0,0,,,100,100,0,1,0,0,0,1,0,,,,,0.0,0.0,0,LSS,1342.6053685434663,839.0694379942843,39.9037595029003,-3.8841655372597184,-2.3362659338695075,0.0011250572885839157,0
51.522439,5.866225,40.1,0.0,4.41,658.92,40.1,40.1,17.28,991.14,331980,2020-09-29 12:16:28.628,2020-09-29 14:16:28.628,18,0,0,11.93,51.519506,5.857977,-2.4,-3.7,0.0,-2.2,6.5,-154.6,0,1,0,78,100,-6962,2907,11930,3031.5,8,WP,1,0,0,0,0,0,0,1601381788627,3945,3945,3938,0,0,0,13,,,,,,,0,0,0,22.0,65.0,-1546.0,-87.0,0.0,-1528.0,14,401.0,44.1,6589.24,-24.0,-37.0,0.0,0,,,100,100,0,1,0,0,0,1,0,,,,,0.0,0.0,0,LSS,1338.7192322892677,836.6207152451914,39.904896517832185,-3.884139806338161,-2.4474647522102586,0.0011364308064504898,0
51.522418,5.86617,40.1,0.0,4.44,654.47,40.1,40.1,17.28,991.14,332980,2020-09-29 12:16:29.628,2020-09-29 14:16:29.628,18,0,0,11.972,51.519506,5.857977,-2.3,-3.8,0.0,-2.8,6.7,-154.8,0,1,0,78,100,-7002,2905,11972,3031.5,8,WP,1,0,0,0,0,0,0,1601381789627,3945,3945,3938,0,0,0,13,,,,,,,0,0,0,28.0,67.0,-1548.0,-87.0,0.0,-1532.0,14,401.0,44.42,6544.73,-23.0,-38.0,0.0,0,,,100,100,0,1,0,0,0,1,0,,,,,0.0,0.0,0,LSS,1334.9024699266097,834.2832726709482,39.90600117681157,-3.8148015546588883,-2.336241745985705,0.001104091476367533,0
51.522398,5.866114,40.0,0.0,4.48,649.95,40.1,40.1,17.28,991.14,333985,2020-09-29 12:16:30.633,2020-09-29 14:16:30.633,18,0,0,11.972,51.519506,5.857977,-2.2,-3.9,0.0,-4.2,4.9,-155.0,0,1,0,78,100,-7002,2905,11972,3031.5,8,WP,1,0,0,0,0,0,0,1601381790632,3945,3945,3938,0,0,0,13,,,,,,,0,0,0,42.0,49.0,-1550.0,-87.0,0.0,-1536.0,14,400.0,44.78,6499.5,-22.0,-39.0,0.0,0,,,100,100,0,1,0,0,0,1,0,,,,,0.0,0.0,0,LSS,1331.016247166695,832.057060691503,39.80710264439671,-3.8842262676131916,-2.2250682943419333,-0.0988477246843766,0
51.522377,5.866057,40.0,0.0,4.41,645.37,40.1,40.1,17.28,991.14,334983,2020-09-29 12:16:31.630,2020-09-29 14:16:31.630,18,0,0,11.803,51.519506,5.857977,-2.4,-3.7,0.0,-3.0,5.1,-155.8,0,1,0,77,100,-6826,2899,11803,3031.5,8,WP,1,0,0,0,0,0,0,1601381791630,3945,3945,3938,0,0,0,13,,,,,,,0,0,0,30.0,51.0,-1558.0,-87.0,0.0,-1540.0,14,400.0,44.1,6453.73,-24.0,-37.0,0.0,0,,,100,100,0,1,0,0,0,1,0,,,,,0.0,0.0,0,LSS,1327.0606640175488,829.7195876933529,39.808229859525795,-3.953551023919856,-2.336272154262842,0.001126636038164583,0
51.522357,5.866002,40.0,0.0,4.44,640.98,40.1,40.1,17.28,991.14,335972,2020-09-29 12:16:32.620,2020-09-29 14:16:32.620,18,0,0,11.803,51.519506,5.857977,-2.3,-3.8,0.0,-3.3,5.9,-156.3,0,1,0,77,100,-6826,2899,11803,3031.5,8,WP,1,0,0,0,0,0,0,1601381792619,3945,3945,3938,0,0,0,13,,,,,,,0,0,0,33.0,59.0,-1563.0,-87.0,0.0,-1544.0,14,400.0,44.42,6409.81,-23.0,-38.0,0.0,0,,,100,100,0,1,0,0,0,1,0,,,,,0.0,0.0,0,LSS,1323.2438621813747,827.4934128922321,39.809310590757605,-3.814841007896078,-2.2250311351173555,0.0010801760213343297,0
51.522337,5.865947,40.0,0.0,4.49,636.53,40.1,40.1,17.28,991.14,336985,2020-09-29 12:16:33.632,2020-09-29 14:16:33.632,18,0,0,11.74,51.519506,5.857977,-2.4,-3.8,0.0,-3.5,5.3,-156.3,0,1,0,77,100,-7068,2897,11740,3031.5,8,WP,1,0,0,0,0,0,0,1601381793632,3945,3945,3938,0,0,0,13,,,,,,,0,0,0,35.0,53.0,-1563.0,-87.0,0.0,-1548.0,14,400.0,44.94,6365.31,-24.0,-38.0,0.0,0,,,100,100,0,1,0,0,0,1,0,,,,,0.0,0.0,0,LSS,1319.427056999559,825.2672409659586,39.81038826547865,-3.8148443518188184,-2.2250282617468855,0.0010771210808101597,0
51.522315,5.865891,40.0,0.0,4.49,631.96,40.1,40.1,17.28,991.14,337980,2020-09-29 12:16:34.628,2020-09-29 14:16:34.628,17,0,0,11.74,51.519506,5.857977,-2.4,-3.8,0.0,-1.9,6.2,-156.1,0,1,0,77,100,-7068,2897,11740,3031.5,8,WP,1,0,0,0,0,0,0,1601381794627,3945,3945,3938,0,0,0,13,,,,,,,0,0,0,19.0,62.0,-1561.0,-87.0,0.0,-1551.0,14,400.0,44.94,6319.59,-24.0,-38.0,0.0,0,,,100,100,0,1,0,0,0,1,0,,,,,0.0,0.0,0,LSS,1315.5408990712542,822.8185360372967,39.81150588628191,-3.8841614693095585,-2.4474469409343422,0.0011170466412829944,0
51.522294,5.865835,40.0,0.0,4.44,627.4,40.1,40.1,17.28,991.14,338984,2020-09-29 12:16:35.631,2020-09-29 14:16:35.632,18,0,0,11.888,51.519506,5.857977,-2.3,-3.8,0.0,-3.6,4.8,-156.3,0,1,0,77,100,-6606,2891,11888,3031.5,8,WP,1,0,0,0,0,0,0,1601381795631,3945,3945,3938,0,0,0,13,,,,,,,0,0,0,36.0,48.0,-1563.0,-87.0,0.0,-1552.0,14,400.0,44.42,6274.01,-23.0,-38.0,0.0,0,,,100,100,0,1,0,0,0,1,0,,,,,0.0,0.0,0,LSS,1311.6547086675591,820.4810930416022,39.81260589158177,-3.884193928016082,-2.3362421672205085,0.0010994401876046668,0
51.522274,5.865779,40.0,0.0,4.41,622.92,40.1,40.1,17.28,991.14,339976,2020-09-29 12:16:36.624,2020-09-29 14:16:36.624,18,0,0,11.888,51.519506,5.857977,-2.4,-3.7,0.0,-2.5,5.7,-158.2,0,1,0,77,100,-6606,2891,11888,3031.5,8,WP,1,0,0,0,0,0,0,1601381796623,3945,3945,3938,0,0,0,13,,,,,,,0,0,0,25.0,57.0,-1582.0,-87.0,0.0,-1558.0,14,400.0,44.1,6229.21,-24.0,-37.0,0.0,0,,,100,100,0,1,0,0,0,1,0,,,,,0.0,0.0,0,LSS,1307.7684860441695,818.254911979968,39.81368840305669,-3.8842261311581705,-2.225037392414478,0.0010819553498697234,0
51.522253,5.865723,40.0,0.0,4.44,618.42,40.1,40.1,17.28,991.14,340986,2020-09-29 12:16:37.633,2020-09-29 14:16:37.633,18,0,0,11.93,51.519506,5.857977,-2.3,-3.8,0.0,-2.1,5.2,-158.4,0,1,0,77,100,-6518,2889,11930,3031.5,8,WP,1,0,0,0,0,0,0,1601381797633,3946,3945,3938,0,0,0,13,,,,,,,0,0,0,21.0,52.0,-1584.0,-87.0,0.0,-1568.0,14,400.0,44.42,6184.19,-23.0,-38.0,0.0,0,,,100,100,0,1,0,0,0,1,0,,,,,0.0,0.0,0,LSS,1303.8822885720176,815.9174749447792,39.81478200876046,-3.884200992841614,-2.3362362097770024,0.001093043879218564,0
51.522232,5.865667,40.0,0.0,4.41,613.86,40.1,40.1,17.28,991.14,341974,2020-09-29 12:16:38.622,2020-09-29 14:16:38.622,18,0,0,11.93,51.519506,5.857977,-2.4,-3.7,0.0,-2.0,5.2,-158.8,0,1,0,77,100,-6518,2889,11930,3031.5,8,WP,1,0,0,0,0,0,0,1601381798621,3946,3945,3938,0,0,0,13,,,,,,,0,0,0,20.0,52.0,-1588.0,-87.0,0.0,-1572.0,14,400.0,44.1,6138.63,-24.0,-37.0,0.0,0,,,100,100,0,1,0,0,0,1,0,,,,,0.0,0.0,0,LSS,1299.9960875228733,813.5800408917227,39.815872395325414,-3.8842045679963975,-2.336233229176744,0.001089826394187248,0
51.522211,5.865612,40.0,0.0,4.36,609.45,40.1,40.1,17.28,991.14,342987,2020-09-29 12:16:39.634,2020-09-29 14:16:39.634,18,0,0,11.782,51.519506,5.857977,-2.3,-3.7,0.0,-3.1,6.2,-159.2,0,1,0,77,100,-7096,2887,11782,3031.5,8,WP,1,0,0,0,0,0,0,1601381799634,3946,3945,3938,0,0,0,13,,,,,,,0,0,0,31.0,62.0,-1592.0,-87.0,0.0,-1576.0,14,400.0,43.57,6094.49,-23.0,-37.0,0.0,0,,,100,100,0,1,0,0,0,1,0,,,,,0.0,0.0,0,LSS,1296.1792900855196,811.2426275274963,39.81694548335554,-3.8148366113354446,-2.336212550975135,0.0010725367462377248,0
51.522191,5.865557,40.0,0.0,4.49,604.95,40.1,40.1,17.28,991.14,343995,2020-09-29 12:16:40.643,2020-09-29 14:16:40.643,18,0,0,11.782,51.519506,5.857977,-2.4,-3.8,0.0,-2.8,5.4,-159.4,0,1,0,77,100,-7096,2887,11782,3031.5,8,WP,1,0,0,0,0,0,0,1601381800642,3946,3945,3938,0,0,0,13,,,,,,,0,0,0,28.0,54.0,-1594.0,-87.0,0.0,-1580.0,14,400.0,44.94,6049.51,-24.0,-38.0,0.0,0,,,100,100,0,1,0,0,0,1,0,,,,,0.0,0.0,0,LSS,1292.362460829669,809.0164759908325,39.818001324037425,-3.814868413485976,-2.22500788261213,0.0010552982585810007,0
51.52217,5.865501,40.1,0.0,4.44,600.43,40.1,40.1,17.28,991.14,344971,2020-09-29 12:16:41.618,2020-09-29 14:16:41.619,18,0,0,11.993,51.519506,5.857977,-2.3,-3.8,0.0,-2.4,5.2,-159.8,0,1,0,77,100,-7018,2882,11993,3031.5,8,WP,1,0,0,0,0,0,0,1601381801618,3946,3945,3938,0,0,0,13,,,,,,,0,0,0,24.0,52.0,-1598.0,-87.0,0.0,-1583.0,14,401.0,44.42,6004.27,-23.0,-38.0,0.0,0,,,100,100,0,1,0,0,0,1,0,,,,,0.0,0.0,0,LSS,1288.4762693590449,806.6790634289391,39.91908217264955,-3.8841949943971064,-2.336211749054402,0.1010289197473776,0
51.522149,5.865446,40.0,0.0,4.44,595.96,40.1,40.1,17.28,991.14,345998,2020-09-29 12:16:42.646,2020-09-29 14:16:42.646,18,0,0,11.993,51.519506,5.857977,-2.3,-3.8,0.0,-3.9,5.6,-160.0,0,1,0,77,100,-7018,2882,11993,3031.5,8,WP,1,0,0,0,0,0,0,1601381802645,3946,3945,3938,0,0,0,13,,,,,,,0,0,0,39.0,56.0,-1600.0,-87.0,0.0,-1586.0,14,400.0,44.42,5959.55,-23.0,-38.0,0.0,0,,,100,100,0,1,0,0,0,1,0,,,,,0.0,0.0,0,LSS,1284.6594412746692,804.341646089456,39.82014585600501,-3.8148672426129266,-2.3362165241896347,-0.09888548950293556,0
51.522128,5.86539,40.0,0.0,4.36,591.4,40.1,40.1,17.28,991.14,346986,2020-09-29 12:16:43.633,2020-09-29 14:16:43.633,18,0,0,11.803,51.519506,5.857977,-2.3,-3.7,0.0,-2.4,5.8,-160.7,0,1,0,77,100,-6956,2878,11803,3031.5,8,WP,1,0,0,0,0,0,0,1601381803633,3946,3945,3938,0,0,0,13,,,,,,,0,0,0,24.0,58.0,-1607.0,-87.0,0.0,-1590.0,14,400.0,43.57,5913.98,-23.0,-37.0,0.0,0,,,100,100,0,1,0,0,0,1,0,,,,,0.0,0.0,0,LSS,1280.7732225223194,802.0042267833142,39.8212203115595,-3.8842222621070825,-2.33621848983812,0.0010739035680535063,0
51.522107,5.865334,40.0,0.0,4.44,586.94,40.1,40.1,17.28,991.14,347985,2020-09-29 12:16:44.633,2020-09-29 14:16:44.633,18,0,0,11.803,51.519506,5.857977,-2.3,-3.8,0.0,-3.0,6.0,-161.1,0,1,0,77,100,-6956,2878,11803,3031.5,8,WP,1,0,0,0,0,0,0,1601381804632,3946,3945,3938,0,0,0,13,,,,,,,0,0,0,30.0,60.0,-1611.0,-87.0,0.0,-1594.0,14,400.0,44.42,5869.38,-23.0,-38.0,0.0,0,,,100,100,0,1,0,0,0,1,0,,,,,0.0,0.0,0,LSS,1276.8870001932612,799.6668104557109,39.82229154726264,-3.8842258369780214,-2.3362155128296562,0.0010706853708559883,0
51.522087,5.865278,40.0,0.0,4.49,582.45,40.1,40.1,17.28,991.14,348987,2020-09-29 12:16:45.635,2020-09-29 14:16:45.635,18,0,0,11.909,51.519506,5.857977,-2.4,-3.8,0.0,-2.9,5.8,-161.3,0,1,0,77,100,-7194,2872,11909,3031.5,8,WP,1,0,0,0,0,0,0,1601381805634,3946,3945,3938,0,0,0,13,,,,,,,0,0,0,29.0,58.0,-1613.0,-87.0,0.0,-1598.0,14,400.0,44.94,5824.51,-24.0,-38.0,0.0,0,,,100,100,0,1,0,0,0,1,0,,,,,0.0,0.0,0,LSS,1273.000746406149,797.4406560599941,39.82334565018198,-3.88425727887097,-2.2250107401963155,0.0010535613887866575,0
51.522066,5.865222,40.0,0.0,4.41,577.89,40.1,40.1,17.28,991.14,349992,2020-09-29 12:16:46.639,2020-09-29 14:16:46.639,18,0,0,11.909,51.519506,5.857977,-2.4,-3.7,0.0,-2.3,5.3,-161.9,0,1,0,77,100,-7194,2872,11909,3031.5,8,WP,1,0,0,0,0,0,0,1601381806639,3946,3945,3938,0,0,0,13,,,,,,,0,0,0,23.0,53.0,-1619.0,-87.0,0.0,-1602.0,14,400.0,44.1,5778.91,-24.0,-37.0,0.0,0,,,100,100,0,1,0,0,0,1,0,,,,,0.0,0.0,0,LSS,1269.1145170085551,795.1032456953743,39.82441048788843,-3.884232901882185,-2.3362095529096183,0.0010642906610514912,0
51.522045,5.865166,40.0,0.0,4.41,573.37,40.1,40.1,17.28,991.14,350972,2020-09-29 12:16:47.620,2020-09-29 14:16:47.620,18,0,0,12.036,51.519506,5.857977,-2.4,-3.7,0.0,-2.1,5.7,-162.3,0,1,0,77,100,-7134,2870,12036,3031.5,8,WP,1,0,0,0,0,0,0,1601381807619,3946,3945,3938,0,0,0,13,,,,,,,0,0,0,21.0,57.0,-1623.0,-87.0,0.0,-1607.0,14,400.0,44.1,5733.73,-24.0,-37.0,0.0,0,,,100,100,0,1,0,0,0,1,0,,,,,0.0,0.0,0,LSS,1265.2282840342957,792.7658383124344,39.825472104436244,-3.8842364767103996,-2.3362065727614874,0.0010610711572406255,0
51.522024,5.865111,40.0,0.0,4.44,568.87,40.1,40.1,17.28,991.14,352005,2020-09-29 12:16:48.653,2020-09-29 14:16:48.653,18,0,0,12.036,51.519506,5.857977,-2.3,-3.8,0.0,-2.9,5.5,-162.7,0,1,0,77,100,-7134,2870,12036,3031.5,8,WP,1,0,0,0,0,0,0,1601381808652,3934,3934,3926,0,0,0,13,,,,,,,0,0,0,29.0,55.0,-1627.0,-87.0,0.0,-1611.0,14,400.0,44.42,5688.67,-23.0,-38.0,0.0,0,,,100,100,0,1,0,0,0,1,0,,,,,0.0,0.0,0,LSS,1261.4114549560113,790.4284511430857,39.82651680264894,-3.8148682360110904,-2.3361863695547935,0.001044161513677009,0
51.522002,5.865054,40.0,0.0,4.49,564.25,40.1,40.1,17.28,991.14,353022,2020-09-29 12:16:49.669,2020-09-29 14:16:49.669,18,0,0,11.888,51.519506,5.857977,-2.4,-3.8,0.0,0.4,4.9,-163.0,0,1,0,77,100,-7182,2864,11888,3031.5,8,WP,1,0,0,0,0,0,0,1601381809669,3934,3934,3926,0,0,0,13,,,,,,,0,0,0,-4.0,49.0,-1630.0,-87.0,0.0,-1615.0,14,400.0,44.94,5642.47,-24.0,-38.0,0.0,0,,,100,100,0,1,0,0,0,1,0,,,,,0.0,0.0,0,LSS,1257.455834895842,787.9797735420756,39.82759942808292,-3.953587915980581,-2.447419627321661,0.0010820692503857128,0
51.521981,5.864998,40.0,0.0,4.44,559.72,40.1,40.1,17.28,991.14,353970,2020-09-29 12:16:50.617,2020-09-29 14:16:50.617,18,0,0,11.888,51.519506,5.857977,-2.3,-3.8,0.0,0.1,4.2,-163.7,0,1,0,77,100,-7182,2864,11888,3031.5,8,WP,1,0,0,0,0,0,0,1601381810617,3934,3934,3926,0,0,0,13,,,,,,,0,0,0,-1.0,42.0,-1637.0,-87.0,0.0,-1621.0,14,400.0,44.42,5597.19,-23.0,-38.0,0.0,0,,,100,100,0,1,0,0,0,1,0,,,,,0.0,0.0,0,LSS,1253.569591106087,785.6423751016421,39.82865134509535,-3.884247286649534,-2.336197634849191,0.0010513766048576715,0
51.521961,5.864942,40.0,0.0,4.36,555.22,40.1,40.1,17.28,991.14,354973,2020-09-29 12:16:51.621,2020-09-29 14:16:51.621,18,0,0,11.846,51.519506,5.857977,-2.3,-3.7,0.0,-1.9,4.3,-164.0,0,1,0,76,100,-6844,2862,11846,3031.5,8,WP,1,0,0,0,0,0,0,1601381811620,3934,3934,3926,0,0,0,13,,,,,,,0,0,0,19.0,43.0,-1640.0,-87.0,0.0,-1626.0,14,400.0,43.57,5552.2,-23.0,-37.0,0.0,0,,,100,100,0,1,0,0,0,1,0,,,,,0.0,0.0,0,LSS,1249.6833163688796,783.4162385900012,39.82968637568803,-3.88427821820333,-2.2249928653081343,0.001034498860260783,0
51.521941,5.864885,40.0,0.0,4.36,550.7,40.1,40.1,17.28,991.14,355993,2020-09-29 12:16:52.641,2020-09-29 14:16:52.641,18,0,0,11.846,51.519506,5.857977,-2.3,-3.7,0.0,-2.9,4.1,-163.3,0,1,0,76,100,-6844,2862,11846,3031.5,8,WP,1,0,0,0,0,0,0,1601381812640,3934,3934,3926,0,0,0,13,,,,,,,0,0,0,29.0,41.0,-1633.0,-87.0,0.0,-1627.0,14,400.0,43.57,5507.02,-23.0,-37.0,0.0,0,,,100,100,0,1,0,0,0,1,0,,,,,0.0,0.0,0,LSS,1245.727630626254,781.1900880390126,39.83073179673772,-3.9536535646932673,-2.225006897443278,0.0010448839793305846,0
51.52192,5.864831,40.0,0.0,4.36,546.27,40.1,40.1,17.28,991.14,356973,2020-09-29 12:16:53.621,2020-09-29 14:16:53.621,18,0,0,11.824,51.519506,5.857977,-2.3,-3.7,0.0,-2.5,5.5,-164.0,0,1,0,76,100,-6878,2855,11824,3031.5,8,WP,1,0,0,0,0,0,0,1601381813620,3934,3934,3926,0,0,0,13,,,,,,,0,0,0,25.0,55.0,-1640.0,-87.0,0.0,-1628.0,14,400.0,43.57,5462.74,-23.0,-37.0,0.0,0,,,100,100,0,1,0,0,0,1,0,,,,,0.0,0.0,0,LSS,1241.9801915065098,778.8527325294566,39.83174711563953,-3.7455139255865344,-2.3361547260268276,0.0010147972959968074,0
51.5219,5.864776,40.0,0.0,4.41,541.83,40.1,40.1,17.28,991.14,357971,2020-09-29 12:16:54.618,2020-09-29 14:16:54.618,18,0,0,11.824,51.519506,5.857977,-2.4,-3.7,0.0,-3.2,4.5,-164.8,0,1,0,76,100,-6878,2855,11824,3031.5,8,WP,1,0,0,0,0,0,0,1601381814618,3934,3934,3926,0,0,0,13,,,,,,,0,0,0,32.0,45.0,-1648.0,-87.0,0.0,-1631.0,14,400.0,44.1,5418.32,-24.0,-37.0,0.0,0,,,100,100,0,1,0,0,0,1,0,,,,,0.0,0.0,0,LSS,1238.1633141567627,776.6266218201124,39.83275928093684,-3.8149164826749793,-2.2249670762669966,0.0010116453116210118,0
51.521879,5.864721,40.0,0.0,4.44,537.39,40.1,40.1,17.28,991.14,358981,2020-09-29 12:16:55.628,2020-09-29 14:16:55.628,18,0,0,11.803,51.519506,5.857977,-2.3,-3.8,0.0,-3.9,3.9,-166.0,0,1,0,76,100,-6600,2853,11803,3031.5,8,WP,1,0,0,0,0,0,0,1601381815628,3934,3934,3926,0,0,0,13,,,,,,,0,0,0,39.0,39.0,-1660.0,-87.0,0.0,-1637.0,14,400.0,44.42,5373.94,-23.0,-38.0,0.0,0,,,100,100,0,1,0,0,0,1,0,,,,,0.0,0.0,0,LSS,1234.3464604958313,774.2892550419954,39.833781898726556,-3.81489280602913,-2.3361659887987876,0.0010220924342040603,0
51.521858,5.864666,40.0,0.0,4.44,532.87,40.1,40.1,17.28,991.14,359992,2020-09-29 12:16:56.639,2020-09-29 14:16:56.639,18,0,0,11.803,51.519506,5.857977,-2.3,-3.8,0.0,-2.7,5.1,-166.2,0,1,0,76,100,-6600,2853,11803,3031.5,8,WP,1,0,0,0,0,0,0,1601381816639,3934,3934,3926,0,0,0,13,,,,,,,0,0,0,27.0,51.0,-1662.0,-87.0,0.0,-1645.0,14,400.0,44.42,5328.68,-23.0,-38.0,0.0,0,,,100,100,0,1,0,0,0,1,0,,,,,0.0,0.0,0,LSS,1230.5296033219543,771.9518911393808,39.834801382149294,-3.814896317169972,-2.3361631147735906,0.0010189596774635053,0
51.521837,5.864609,40.0,0.0,4.36,528.31,40.1,40.1,17.28,991.14,360975,2020-09-29 12:16:57.623,2020-09-29 14:16:57.623,18,0,0,11.803,51.519506,5.857977,-2.3,-3.7,0.0,-2.9,4.9,-166.6,0,1,0,76,100,-7056,2849,11803,3041.5,8,WP,1,0,0,0,0,0,0,1601381817622,3934,3934,3926,0,0,0,13,,,,,,,0,0,0,29.0,49.0,-1666.0,-87.0,0.0,-1649.0,14,400.0,43.57,5283.1,-23.0,-37.0,0.0,0,,,100,100,0,1,0,0,0,1,0,,,,,0.0,0.0,0,LSS,1226.5739271206148,769.6144965962403,39.83584437443028,-3.9536440283088785,-2.3361937395583436,0.0010424564583666543,0
51.521816,5.864553,39.9,0.0,4.41,523.79,40.1,40.1,17.28,991.14,361980,2020-09-29 12:16:58.628,2020-09-29 14:16:58.628,18,0,0,11.803,51.519506,5.857977,-2.4,-3.7,0.0,-1.7,6.0,-167.3,0,1,0,76,100,-7056,2849,11803,3041.5,8,WP,1,0,0,0,0,0,0,1601381818627,3934,3934,3926,0,0,0,13,,,,,,,0,0,0,17.0,60.0,-1673.0,-87.0,0.0,-1655.0,14,399.0,44.1,5237.9,-24.0,-37.0,0.0,0,,,100,100,0,1,0,0,0,1,0,,,,,0.0,0.0,0,LSS,1222.6876359373682,767.277109808897,39.73687078446051,-3.884294655793535,-2.336185987745647,-0.0989227436795222,0
51.521795,5.864499,39.9,0.0,4.36,519.35,40.1,40.1,17.28,991.14,362975,2020-09-29 12:16:59.623,2020-09-29 14:16:59.623,18,0,0,11.867,51.519506,5.857977,-2.3,-3.7,0.0,-2.0,6.0,-167.4,0,1,0,76,100,-7122,2845,11867,3041.5,8,WP,1,0,0,0,0,0,0,1601381819622,3931,3930,3921,0,0,0,13,,,,,,,0,0,0,20.0,60.0,-1674.0,-87.0,0.0,-1660.0,14,399.0,43.57,5193.48,-23.0,-37.0,0.0,0,,,100,100,0,1,0,0,0,1,0,,,,,0.0,0.0,0,LSS,1218.94017600911,764.9397713799085,39.73786749612583,-3.7455347234103624,-2.3361376542341836,0.0009961996187188699,0
51.521774,5.864443,39.9,0.0,4.44,514.84,40.1,40.1,17.28,991.14,363973,2020-09-29 12:17:00.620,2020-09-29 14:17:00.620,18,0,0,11.867,51.519506,5.857977,-2.3,-3.8,0.0,-2.8,5.1,-167.6,0,1,0,76,100,-7122,2845,11867,3041.5,8,WP,1,0,0,0,0,0,0,1601381820620,3931,3930,3921,0,0,0,13,,,,,,,0,0,0,28.0,51.0,-1676.0,-87.0,0.0,-1662.0,14,399.0,44.42,5148.39,-23.0,-38.0,0.0,0,,,100,100,0,1,0,0,0,1,0,,,,,0.0,0.0,0,LSS,1215.053896927501,762.6024025218591,39.73888754972245,-3.884282560372987,-2.336168067662666,0.0010195295584261327,0
51.521754,5.864387,40.0,0.0,4.49,510.31,40.1,40.1,17.28,991.14,364998,2020-09-29 12:17:01.645,2020-09-29 14:17:01.645,18,0,0,11.846,51.519506,5.857977,-2.4,-3.8,0.0,-2.0,6.6,-168.7,0,1,0,76,100,-7242,2841,11846,3041.5,8,WP,1,0,0,0,0,0,0,1601381821645,3931,3930,3921,0,0,0,13,,,,,,,0,0,0,20.0,66.0,-1687.0,-87.0,0.0,-1668.0,14,400.0,44.94,5103.11,-24.0,-38.0,0.0,0,,,100,100,0,1,0,0,0,1,0,,,,,0.0,0.0,0,LSS,1211.1676066928337,760.3763075139716,39.83989111305135,-3.884293707701527,-2.224951382876667,0.10095167416837961,0
51.521732,5.864331,40.0,0.0,4.49,505.77,40.1,40.1,17.28,991.14,365974,2020-09-29 12:17:02.621,2020-09-29 14:17:02.621,18,0,0,11.846,51.519506,5.857977,-2.4,-3.8,0.0,-1.0,5.9,-168.8,0,1,0,76,100,-7242,2841,11846,3041.5,8,WP,1,0,0,0,0,0,0,1601381822621,3931,3930,3921,0,0,0,13,,,,,,,0,0,0,10.0,59.0,-1688.0,-87.0,0.0,-1673.0,14,400.0,44.94,5057.72,-24.0,-38.0,0.0,0,,,100,100,0,1,0,0,0,1,0,,,,,0.0,0.0,0,LSS,1207.281346923817,757.9276856385575,39.840917991562435,-3.884263257702302,-2.4473639303539176,0.0010263509666869738,0
51.521712,5.864276,40.0,0.0,4.36,501.34,40.1,40.1,17.28,991.14,366971,2020-09-29 12:17:03.618,2020-09-29 14:17:03.618,18,0,0,11.93,51.519506,5.857977,-2.3,-3.7,0.0,-2.2,6.5,-168.5,0,1,0,76,100,-7092,2834,11930,3041.5,8,WP,1,0,0,0,0,0,0,1601381823618,3931,3930,3921,0,0,0,13,,,,,,,0,0,0,22.0,65.0,-1685.0,-87.0,0.0,-1676.0,14,400.0,43.57,5013.42,-23.0,-37.0,0.0,0,,,100,100,0,1,0,0,0,1,0,,,,,0.0,0.0,0,LSS,1203.4644386424006,755.7016010701952,39.84190213112987,-3.814947398453513,-2.2249409487146004,0.0009836339795702056,0
51.521691,5.86422,39.9,0.0,4.44,496.84,40.1,40.1,17.28,991.14,367985,2020-09-29 12:17:04.633,2020-09-29 14:17:04.633,18,0,0,11.93,51.519506,5.857977,-2.3,-3.8,0.0,-2.5,5.9,-169.2,0,1,0,76,100,-7092,2834,11930,3041.5,8,WP,1,0,0,0,0,0,0,1601381824632,3931,3930,3921,0,0,0,13,,,,,,,0,0,0,25.0,59.0,-1692.0,-87.0,0.0,-1677.0,14,399.0,44.42,4968.39,-23.0,-38.0,0.0,0,,,100,100,0,1,0,0,0,1,0,,,,,0.0,0.0,0,LSS,1199.5781265413777,753.3642322280468,39.74290938930886,-3.884315562823604,-2.336168051769798,-0.0989418856917617,0
51.521671,5.864164,39.9,0.0,4.39,492.29,40.1,40.1,17.28,991.14,368985,2020-09-29 12:17:05.632,2020-09-29 14:17:05.632,18,0,0,11.782,51.519506,5.857977,-2.2,-3.8,0.0,-3.1,5.2,-169.5,0,1,0,76,100,-7298,2832,11782,3041.5,8,WP,1,0,0,0,0,0,0,1601381825632,3931,3930,3921,0,0,0,13,,,,,,,0,0,0,31.0,52.0,-1695.0,-87.0,0.0,-1681.0,14,399.0,43.91,4922.94,-22.0,-38.0,0.0,0,,,100,100,0,1,0,0,0,1,0,,,,,0.0,0.0,0,LSS,1195.6918035056271,751.1381371616834,39.74390032224079,-3.8843264919337392,-2.224951441322588,0.000990423854066101,0
51.521651,5.864108,39.9,0.0,4.44,487.86,40.1,40.1,17.28,991.14,369983,2020-09-29 12:17:06.631,2020-09-29 14:17:06.631,18,0,0,11.782,51.519506,5.857977,-2.3,-3.8,0.0,-4.2,5.3,-169.9,0,1,0,76,100,-7298,2832,11782,3041.5,8,WP,1,0,0,0,0,0,0,1601381826630,3931,3930,3921,0,0,0,13,,,,,,,0,0,0,42.0,53.0,-1699.0,-87.0,0.0,-1684.0,14,399.0,44.42,4878.58,-23.0,-38.0,0.0,0,,,100,100,0,1,0,0,0,1,0,,,,,0.0,0.0,0,LSS,1191.8054770634149,748.912045075073,39.74488811526095,-3.8843298966454185,-2.2249484631003456,0.0009872855553828119,0
