lat,lon,alt,ultrasonicHeight(m),speed(mps),distance(m),max_altitude(m),max_ascent(m),max_speed(mps),max_distance(m),time(millisecond),datetime(utc),time,satellites,pressure(Pa),temperature(F),voltage(v),home_latitude,home_longitude,velocityX(mps),velocityY(mps),velocityZ(mps),pitch(deg),roll(deg),yaw(deg),powerlevel,isflying,istakingphoto,remainPowerPercent,remainLifePercent,currentCurrent,currentElectricity,currentVoltage,batteryTemperature,dischargeCount,flightmode,isMotorsOn,isTakingVideo,Rc_elevator,Rc_aileron,Rc_throttle,Rc_rudder,Rc_gyro,timestamp,Battery_Cell1,Battery_Cell2,Battery_Cell3,Battery_Cell4,Battery_Cell5,Battery_Cell6,Dronetype,AppVersion,Planename,FlyControllerSerialNumber,RemoteSerialNumber,BatterySerialNumber,CENTER_BATTERY.productDate,CENTER_BATTERY.serialNo,CENTER_BATTERY.fullCapacity,CENTER_BATTERY.productDateRaw,pitchRaw,rollRaw,yawRaw,gimbalPitchRaw,gimbalRollRaw,gimbalYawRaw,flyState,altitudeRaw,speedRaw,distanceRaw,velocityXRaw,velocityYRaw,velocityZRaw,data_reuse,App_Tip,App_Warning,downlinkSignalQuality,uplinkSignalQuality,transmissionChannel,rcModeSwitch,rcHome,rcPause,rcTransform,rcJoystickMode,appMode,FlyControllerSerialNumber_legacy,RemoteSerialNumber_legacy,BatterySerialNumber_legacy,Battery2SerialNumber,frontAvoidDist,backAvoidDist,isBrakingToAvoid,uav_category,x,y,z,vel_x,vel_y,vel_z,track_id
51.521186,5.86824,35.0,0.0,3.76,724.08,35.3,35.3,17.18,728.95,482589,2020-09-30 09:09:12.090,2020-09-30 11:09:12.090,18,0,0,11.846,51.519566,5.858136,-1.1,-3.6,0.0,-15.5,-1.4,-107.4,0,1,0,71,100,-8086,2643,11846,3051.5,9,WP,1,0,0,0,0,0,0,1601456952089,3890,3893,3882,0,0,0,13,,,,,,,0,0,0,155.0,-14.0,-1074.0,-55.0,0.0,-1075.0,14,350.0,37.64,7240.82,-11.0,-36.0,0.0,0,,,75,100,0,1,0,0,0,1,0,,,,,0.0,0.0,0,LSS,1463.4129131923007,501.431690735547,34.812740057832514,-4.293112692977684,-1.4213944222975263,-0.09709448381359875,0
51.521173,5.868177,34.9,0.0,5.17,719.54,35.3,35.3,17.18,728.95,483587,2020-09-30 09:09:13.088,2020-09-30 11:09:13.088,19,0,0,11.592,51.519566,5.858136,-1.3,-5.0,0.0,-15.3,-1.6,-107.2,0,1,0,71,100,-6882,2637,11592,3051.5,9,WP,1,0,0,0,0,0,0,1601456953087,3882,3884,3873,0,0,0,13,,,,,,,0,0,0,153.0,-16.0,-1072.0,-55.0,0.0,-1075.0,14,349.0,51.66,7195.38,-13.0,-50.0,0.0,0,,,75,100,0,1,0,0,0,1,0,,,,,0.0,0.0,0,LSS,1459.040558225236,499.9840602150027,34.71385340403668,-4.293112692977684,-1.4213944222975263,-0.09709448381359875,0
51.521159,5.868099,34.9,0.0,5.97,713.88,35.3,35.3,17.18,728.95,484588,2020-09-30 09:09:14.089,2020-09-30 11:09:14.089,19,0,0,11.592,51.519566,5.858136,-1.4,-5.8,0.0,-15.7,-1.9,-107.2,0,1,0,71,100,-6882,2637,11592,3051.5,9,WP,1,0,0,0,0,0,0,1601456954088,3882,3884,3873,0,0,0,13,,,,,,,0,0,0,157.0,-19.0,-1072.0,-55.0,0.0,-1075.0,14,349.0,59.67,7138.83,-14.0,-58.0,0.0,0,,,75,100,0,1,0,0,0,1,0,,,,,0.0,0.0,0,LSS,1453.627124552723,498.42488448180023,34.715209019839904,-5.315323432594241,-1.5309180478748206,0.0013310473315739963,0
51.521144,5.868009,34.9,0.0,6.82,707.4,35.3,35.3,17.18,728.95,485590,2020-09-30 09:09:15.090,2020-09-30 11:09:15.090,19,0,0,11.719,51.519566,5.858136,-1.7,-6.6,0.0,-15.7,-3.4,-106.7,0,1,0,71,100,-7718,2634,11719,3051.5,9,WP,1,0,0,0,0,0,0,1601456955090,3882,3884,3873,0,0,0,13,,,,,,,0,0,0,157.0,-34.0,-1067.0,-55.0,0.0,-1075.0,14,349.0,68.15,7073.96,-17.0,-66.0,0.0,0,,,75,100,0,1,0,0,0,1,0,,,,,0.0,0.0,0,LSS,1447.3808142254893,496.7542183186433,34.71675702769613,-6.133105466532431,-1.6403878836013943,0.0015199525716613797,0
51.521128,5.867909,34.9,0.0,7.35,700.22,35.3,35.3,17.18,728.95,486586,2020-09-30 09:09:16.086,2020-09-30 11:09:16.086,19,0,0,11.719,51.519566,5.858136,-1.9,-7.1,0.0,-15.1,-4.7,-106.7,0,1,0,71,100,-7718,2634,11719,3051.5,9,WP,1,0,0,0,0,0,0,1601456956086,3882,3884,3873,0,0,0,13,,,,,,,0,0,0,151.0,-47.0,-1067.0,-55.0,0.0,-1075.0,14,349.0,73.5,7002.2,-19.0,-71.0,0.0,0,,,75,100,0,1,0,0,0,1,0,,,,,0.0,0.0,0,LSS,1440.4404435676463,494.9721041530222,34.71846360899781,-6.8145870107977,-1.749816060771405,0.001675652114938141,0
51.521109,5.867803,34.9,0.0,7.91,692.56,35.3,35.3,17.18,728.95,487589,2020-09-30 09:09:17.090,2020-09-30 11:09:17.090,19,0,0,11.656,51.519566,5.858136,-2.2,-7.6,0.0,-15.4,-4.1,-106.8,0,1,0,71,100,-7326,2630,11656,3051.5,9,WP,1,0,0,0,0,0,0,1601456957089,3882,3884,3873,0,0,0,13,,,,,,,0,0,0,154.0,-41.0,-1068.0,-55.0,0.0,-1075.0,14,349.0,79.12,6925.59,-22.0,-76.0,0.0,0,,,75,100,0,1,0,0,0,1,0,,,,,0.0,0.0,0,LSS,1433.0837093827213,492.85610546149644,34.72028135120013,-7.22340458312961,-2.077649438195547,0.001784798393571463,0
51.521088,5.867691,34.9,0.0,8.19,684.47,35.3,35.3,17.18,728.95,488593,2020-09-30 09:09:18.093,2020-09-30 11:09:18.093,19,0,0,11.656,51.519566,5.858136,-2.5,-7.8,0.0,-14.8,-4.6,-106.4,0,1,0,71,100,-7326,2630,11656,3051.5,9,WP,1,0,0,0,0,0,0,1601456958093,3882,3884,3873,0,0,0,13,,,,,,,0,0,0,148.0,-46.0,-1064.0,-55.0,0.0,-1076.0,14,349.0,81.91,6844.66,-25.0,-78.0,0.0,0,,,75,100,0,1,0,0,0,1,0,,,,,0.0,0.0,0,LSS,1425.3105784832137,490.5174828925226,34.7221999298726,-7.63225474148917,-2.296238596951319,0.0018838073562909405,0
51.521066,5.867578,34.9,0.0,8.22,676.24,35.3,35.3,17.18,728.95,489583,2020-09-30 09:09:19.084,2020-09-30 11:09:19.084,19,0,0,11.782,51.519566,5.858136,-2.6,-7.8,0.0,-16.4,-2.5,-106.5,0,1,0,70,100,-7662,2626,11782,3051.5,9,WP,1,0,0,0,0,0,0,1601456959083,3882,3884,3873,0,0,0,13,,,,,,,0,0,0,164.0,-25.0,-1065.0,-55.0,0.0,-1076.0,14,349.0,82.22,6762.36,-26.0,-78.0,0.0,0,,,75,100,0,1,0,0,0,1,0,,,,,0.0,0.0,0,LSS,1417.4680626003162,488.0675940194278,34.72413210475494,-7.700382227737901,-2.405488368783767,0.0018971571555641388,0
51.521044,5.867462,34.9,0.0,8.51,667.88,35.3,35.3,17.18,728.95,490586,2020-09-30 09:09:20.087,2020-09-30 11:09:20.087,19,0,0,11.782,51.519566,5.858136,-2.6,-8.1,0.0,-15.6,-3.4,-106.9,0,1,0,70,100,-7662,2626,11782,3051.5,9,WP,1,0,0,0,0,0,0,1601456960086,3882,3884,3873,0,0,0,13,,,,,,,0,0,0,156.0,-34.0,-1069.0,-55.0,0.0,-1076.0,14,349.0,85.07,6678.81,-26.0,-81.0,0.0,0,,,75,100,0,1,0,0,0,1,0,,,,,0.0,0.0,0,LSS,1409.4173124343918,485.61765949090375,34.726099642335356,-7.904842581554129,-2.4055331967779403,0.001931878958594936,0
51.521021,5.867343,34.9,0.0,8.63,659.23,35.3,35.3,17.18,728.95,491585,2020-09-30 09:09:21.085,2020-09-30 11:09:21.085,19,0,0,11.719,51.519566,5.858136,-2.7,-8.2,0.0,-16.1,-3.1,-106.7,0,1,0,70,100,-7752,2622,11719,3051.5,9,WP,1,0,0,0,0,0,0,1601456961085,3882,3884,3873,0,0,0,13,,,,,,,0,0,0,161.0,-31.0,-1067.0,-55.0,0.0,-1076.0,14,349.0,86.33,6592.32,-27.0,-82.0,0.0,0,,,75,100,0,1,0,0,0,1,0,,,,,0.0,0.0,0,LSS,1401.1583583709305,483.0564214558734,34.728110181614824,-8.109273100570922,-2.5148194967591477,0.001974101317351912,0
51.520996,5.86722,34.9,0.0,9.04,650.29,35.3,35.3,17.18,728.95,492580,2020-09-30 09:09:22.080,2020-09-30 11:09:22.080,19,0,0,11.719,51.519566,5.858136,-2.8,-8.6,0.0,-15.7,-3.3,-106.7,0,1,0,70,100,-7752,2622,11719,3051.5,9,WP,1,0,0,0,0,0,0,1601456962080,3882,3884,3873,0,0,0,13,,,,,,,0,0,0,157.0,-33.0,-1067.0,-55.0,0.0,-1076.0,14,349.0,90.44,6502.87,-28.0,-86.0,0.0,0,,,75,100,0,1,0,0,0,1,0,,,,,0.0,0.0,0,LSS,1392.6218210744057,480.27260306732643,34.73018628296279,-8.381825560332173,-2.7333659203884597,0.002038475173219805,0
51.520971,5.867094,34.9,0.0,9.14,641.14,35.3,35.3,17.18,728.95,493582,2020-09-30 09:09:23.082,2020-09-30 11:09:23.082,19,0,0,11.613,51.519566,5.858136,-2.8,-8.7,0.0,-15.4,-3.0,-107.1,0,1,0,70,100,-6842,2616,11613,3061.5,9,WP,1,0,0,0,0,0,0,1601456963082,3876,3879,3869,0,0,0,13,,,,,,,0,0,0,154.0,-30.0,-1071.0,-55.0,0.0,-1076.0,14,349.0,91.39,6411.41,-28.0,-87.0,0.0,0,,,100,100,0,1,0,0,0,1,0,,,,,0.0,0.0,0,LSS,1383.8770473697498,477.48874231019903,34.73229486045099,-8.586288000738298,-2.7334075211028823,0.0020703627328775807,0
51.520947,5.866969,34.9,0.0,9.11,632.03,35.3,35.3,17.18,728.95,494583,2020-09-30 09:09:24.084,2020-09-30 11:09:24.084,19,0,0,11.613,51.519566,5.858136,-2.7,-8.7,0.0,-15.5,-4.1,-106.9,0,1,0,70,100,-6842,2616,11613,3061.5,9,WP,1,0,0,0,0,0,0,1601456964083,3876,3879,3869,0,0,0,13,,,,,,,0,0,0,155.0,-41.0,-1069.0,-55.0,0.0,-1076.0,14,349.0,91.09,6320.3,-27.0,-87.0,0.0,0,,,75,75,0,1,0,0,0,1,0,,,,,0.0,0.0,0,LSS,1375.2016430184192,474.81617424273736,34.73436704237383,-8.518175861283035,-2.624131841923445,0.002034626781704606,0
51.520923,5.866842,34.9,0.0,9.11,622.85,35.3,35.3,17.18,728.95,495589,2020-09-30 09:09:25.089,2020-09-30 11:09:25.089,19,0,0,11.74,51.519566,5.858136,-2.7,-8.7,0.0,-14.7,-4.4,-107.0,0,1,0,70,100,-7732,2614,11740,3061.5,9,WP,1,0,0,0,0,0,0,1601456965089,3876,3879,3869,0,0,0,13,,,,,,,0,0,0,147.0,-44.0,-1070.0,-55.0,0.0,-1076.0,14,349.0,91.09,6228.54,-27.0,-87.0,0.0,0,,,75,75,0,1,0,0,0,1,0,,,,,0.0,0.0,0,LSS,1366.38741135819,472.14358366346755,34.7364560114533,-8.654487136660615,-2.6241539457393515,0.00205110969668469,0
51.520898,5.866715,34.9,0.0,9.27,613.59,35.3,35.3,17.18,728.95,496582,2020-09-30 09:09:26.083,2020-09-30 11:09:26.083,19,0,0,11.74,51.519566,5.858136,-2.9,-8.8,0.0,-15.7,-3.1,-106.4,0,1,0,70,100,-7732,2614,11740,3061.5,9,WP,1,0,0,0,0,0,0,1601456966082,3876,3879,3869,0,0,0,13,,,,,,,0,0,0,157.0,-31.0,-1064.0,-55.0,0.0,-1077.0,14,349.0,92.66,6135.92,-29.0,-88.0,0.0,0,,,75,100,0,1,0,0,0,1,0,,,,,0.0,0.0,0,LSS,1357.573200156634,469.3597495489423,34.73853989222334,-8.654467048769993,-2.733381361357301,0.0020461136051209655,0
51.520872,5.866588,34.9,0.0,9.39,604.33,35.3,35.3,17.18,728.95,497585,2020-09-30 09:09:27.085,2020-09-30 11:09:27.085,19,0,0,11.74,51.519566,5.858136,-3.0,-8.9,0.0,-16.1,-1.8,-106.6,0,1,0,70,100,-7340,2605,11740,3061.5,9,WP,1,0,0,0,0,0,0,1601456967085,3876,3879,3869,0,0,0,13,,,,,,,0,0,0,161.0,-18.0,-1066.0,-55.0,0.0,-1076.0,14,349.0,93.92,6043.26,-30.0,-89.0,0.0,0,,,75,100,0,1,0,0,0,1,0,,,,,0.0,0.0,0,LSS,1348.7590088345385,466.464671901484,34.74061853887821,-8.654447529594188,-2.8426087746950017,0.002040974350307699,0
51.520844,5.866458,35.0,0.0,9.39,594.86,35.3,35.3,17.18,728.95,498590,2020-09-30 09:09:28.091,2020-09-30 11:09:28.091,19,0,0,11.74,51.519566,5.858136,-3.0,-8.9,0.0,-15.6,0.0,-106.9,0,1,0,70,100,-7340,2605,11740,3061.5,9,WP,1,0,0,0,0,0,0,1601456968090,3876,3879,3869,0,0,0,13,,,,,,,0,0,0,156.0,0.0,-1069.0,-55.0,0.0,-1075.0,14,350.0,93.92,5948.56,-30.0,-89.0,0.0,0,,,75,100,0,1,0,0,0,1,0,,,,,0.0,0.0,0,LSS,1339.7366594882646,463.3470442412449,34.842743532421,-8.858833006637301,-3.0611254074680767,0.10027413358507417,0
51.520819,5.866327,34.9,0.0,9.4,585.38,35.3,35.3,17.18,728.95,499582,2020-09-30 09:09:29.083,2020-09-30 11:09:29.083,19,0,0,11.719,51.519566,5.858136,-2.7,-9.0,0.1,-14.8,-1.2,-107.8,0,1,0,70,100,-7312,2603,11719,3061.5,9,WP,1,0,0,0,0,0,0,1601456969082,3876,3879,3869,0,0,0,13,,,,,,,0,0,0,148.0,-12.0,-1078.0,-55.0,0.0,-1075.0,14,349.0,93.97,5853.82,-27.0,-90.0,1.0,0,,,100,100,0,1,0,0,0,1,0,,,,,0.0,0.0,0,LSS,1330.6447604635475,460.5631764081206,34.74484463792791,-8.927122203092441,-2.7334144688580655,-0.09612462614372388,0
51.520794,5.866196,35.0,0.0,9.4,575.88,35.3,35.3,17.18,728.95,500583,2020-09-30 09:09:30.083,2020-09-30 11:09:30.084,19,0,0,11.719,51.519566,5.858136,-2.7,-9.0,0.0,-16.1,-2.7,-107.4,0,1,0,70,100,-7312,2603,11719,3061.5,9,WP,1,0,0,0,0,0,0,1601456970083,3876,3879,3869,0,0,0,13,,,,,,,0,0,0,161.0,-27.0,-1074.0,-55.0,0.0,-1077.0,14,350.0,93.96,5758.79,-27.0,-90.0,0.0,0,,,100,100,0,1,0,0,0,1,0,,,,,0.0,0.0,0,LSS,1321.5528931140452,457.77933930878294,34.846931590256474,-8.92709110194265,-2.7333842920745757,0.10023678180991515,0
51.520771,5.866066,35.0,0.0,9.18,566.49,35.3,35.3,17.18,728.95,501583,2020-09-30 09:09:31.084,2020-09-30 11:09:31.084,19,0,0,11.698,51.519566,5.858136,-2.6,-8.8,0.0,-15.1,-4.1,-107.4,0,1,0,70,100,-8460,2599,11698,3061.5,9,WP,1,0,0,0,0,0,0,1601456971083,3876,3879,3869,0,0,0,13,,,,,,,0,0,0,151.0,-41.0,-1074.0,-55.0,0.0,-1078.0,14,350.0,91.76,5664.87,-26.0,-88.0,0.0,0,,,100,100,0,1,0,0,0,1,0,,,,,0.0,0.0,0,LSS,1312.53034681553,455.2180468708332,34.8489742654655,-8.85902638941928,-2.5148729137085275,0.0020056548321343653,0
51.520746,5.865938,35.0,0.0,9.23,557.22,35.3,35.3,17.18,728.95,502582,2020-09-30 09:09:32.083,2020-09-30 11:09:32.083,19,0,0,11.698,51.519566,5.858136,-2.8,-8.8,0.0,-15.7,-3.3,-106.6,0,1,0,70,100,-8460,2599,11698,3061.5,9,WP,1,0,0,0,0,0,0,1601456972082,3876,3879,3869,0,0,0,13,,,,,,,0,0,0,157.0,-33.0,-1066.0,-55.0,0.0,-1078.0,14,350.0,92.35,5572.17,-28.0,-88.0,0.0,0,,,100,100,0,1,0,0,0,1,0,,,,,0.0,0.0,0,LSS,1303.6466672379836,452.434288414181,34.85099064498553,-8.722676416255206,-2.7333070746679304,0.0019798357124486007,0
51.520721,5.865811,35.0,0.0,9.36,547.99,35.3,35.3,17.18,728.95,503580,2020-09-30 09:09:33.080,2020-09-30 11:09:33.080,19,0,0,11.656,51.519566,5.858136,-2.9,-8.9,0.0,-15.4,-3.1,-106.8,0,1,0,70,100,-8132,2595,11656,3061.5,9,WP,1,0,0,0,0,0,0,1601456973080,3876,3879,3869,0,0,0,13,,,,,,,0,0,0,154.0,-31.0,-1068.0,-55.0,0.0,-1078.0,14,350.0,93.61,5479.85,-29.0,-89.0,0.0,0,,,100,100,0,1,0,0,0,1,0,,,,,0.0,0.0,0,LSS,1294.832387324108,449.65056319268126,34.85297939865086,-8.65453451578335,-2.733274441852059,0.0019527105342881325,0
51.520694,5.865681,35.0,0.0,9.58,538.54,35.3,35.3,17.18,728.95,504585,2020-09-30 09:09:34.086,2020-09-30 11:09:34.086,19,0,0,11.656,51.519566,5.858136,-3.0,-9.1,0.0,-15.5,-1.6,-106.8,0,1,0,70,100,-8132,2595,11656,3061.5,9,WP,1,0,0,0,0,0,0,1601456974085,3866,3869,3858,0,0,0,13,,,,,,,0,0,0,155.0,-16.0,-1068.0,-55.0,0.0,-1078.0,14,350.0,95.82,5385.44,-30.0,-91.0,0.0,0,,,100,100,0,1,0,0,0,1,0,,,,,0.0,0.0,0,LSS,1285.809925759916,446.64428289950433,34.85501226476194,-8.858943190776518,-2.951796041836706,0.001996023509147708,0
51.520666,5.865549,35.0,0.0,9.8,528.9,35.3,35.3,17.18,728.95,505587,2020-09-30 09:09:35.088,2020-09-30 11:09:35.088,19,0,0,11.698,51.519566,5.858136,-3.1,-9.3,0.0,-15.7,0.1,-106.8,0,1,0,70,100,-7760,2591,11698,3061.5,9,WP,1,0,0,0,0,0,0,1601456975087,3866,3869,3858,0,0,0,13,,,,,,,0,0,0,157.0,1.0,-1068.0,-55.0,0.0,-1076.0,14,350.0,98.03,5288.95,-31.0,-93.0,0.0,0,,,100,100,0,1,0,0,0,1,0,,,,,0.0,0.0,0,LSS,1276.6486625145305,443.52672492461454,34.857066446441166,-8.995229302912342,-3.061056985059562,0.0020169527650894196,0
51.520639,5.865413,35.0,0.0,9.71,519.0,35.3,35.3,17.18,728.95,506584,2020-09-30 09:09:36.085,2020-09-30 11:09:36.085,19,0,0,11.698,51.519566,5.858136,-2.8,-9.3,0.0,-16.0,-1.6,-107.4,0,1,0,70,100,-7760,2591,11698,3061.5,9,WP,1,0,0,0,0,0,0,1601456976084,3866,3869,3858,0,0,0,13,,,,,,,0,0,0,160.0,-16.0,-1074.0,-55.0,0.0,-1075.0,14,350.0,97.12,5190.01,-28.0,-93.0,0.0,0,,,100,100,0,1,0,0,0,1,0,,,,,0.0,0.0,0,LSS,1267.2097221701852,440.52037305785393,34.85915334820177,-9.267873927393552,-2.9518663182582,0.002049079844830122,0
51.520615,5.865279,35.0,0.0,9.46,509.31,35.3,35.3,17.18,728.95,507580,2020-09-30 09:09:37.081,2020-09-30 11:09:37.081,19,0,0,11.571,51.519566,5.858136,-2.6,-9.1,0.0,-15.5,-3.1,-107.5,0,1,0,69,100,-7806,2584,11571,3061.5,9,WP,1,0,0,0,0,0,0,1601456977080,3866,3869,3858,0,0,0,13,,,,,,,0,0,0,155.0,-31.0,-1075.0,-55.0,0.0,-1076.0,14,350.0,94.64,5093.11,-26.0,-91.0,0.0,0,,,100,100,0,1,0,0,0,1,0,,,,,0.0,0.0,0,LSS,1257.9095071370098,437.84784961475407,34.86117467087212,-9.131662801191007,-2.624088026310228,0.0019846892756939572,0
51.520592,5.865148,35.0,0.0,9.27,499.87,35.3,35.3,17.18,728.95,508585,2020-09-30 09:09:38.086,2020-09-30 11:09:38.086,19,0,0,11.571,51.519566,5.858136,-2.6,-8.9,0.0,-15.5,-3.9,-106.7,0,1,0,69,100,-7806,2584,11571,3061.5,9,WP,1,0,0,0,0,0,0,1601456978085,3866,3869,3858,0,0,0,13,,,,,,,0,0,0,155.0,-39.0,-1067.0,-55.0,0.0,-1077.0,14,350.0,92.72,4998.71,-26.0,-89.0,0.0,0,,,100,100,0,1,0,0,0,1,0,,,,,0.0,0.0,0,LSS,1248.8174837600375,435.28665322116944,34.86313306134343,-8.927244301652392,-2.514778610001221,0.0019228976269181955,0
51.520567,5.86502,35.0,0.0,9.27,490.64,35.3,35.3,17.18,728.95,509584,2020-09-30 09:09:39.084,2020-09-30 11:09:39.085,19,0,0,11.634,51.519566,5.858136,-2.9,-8.8,0.0,-15.7,-2.3,-106.7,0,1,0,69,100,-7866,2580,11634,3061.5,9,WP,1,0,0,0,0,0,0,1601456979084,3866,3869,3858,0,0,0,13,,,,,,,0,0,0,157.0,-23.0,-1067.0,-55.0,0.0,-1077.0,14,350.0,92.66,4906.43,-29.0,-88.0,0.0,0,,,100,100,0,1,0,0,0,1,0,,,,,0.0,0.0,0,LSS,1239.9337344190078,432.5030062598236,34.86505218556036,-8.722744915381556,-2.7331976000442073,0.001884343013580961,0
51.520541,5.864892,35.0,0.0,9.46,481.32,35.3,35.3,17.18,728.95,510585,2020-09-30 09:09:40.085,2020-09-30 11:09:40.085,19,0,0,11.634,51.519566,5.858136,-2.9,-9.0,0.0,-16.1,-1.1,-106.9,0,1,0,69,100,-7866,2580,11634,3061.5,9,WP,1,0,0,0,0,0,0,1601456980085,3866,3869,3858,0,0,0,13,,,,,,,0,0,0,161.0,-11.0,-1069.0,-55.0,0.0,-1076.0,14,350.0,94.56,4813.2,-29.0,-90.0,0.0,0,,,100,100,0,1,0,0,0,1,0,,,,,0.0,0.0,0,LSS,1231.0500023035097,429.60811601181797,34.866965238609964,-8.722728002036515,-2.842424771571976,0.0018783818769214347,0
51.520513,5.864762,35.0,0.0,9.68,471.79,35.3,35.3,17.18,728.95,511576,2020-09-30 09:09:41.077,2020-09-30 11:09:41.077,19,0,0,11.656,51.519566,5.858136,-3.0,-9.2,0.0,-16.1,-0.8,-107.0,0,1,0,69,100,-7516,2574,11656,3061.5,9,WP,1,0,0,0,0,0,0,1601456981076,3866,3869,3858,0,0,0,13,,,,,,,0,0,0,161.0,-8.0,-1070.0,-55.0,0.0,-1076.0,14,350.0,96.77,4717.93,-30.0,-92.0,0.0,0,,,100,100,0,1,0,0,0,1,0,,,,,0.0,0.0,0,LSS,1222.027494164958,426.49069025201925,34.86890605763503,-8.85898892104707,-3.060927166165635,0.001905644636367745,0
51.520486,5.864627,35.0,0.0,10.03,461.98,35.3,35.3,17.18,728.95,512578,2020-09-30 09:09:42.079,2020-09-30 11:09:42.079,18,0,0,11.656,51.519566,5.858136,-2.9,-9.6,0.0,-15.3,-0.8,-107.0,0,1,0,69,100,-7516,2574,11656,3061.5,9,WP,1,0,0,0,0,0,0,1601456982078,3866,3869,3858,0,0,0,13,,,,,,,0,0,0,153.0,-8.0,-1070.0,-55.0,0.0,-1076.0,14,350.0,100.28,4619.83,-29.0,-96.0,0.0,0,,,100,100,0,1,0,0,0,1,0,,,,,0.0,0.0,0,LSS,1212.6578996033716,423.48445651356644,34.87089109499689,-9.199784931324002,-2.9517503308460498,0.001949061583160421,0
51.520458,5.864487,35.0,0.0,10.25,451.85,35.3,35.3,17.18,728.95,513581,2020-09-30 09:09:43.081,2020-09-30 11:09:43.081,19,0,0,11.761,51.519566,5.858136,-3.0,-9.8,0.0,-12.6,-0.1,-107.1,0,1,0,69,100,-7370,2572,11761,3061.5,9,WP,1,0,0,0,0,0,0,1601456983081,3866,3869,3858,0,0,0,13,,,,,,,0,0,0,126.0,-1.0,-1071.0,-55.0,0.0,-1075.0,14,350.0,102.49,4518.53,-30.0,-98.0,0.0,0,,,100,100,0,1,0,0,0,1,0,,,,,0.0,0.0,0,LSS,1202.9412713085999,420.3668990508751,34.872933645409915,-9.540529206674876,-3.0610564821439525,0.0020055322978689708,0
51.52043,5.864346,35.0,0.0,10.12,441.63,35.3,35.3,17.18,728.95,514581,2020-09-30 09:09:44.082,2020-09-30 11:09:44.082,19,0,0,11.761,51.519566,5.858136,-2.9,-9.7,0.0,-11.6,0.1,-107.1,0,1,0,69,100,-7370,2572,11761,3061.5,9,WP,1,0,0,0,0,0,0,1601456984081,3866,3869,3858,0,0,0,13,,,,,,,0,0,0,116.0,1.0,-1071.0,-55.0,0.0,-1075.0,14,350.0,101.24,4416.29,-29.0,-97.0,0.0,0,,,100,100,0,1,0,0,0,1,0,,,,,0.0,0.0,0,LSS,1193.1552212465397,417.2493438852457,34.87497286114777,-9.608692810170092,-3.061054226712706,0.0020022580586066124,0
51.520404,5.864208,35.0,0.0,9.9,431.62,35.3,35.3,17.18,728.95,515587,2020-09-30 09:09:45.087,2020-09-30 11:09:45.087,19,0,0,11.761,51.519566,5.858136,-2.8,-9.5,0.0,-14.0,-1.2,-107.2,0,1,0,69,100,-6650,2570,11761,3061.5,9,WP,1,0,0,0,0,0,0,1601456985087,3877,3879,3867,0,0,0,13,,,,,,,0,0,0,140.0,-12.0,-1072.0,-55.0,0.0,-1075.0,14,350.0,99.04,4316.24,-28.0,-95.0,0.0,0,,,100,100,0,1,0,0,0,1,0,,,,,0.0,0.0,0,LSS,1183.5773369857013,414.35437375277303,34.87694255792721,-9.404299697030554,-2.8425032082547133,0.0019339990254288886,0
51.520379,5.864069,34.9,0.0,9.84,421.63,35.3,35.3,17.18,728.95,516604,2020-09-30 09:09:46.105,2020-09-30 11:09:46.105,19,0,0,11.761,51.519566,5.858136,-2.9,-9.4,0.0,-15.0,-1.7,-107.1,0,1,0,69,100,-6650,2570,11761,3061.5,9,WP,1,0,0,0,0,0,0,1601456986104,3877,3879,3867,0,0,0,13,,,,,,,0,0,0,150.0,-17.0,-1071.0,-55.0,0.0,-1075.0,14,349.0,98.37,4216.3,-29.0,-94.0,0.0,0,,,100,100,0,1,0,0,0,1,0,,,,,0.0,0.0,0,LSS,1173.9299878106463,411.5706580233962,34.778902161904796,-9.47250566548161,-2.733265121759374,-0.09626356317335846,0
51.520353,5.863934,34.9,0.0,9.96,411.82,35.3,35.3,17.18,728.95,517580,2020-09-30 09:09:47.080,2020-09-30 11:09:47.080,19,0,0,11.634,51.519566,5.858136,-3.0,-9.5,0.0,-15.8,-0.8,-107.2,0,1,0,69,100,-7096,2564,11634,3061.5,9,WP,1,0,0,0,0,0,0,1601456987080,3877,3879,3867,0,0,0,13,,,,,,,0,0,0,158.0,-8.0,-1072.0,-55.0,0.0,-1075.0,14,349.0,99.62,4118.23,-30.0,-95.0,0.0,0,,,100,100,0,1,0,0,0,1,0,,,,,0.0,0.0,0,LSS,1164.560311913539,408.675771933197,34.780802527304104,-9.199864792762488,-2.8424206891194688,0.0018659241709605668,0
51.520325,5.863797,35.0,0.0,9.96,401.88,35.3,35.3,17.18,728.95,518594,2020-09-30 09:09:48.094,2020-09-30 11:09:48.095,19,0,0,11.634,51.519566,5.858136,-3.0,-9.5,0.0,-15.3,-0.4,-107.3,0,1,0,69,100,-7096,2564,11634,3061.5,9,WP,1,0,0,0,0,0,0,1601456988094,3877,3879,3867,0,0,0,13,,,,,,,0,0,0,153.0,-4.0,-1073.0,-55.0,0.0,-1075.0,14,350.0,99.62,4018.77,-30.0,-95.0,0.0,0,,,100,100,0,1,0,0,0,1,0,,,,,0.0,0.0,0,LSS,1155.0518740079472,405.5583602796205,34.882727085890906,-9.336111951196603,-3.060913315597189,0.10007733120737629,0
51.520298,5.863658,35.0,0.0,10.06,391.82,35.3,35.3,17.18,728.95,519581,2020-09-30 09:09:49.081,2020-09-30 11:09:49.081,19,0,0,11.677,51.519566,5.858136,-3.0,-9.6,0.0,-14.3,0.1,-107.3,0,1,0,69,100,-7038,2559,11677,3061.5,9,WP,1,0,0,0,0,0,0,1601456989081,3877,3879,3867,0,0,0,13,,,,,,,0,0,0,143.0,1.0,-1073.0,-55.0,0.0,-1074.0,14,350.0,100.58,3918.24,-30.0,-96.0,0.0,0,,,100,100,0,1,0,0,0,1,0,,,,,0.0,0.0,0,LSS,1145.4045610379505,402.5521875543585,34.88465383686207,-9.472470116584699,-2.9516904234263857,0.0018918315445166588,0
51.520271,5.86352,35.0,0.0,9.93,381.82,35.3,35.3,17.18,728.95,520586,2020-09-30 09:09:50.087,2020-09-30 11:09:50.087,19,0,0,11.677,51.519566,5.858136,-2.9,-9.5,0.0,-15.6,-0.8,-107.5,0,1,0,69,100,-7038,2559,11677,3061.5,9,WP,1,0,0,0,0,0,0,1601456990086,3877,3879,3867,0,0,0,13,,,,,,,0,0,0,156.0,-8.0,-1075.0,-55.0,0.0,-1074.0,14,350.0,99.33,3818.15,-29.0,-95.0,0.0,0,,,100,100,0,1,0,0,0,1,0,,,,,0.0,0.0,0,LSS,1135.8266467350436,399.54604868184197,34.88655227351816,-9.404329194632421,-2.9516571842103887,0.0018640303832769365,0
51.520246,5.863383,35.0,0.0,9.68,371.97,35.3,35.3,17.18,728.95,521585,2020-09-30 09:09:51.085,2020-09-30 11:09:51.085,19,0,0,11.677,51.519566,5.858136,-2.7,-9.3,0.0,-15.2,-3.0,-107.4,0,1,0,69,100,-6664,2555,11677,3061.5,9,WP,1,0,0,0,0,0,0,1601456991085,3877,3879,3867,0,0,0,13,,,,,,,0,0,0,152.0,-30.0,-1074.0,-55.0,0.0,-1075.0,14,350.0,96.84,3719.73,-27.0,-93.0,0.0,0,,,100,100,0,1,0,0,0,1,0,,,,,0.0,0.0,0,LSS,1126.318081888418,396.7624609210634,34.88840887244885,-9.336236591617554,-2.733139472397068,0.0018229509029203553,0
51.520223,5.86325,35.0,0.0,9.4,362.39,35.3,35.3,17.18,728.95,522586,2020-09-30 09:09:52.086,2020-09-30 11:09:52.086,19,0,0,11.677,51.519566,5.858136,-2.7,-9.0,0.0,-15.4,-3.9,-107.2,0,1,0,69,100,-6664,2555,11677,3061.5,9,WP,1,0,0,0,0,0,0,1601456992086,3877,3879,3867,0,0,0,13,,,,,,,0,0,0,154.0,-39.0,-1072.0,-55.0,0.0,-1076.0,14,350.0,93.96,3623.85,-27.0,-90.0,0.0,0,,,100,100,0,1,0,0,0,1,0,,,,,0.0,0.0,0,LSS,1117.0870983333446,394.20146966488136,34.890187837225426,-9.063686038180668,-2.514577190401602,0.0017467237496064498,0
51.520198,5.863122,34.9,0.0,9.14,353.12,35.3,35.3,17.18,728.95,523587,2020-09-30 09:09:53.087,2020-09-30 11:09:53.087,19,0,0,11.782,51.519566,5.858136,-2.8,-8.7,0.0,-15.5,-3.1,-107.2,0,1,0,69,100,-7474,2551,11782,3061.5,9,WP,1,0,0,0,0,0,0,1601456993087,3877,3879,3867,0,0,0,13,,,,,,,0,0,0,155.0,-31.0,-1072.0,-55.0,0.0,-1077.0,14,349.0,91.39,3531.18,-28.0,-87.0,0.0,0,,,100,100,0,1,0,0,0,1,0,,,,,0.0,0.0,0,LSS,1108.2031876339329,391.41804708594395,34.79190592949965,-8.722903349388655,-2.732977284225176,-0.09650069784495509,0
51.520174,5.862997,35.0,0.0,9.01,344.13,35.3,35.3,17.18,728.95,524586,2020-09-30 09:09:54.086,2020-09-30 11:09:54.086,19,0,0,11.782,51.519566,5.858136,-2.7,-8.6,0.0,-15.6,-3.3,-107.2,0,1,0,69,100,-7474,2551,11782,3061.5,9,WP,1,0,0,0,0,0,0,1601456994086,3877,3879,3867,0,0,0,13,,,,,,,0,0,0,156.0,-33.0,-1072.0,-55.0,0.0,-1077.0,14,350.0,90.14,3441.34,-27.0,-86.0,0.0,0,,,100,100,0,1,0,0,0,1,0,,,,,0.0,0.0,0,LSS,1099.5275084981365,388.7459562241994,34.89356785423675,-8.5184456656989,-2.6236632848331007,0.09981945719617413,0
51.52015,5.862875,34.9,0.0,8.92,335.26,35.3,35.3,17.18,728.95,525588,2020-09-30 09:09:55.088,2020-09-30 11:09:55.088,19,0,0,11.571,51.519566,5.858136,-2.7,-8.5,0.0,-15.7,-3.3,-106.9,0,1,0,68,100,-7986,2545,11571,3061.5,9,WP,1,0,0,0,0,0,0,1601456995088,3862,3865,3854,0,0,0,13,,,,,,,0,0,0,157.0,-33.0,-1069.0,-55.0,0.0,-1077.0,14,349.0,89.19,3352.62,-27.0,-85.0,0.0,0,,,100,100,0,1,0,0,0,1,0,,,,,0.0,0.0,0,LSS,1091.0600166304214,386.0739127062951,34.79518133764,-8.314031474754113,-2.6236167990278294,-0.09660341083947226,0
51.520125,5.862753,34.9,0.0,8.82,326.43,35.3,35.3,17.18,728.95,526582,2020-09-30 09:09:56.082,2020-09-30 11:09:56.083,19,0,0,11.571,51.519566,5.858136,-2.7,-8.4,0.0,-15.4,-2.6,-107.4,0,1,0,68,100,-7986,2545,11571,3061.5,9,WP,1,0,0,0,0,0,0,1601456996082,3862,3865,3854,0,0,0,13,,,,,,,0,0,0,154.0,-26.0,-1074.0,-55.0,0.0,-1077.0,14,349.0,88.23,3264.28,-27.0,-84.0,0.0,0,,,100,100,0,1,0,0,0,1,0,,,,,0.0,0.0,0,LSS,1082.592556768562,383.2906305857109,34.79678917055816,-8.314000048955798,-2.73283937146569,0.0015786933954605074,0
51.520101,5.862632,34.9,0.0,8.7,317.68,35.3,35.3,17.18,728.95,527586,2020-09-30 09:09:57.086,2020-09-30 11:09:57.086,19,0,0,11.74,51.519566,5.858136,-2.6,-8.3,0.0,-15.9,-2.6,-107.1,0,1,0,68,100,-7992,2543,11740,3061.5,9,WP,1,0,0,0,0,0,0,1601456997086,3862,3865,3854,0,0,0,13,,,,,,,0,0,0,159.0,-26.0,-1071.0,-55.0,0.0,-1078.0,14,349.0,86.98,3176.83,-26.0,-83.0,0.0,0,,,100,100,0,1,0,0,0,1,0,,,,,0.0,0.0,0,LSS,1074.1944744468801,380.6186360895198,34.79836626574911,-8.245879871022506,-2.623568665758561,0.0015485127427474273,0
51.520077,5.862513,34.9,0.0,8.67,309.06,35.3,35.3,17.18,728.95,528586,2020-09-30 09:09:58.086,2020-09-30 11:09:58.086,19,0,0,11.74,51.519566,5.858136,-2.5,-8.3,0.0,-15.5,-2.5,-107.1,0,1,0,68,100,-7992,2543,11740,3061.5,9,WP,1,0,0,0,0,0,0,1601456998086,3862,3865,3854,0,0,0,13,,,,,,,0,0,0,155.0,-25.0,-1071.0,-55.0,0.0,-1078.0,14,349.0,86.68,3090.57,-25.0,-83.0,0.0,0,,,100,100,0,1,0,0,0,1,0,,,,,0.0,0.0,0,LSS,1065.9352040478,377.94668460998196,34.7999080531668,-8.109583703088543,-2.623526428716574,0.0015138448690994479,0
51.520054,5.862392,34.9,0.0,8.57,300.36,35.3,35.3,17.18,728.95,529579,2020-09-30 09:09:59.080,2020-09-30 11:09:59.080,19,0,0,11.634,51.519566,5.858136,-2.5,-8.2,0.0,-15.7,-2.9,-107.0,0,1,0,68,100,-8196,2539,11634,3061.5,9,WP,1,0,0,0,0,0,0,1601456999079,3862,3865,3854,0,0,0,13,,,,,,,0,0,0,157.0,-29.0,-1070.0,-55.0,0.0,-1078.0,14,349.0,85.73,3003.63,-25.0,-82.0,0.0,0,,,100,100,0,1,0,0,0,1,0,,,,,0.0,0.0,0,LSS,1057.537080971005,375.3859764926875,34.80145447631645,-8.245919887511262,-2.5142991829750847,0.0015183965854733677,0
51.520031,5.862273,34.9,0.0,8.57,291.77,35.3,35.3,17.18,728.95,530578,2020-09-30 09:10:00.079,2020-09-30 11:10:00.079,19,0,0,11.634,51.519566,5.858136,-2.5,-8.2,0.0,-15.8,-3.7,-106.8,0,1,0,68,100,-8196,2539,11634,3061.5,9,WP,1,0,0,0,0,0,0,1601457000078,3862,3865,3854,0,0,0,13,,,,,,,0,0,0,158.0,-37.0,-1068.0,-55.0,0.0,-1078.0,14,349.0,85.73,2917.7,-25.0,-82.0,0.0,0,,,100,100,0,1,0,0,0,1,0,,,,,0.0,0.0,0,LSS,1049.2777703247007,372.82531093640546,34.8029660431406,-8.109623220893111,-2.5142573933162295,0.001484171977783289,0
51.520008,5.862154,34.9,0.0,8.57,283.21,35.3,35.3,17.18,728.95,531584,2020-09-30 09:10:01.084,2020-09-30 11:10:01.085,19,0,0,11.571,51.519566,5.858136,-2.5,-8.2,0.0,-15.4,-3.0,-107.0,0,1,0,68,100,-7970,2534,11571,3061.5,9,WP,1,0,0,0,0,0,0,1601457001084,3862,3865,3854,0,0,0,13,,,,,,,0,0,0,154.0,-30.0,-1070.0,-55.0,0.0,-1078.0,14,349.0,85.73,2832.07,-25.0,-82.0,0.0,0,,,100,100,0,1,0,0,0,1,0,,,,,0.0,0.0,0,LSS,1041.0184513527713,370.264658817566,34.80446591049122,-8.109631395628842,-2.5142441994068196,0.0014726845393889815,0
51.519985,5.862036,34.9,0.0,8.67,274.66,35.3,35.3,17.18,728.95,532588,2020-09-30 09:10:02.089,2020-09-30 11:10:02.089,19,0,0,11.571,51.519566,5.858136,-2.5,-8.3,0.0,-15.9,-3.0,-106.8,0,1,0,68,100,-7970,2534,11571,3061.5,9,WP,1,0,0,0,0,0,0,1601457002088,3862,3865,3854,0,0,0,13,,,,,,,0,0,0,159.0,-30.0,-1068.0,-55.0,0.0,-1078.0,14,349.0,86.68,2746.58,-25.0,-83.0,0.0,0,,,100,100,0,1,0,0,0,1,0,,,,,0.0,0.0,0,LSS,1032.8285345731053,367.70403424612334,34.80594285913,-8.041487012391245,-2.5142171512646025,0.001450181194297659,0
51.519961,5.861917,34.9,0.0,8.57,266.06,35.3,35.3,17.18,728.95,533583,2020-09-30 09:10:03.084,2020-09-30 11:10:03.084,19,0,0,11.529,51.519566,5.858136,-2.5,-8.2,0.0,-15.8,-3.6,-107.3,0,1,0,68,100,-8104,2528,11529,3061.5,9,WP,1,0,0,0,0,0,0,1601457003083,3862,3865,3854,0,0,0,13,,,,,,,0,0,0,158.0,-36.0,-1073.0,-55.0,0.0,-1078.0,14,349.0,85.73,2660.6,-25.0,-82.0,0.0,0,,,100,100,0,1,0,0,0,1,0,,,,,0.0,0.0,0,LSS,1024.5692214229725,365.03215006875377,34.80742578177319,-8.10962567934349,-2.6234603462976156,0.0014560469289763413,0
51.519937,5.861797,34.9,0.0,8.92,257.41,35.3,35.3,17.18,728.95,534584,2020-09-30 09:10:04.085,2020-09-30 11:10:04.085,19,0,0,11.529,51.519566,5.858136,-2.7,-8.5,0.0,-16.0,-2.0,-106.7,0,1,0,68,100,-8104,2528,11529,3061.5,9,WP,1,0,0,0,0,0,0,1601457004084,3862,3865,3854,0,0,0,13,,,,,,,0,0,0,160.0,-20.0,-1067.0,-55.0,0.0,-1077.0,14,349.0,89.19,2574.06,-27.0,-85.0,0.0,0,,,100,100,0,1,0,0,0,1,0,,,,,0.0,0.0,0,LSS,1016.240488994106,362.36026544425863,34.80890794863839,-8.177786839385117,-2.6234607853197036,0.0014553048483117237,0
51.519911,5.861671,34.9,0.0,9.33,248.37,35.3,35.3,17.18,728.95,535581,2020-09-30 09:10:05.081,2020-09-30 11:10:05.081,19,0,0,11.698,51.519566,5.858136,-2.8,-8.9,0.0,-16.6,-2.0,-107.1,0,1,0,68,100,-6816,2522,11698,3061.5,9,WP,1,0,0,0,0,0,0,1601457005081,3862,3865,3854,0,0,0,13,,,,,,,0,0,0,166.0,-20.0,-1071.0,-55.0,0.0,-1077.0,14,349.0,93.3,2483.66,-28.0,-89.0,0.0,0,,,100,100,0,1,0,0,0,1,0,,,,,0.0,0.0,0,LSS,1007.4953281668699,359.46579423853456,34.81045635597121,-8.586668107311436,-2.842013323793493,0.001520344808347108,0
51.519886,5.861542,34.8,0.0,9.4,239.06,35.3,35.3,17.18,728.95,536581,2020-09-30 09:10:06.082,2020-09-30 11:10:06.082,19,0,0,11.698,51.519566,5.858136,-2.7,-9.0,0.0,-15.4,-2.6,-107.0,0,1,0,68,100,-6816,2522,11698,3061.5,9,WP,1,0,0,0,0,0,0,1601457006081,3863,3867,3858,0,0,0,13,,,,,,,0,0,0,154.0,-26.0,-1070.0,-55.0,0.0,-1077.0,14,348.0,93.96,2390.65,-27.0,-90.0,0.0,0,,,100,100,0,1,0,0,0,1,0,,,,,0.0,0.0,0,LSS,998.5418878716483,356.68255039242734,34.7120178013397,-8.791172827177483,-2.7328017906552957,-0.09665450576411973,0
51.519861,5.861412,34.9,0.0,9.3,229.77,35.3,35.3,17.18,728.95,537584,2020-09-30 09:10:07.084,2020-09-30 11:10:07.084,19,0,0,11.656,51.519566,5.858136,-2.7,-8.9,0.0,-15.5,-2.8,-106.8,0,1,0,68,100,-7370,2520,11656,3061.5,9,WP,1,0,0,0,0,0,0,1601457007084,3863,3867,3858,0,0,0,13,,,,,,,0,0,0,155.0,-28.0,-1068.0,-55.0,0.0,-1077.0,14,349.0,93.01,2297.67,-27.0,-89.0,0.0,0,,,100,100,0,1,0,0,0,1,0,,,,,0.0,0.0,0,LSS,989.5190583064593,353.8993200077182,34.813576235506474,-8.859304522316089,-2.7327885732245774,0.09971784223480606,0
51.519837,5.861284,34.8,0.0,9.3,220.53,35.3,35.3,17.18,728.95,538586,2020-09-30 09:10:08.086,2020-09-30 11:10:08.086,19,0,0,11.656,51.519566,5.858136,-2.7,-8.9,0.0,-15.4,-2.2,-106.6,0,1,0,68,100,-7370,2520,11656,3061.5,9,WP,1,0,0,0,0,0,0,1601457008086,3863,3867,3858,0,0,0,13,,,,,,,0,0,0,154.0,-22.0,-1066.0,-55.0,0.0,-1076.0,14,348.0,93.01,2205.3,-27.0,-89.0,0.0,0,,,100,100,0,1,0,0,0,1,0,,,,,0.0,0.0,0,LSS,980.6349879023398,351.2273801681349,34.71509329419001,-8.72306015969189,-2.6235149997184704,-0.09669808800801,0
51.519813,5.861156,34.9,0.0,9.2,211.39,35.3,35.3,17.18,728.95,539580,2020-09-30 09:10:09.081,2020-09-30 11:10:09.081,19,0,0,11.592,51.519566,5.858136,-2.7,-8.8,0.0,-15.7,-2.8,-107.3,0,1,0,68,100,-8070,2514,11592,3061.5,9,WP,1,0,0,0,0,0,0,1601457009080,3863,3867,3858,0,0,0,13,,,,,,,0,0,0,157.0,-28.0,-1073.0,-55.0,0.0,-1077.0,14,349.0,92.05,2113.91,-27.0,-88.0,0.0,0,,,100,100,0,1,0,0,0,1,0,,,,,0.0,0.0,0,LSS,971.7509388401959,348.55546689342896,34.8165968832798,-8.723039204507165,-2.623488916289093,0.09966399114130159,0
51.519788,5.861029,34.9,0.0,9.2,202.34,35.3,35.3,17.18,728.95,540586,2020-09-30 09:10:10.086,2020-09-30 11:10:10.087,19,0,0,11.592,51.519566,5.858136,-2.7,-8.8,0.0,-16.2,-2.9,-107.1,0,1,0,68,100,-8070,2514,11592,3061.5,9,WP,1,0,0,0,0,0,0,1601457010086,3863,3867,3858,0,0,0,13,,,,,,,0,0,0,162.0,-29.0,-1071.0,-55.0,0.0,-1077.0,14,349.0,92.05,2023.41,-27.0,-88.0,0.0,0,,,100,100,0,1,0,0,0,1,0,,,,,0.0,0.0,0,LSS,962.936296995136,345.7723179913683,34.81808257740008,-8.654889887516122,-2.732708567324961,0.0014587681772606708,0
51.519763,5.860901,34.9,0.0,9.33,193.18,35.3,35.3,17.18,728.95,541576,2020-09-30 09:10:11.077,2020-09-30 11:10:11.077,19,0,0,11.613,51.519566,5.858136,-2.8,-8.9,0.0,-15.6,-2.5,-106.9,0,1,0,68,100,-8284,2512,11613,3061.5,9,WP,1,0,0,0,0,0,0,1601457011076,3863,3867,3858,0,0,0,13,,,,,,,0,0,0,156.0,-25.0,-1069.0,-55.0,0.0,-1077.0,14,349.0,93.3,1931.77,-28.0,-89.0,0.0,0,,,100,100,0,1,0,0,0,1,0,,,,,0.0,0.0,0,LSS,954.0522346363721,342.9891713608644,34.81956526526565,-8.723052260146135,-2.732706336936715,0.0014558164063470183,0
51.519737,5.860772,34.9,0.0,9.4,183.97,35.3,35.3,17.18,728.95,542588,2020-09-30 09:10:12.088,2020-09-30 11:10:12.088,19,0,0,11.613,51.519566,5.858136,-2.7,-9.0,0.0,-15.9,-3.2,-107.0,0,1,0,68,100,-8284,2512,11613,3061.5,9,WP,1,0,0,0,0,0,0,1601457012088,3863,3867,3858,0,0,0,13,,,,,,,0,0,0,159.0,-32.0,-1070.0,-55.0,0.0,-1077.0,14,349.0,93.96,1839.72,-27.0,-90.0,0.0,0,,,100,100,0,1,0,0,0,1,0,,,,,0.0,0.0,0,LSS,945.0987723476408,340.09476854800596,34.82105058686096,-8.791194422088408,-2.841946170444396,0.0014584024037427232,0
51.519711,5.860642,34.9,0.0,9.52,174.66,35.3,35.3,17.18,728.95,543579,2020-09-30 09:10:13.079,2020-09-30 11:10:13.079,19,0,0,11.529,51.519566,5.858136,-2.8,-9.1,0.0,-16.1,-2.0,-107.0,0,1,0,67,100,-7966,2507,11529,3061.5,9,WP,1,0,0,0,0,0,0,1601457013079,3863,3867,3858,0,0,0,13,,,,,,,0,0,0,161.0,-20.0,-1070.0,-55.0,0.0,-1077.0,14,349.0,95.21,1746.61,-28.0,-91.0,0.0,0,,,100,100,0,1,0,0,0,1,0,,,,,0.0,0.0,0,LSS,936.0758889219427,337.2003687372569,34.822532217932974,-8.859357406685469,-2.8419432227436614,0.0014547787655560798,0
51.519684,5.860509,35.0,0.0,9.71,165.26,35.3,35.3,17.18,728.95,544579,2020-09-30 09:10:14.080,2020-09-30 11:10:14.080,19,0,0,11.529,51.519566,5.858136,-2.8,-9.3,0.0,-16.0,-1.9,-106.9,0,1,0,67,100,-7966,2507,11529,3061.5,9,WP,1,0,0,0,0,0,0,1601457014079,3863,3867,3858,0,0,0,13,,,,,,,0,0,0,160.0,-19.0,-1069.0,-55.0,0.0,-1077.0,14,350.0,97.12,1652.57,-28.0,-93.0,0.0,0,,,100,100,0,1,0,0,0,1,0,,,,,0.0,0.0,0,LSS,926.844797090817,334.1946933966707,34.92403583021192,-9.063792351894428,-2.9512020530902676,0.09966401391019243,0
51.519659,5.860375,35.0,0.0,9.84,155.72,35.3,35.3,17.18,728.95,545586,2020-09-30 09:10:15.086,2020-09-30 11:10:15.086,18,0,0,11.698,51.519566,5.858136,-2.9,-9.4,0.0,-15.5,-3.0,-106.9,0,1,0,67,100,-7746,2503,11698,3061.5,9,WP,1,0,0,0,0,0,0,1601457015086,3863,3867,3858,0,0,0,13,,,,,,,0,0,0,155.0,-30.0,-1069.0,-55.0,0.0,-1077.0,14,350.0,98.37,1557.17,-29.0,-94.0,0.0,0,,,100,100,0,1,0,0,0,1,0,,,,,0.0,0.0,0,LSS,917.5442284838439,331.41153465173767,34.92552310284839,-9.132009967002189,-2.7327182318102645,0.001460318085249658,0
51.519631,5.860239,34.9,0.0,9.96,146.11,35.3,35.3,17.18,728.95,546586,2020-09-30 09:10:16.087,2020-09-30 11:10:16.087,19,0,0,11.698,51.519566,5.858136,-3.0,-9.5,0.0,-15.7,-1.0,-107.1,0,1,0,67,100,-7746,2503,11698,3061.5,9,WP,1,0,0,0,0,0,0,1601457016086,3850,3853,3841,0,0,0,13,,,,,,,0,0,0,157.0,-10.0,-1071.0,-55.0,0.0,-1077.0,14,349.0,99.62,1461.12,-30.0,-95.0,0.0,0,,,100,100,0,1,0,0,0,1,0,,,,,0.0,0.0,0,LSS,908.1048730343889,328.29458652874945,34.82703254466995,-9.268281509355297,-3.0604581857948183,-0.09670556682596662,0
51.519603,5.8601,35.0,0.0,10.15,136.34,35.3,35.3,17.18,728.95,547582,2020-09-30 09:10:17.083,2020-09-30 11:10:17.083,19,0,0,11.487,51.519566,5.858136,-3.0,-9.7,0.0,-13.8,-0.1,-106.8,0,1,0,67,100,-7574,2497,11487,3061.5,9,WP,1,0,0,0,0,0,0,1601457017082,3850,3853,3841,0,0,0,13,,,,,,,0,0,0,138.0,-1.0,-1068.0,-55.0,0.0,-1075.0,14,350.0,101.53,1363.41,-30.0,-97.0,0.0,0,,,100,100,0,1,0,0,0,1,0,,,,,0.0,0.0,0,LSS,898.4573011176835,325.1776294289834,34.928555796711976,-9.472724370278767,-3.060466999882242,0.09968329773248222,0
51.519576,5.859959,35.0,0.0,10.15,126.53,35.3,35.3,17.18,728.95,548581,2020-09-30 09:10:18.081,2020-09-30 11:10:18.081,19,0,0,11.487,51.519566,5.858136,-3.0,-9.7,0.0,-11.9,0.7,-106.9,0,1,0,67,100,-7574,2497,11487,3061.5,9,WP,1,0,0,0,0,0,0,1601457018081,3850,3853,3841,0,0,0,13,,,,,,,0,0,0,119.0,7.0,-1069.0,-55.0,0.0,-1075.0,14,350.0,101.53,1265.3,-30.0,-97.0,0.0,0,,,100,100,0,1,0,0,0,1,0,,,,,0.0,0.0,0,LSS,888.6708614062774,322.1719200472459,34.93007664981502,-9.609075397715134,-2.9512354772975034,0.0014932899570186333,0
51.519548,5.85982,35.0,0.0,10.03,116.9,35.3,35.3,17.18,728.95,549580,2020-09-30 09:10:19.081,2020-09-30 11:10:19.081,19,0,0,11.487,51.519566,5.858136,-2.9,-9.6,0.0,-11.6,1.1,-107.0,0,1,0,67,100,-7574,2497,11487,3061.5,9,WP,1,0,0,0,0,0,0,1601457019080,3850,3853,3841,0,0,0,13,,,,,,,0,0,0,116.0,11.0,-1070.0,-55.0,0.0,-1073.0,14,350.0,100.28,1168.96,-29.0,-96.0,0.0,0,,,100,100,0,1,0,0,0,1,0,,,,,0.0,0.0,0,LSS,879.0232517312471,319.05499473155163,34.93156757562363,-9.47276144429152,-3.0604357918483514,0.0014639050492122941,0
51.519522,5.859682,35.0,0.0,9.81,107.4,35.3,35.3,17.18,728.95,550581,2020-09-30 09:10:20.082,2020-09-30 11:10:20.082,19,0,0,11.487,51.519566,5.858136,-2.8,-9.4,0.0,-14.3,-0.1,-107.3,0,1,0,67,100,-7574,2497,11487,3061.5,9,WP,1,0,0,0,0,0,0,1601457020081,3850,3853,3841,0,0,0,13,,,,,,,0,0,0,143.0,-1.0,-1073.0,-55.0,0.0,-1073.0,14,350.0,98.08,1074.03,-28.0,-94.0,0.0,0,,,100,100,0,1,0,0,0,1,0,,,,,0.0,0.0,0,LSS,869.445003363516,316.1606172579876,34.933021945799624,-9.404657205040497,-2.841921290386074,0.0014280119317555812,0
51.519497,5.859547,35.0,0.0,9.84,98.2,35.3,35.3,17.18,728.95,551583,2020-09-30 09:10:21.084,2020-09-30 11:10:21.084,19,0,0,11.719,51.519566,5.858136,-2.9,-9.4,0.0,-16.3,0.3,-107.1,0,1,0,67,100,-6626,2491,11719,3061.5,9,WP,1,0,0,0,0,0,0,1601457021083,3850,3853,3841,0,0,0,13,,,,,,,0,0,0,163.0,3.0,-1071.0,-55.0,0.0,-1073.0,14,350.0,98.37,982.01,-29.0,-94.0,0.0,0,,,100,100,0,1,0,0,0,1,0,,,,,0.0,0.0,0,LSS,860.0749590367112,313.3775519185158,34.93442716120586,-9.20022654523285,-2.7326265191807795,0.0013797480173330153,0
51.51947,5.859412,35.0,0.0,9.87,89.18,35.3,35.3,17.18,728.95,552579,2020-09-30 09:10:22.080,2020-09-30 11:10:22.080,18,0,0,11.719,51.519566,5.858136,-3.0,-9.4,0.0,-15.6,1.0,-107.5,0,1,0,67,100,-6626,2491,11719,3061.5,9,WP,1,0,0,0,0,0,0,1601457022079,3850,3853,3841,0,0,0,13,,,,,,,0,0,0,156.0,10.0,-1075.0,-55.0,0.0,-1073.0,14,350.0,98.67,891.81,-30.0,-94.0,0.0,0,,,100,100,0,1,0,0,0,1,0,,,,,0.0,0.0,0,LSS,850.704941705061,310.3719862431466,34.93582825891178,-9.200200039324423,-2.9510943753882946,0.0013757049440653354,0
51.519443,5.859275,35.0,0.0,10.03,80.24,35.3,35.3,17.18,728.95,553577,2020-09-30 09:10:23.078,2020-09-30 11:10:23.078,19,0,0,11.529,51.519566,5.858136,-2.9,-9.6,0.0,-15.5,1.1,-107.3,0,1,0,67,100,-6964,2484,11529,3061.5,9,WP,1,0,0,0,0,0,0,1601457023077,3850,3853,3841,0,0,0,13,,,,,,,0,0,0,155.0,11.0,-1073.0,-55.0,0.0,-1073.0,14,350.0,100.28,802.43,-29.0,-96.0,0.0,0,,,100,100,0,1,0,0,0,1,0,,,,,0.0,0.0,0,LSS,841.1960905990121,307.3664148767722,34.93723247564989,-9.336517663024726,-2.951099963252679,0.0013787674485439738,0
51.519417,5.859139,35.0,0.0,9.81,71.54,35.3,35.3,17.18,728.95,554583,2020-09-30 09:10:24.083,2020-09-30 11:10:24.083,19,0,0,11.613,51.519566,5.858136,-2.8,-9.4,0.0,-16.1,0.3,-107.5,0,1,0,67,100,-6124,2493,11613,3061.5,9,WP,1,0,0,0,0,0,0,1601457024083,3850,3853,3841,0,0,0,13,,,,,,,0,0,0,161.0,3.0,-1075.0,-55.0,0.0,-1073.0,14,350.0,98.08,715.41,-28.0,-94.0,0.0,0,,,100,100,0,1,0,0,0,1,0,,,,,0.0,0.0,0,LSS,831.7566214118209,304.47213149564396,34.93860678616048,-9.268393185768295,-2.8418289032323556,0.001349403225841973,0
51.519392,5.859005,35.1,0.0,9.59,63.32,35.3,35.3,17.18,728.95,555583,2020-09-30 09:10:25.084,2020-09-30 11:10:25.084,19,0,0,11.592,51.519566,5.858136,-2.7,-9.2,0.0,-16.1,-0.8,-107.6,0,1,0,67,100,-7868,2482,11592,3061.5,9,WP,1,0,0,0,0,0,0,1601457025083,3850,3853,3841,0,0,0,13,,,,,,,0,0,0,161.0,-8.0,-1076.0,-55.0,0.0,-1073.0,14,351.0,95.88,633.25,-27.0,-92.0,0.0,0,,,100,100,0,1,0,0,0,1,0,,,,,0.0,0.0,0,LSS,822.4559591724679,301.68915168386945,35.03994271276201,-9.132101902437762,-2.7325425415427143,0.09949936728027632,0
51.519367,5.858872,35.1,0.0,9.52,55.67,35.3,35.3,17.18,728.95,556588,2020-09-30 09:10:26.089,2020-09-30 11:10:26.089,19,0,0,11.592,51.519566,5.858136,-2.8,-9.1,0.1,-16.0,-1.1,-107.6,0,1,0,67,100,-7868,2482,11592,3061.5,9,WP,1,0,0,0,0,0,0,1601457026088,3847,3849,3840,0,0,0,13,,,,,,,0,0,0,160.0,-11.0,-1076.0,-55.0,0.0,-1074.0,14,351.0,95.22,556.69,-28.0,-91.0,1.0,0,,,100,100,0,1,0,0,0,1,0,,,,,0.0,0.0,0,LSS,813.2246851907333,298.9061952436777,35.04125506137271,-9.063971201300989,-2.732519593534297,0.001288564291012776,0
51.519342,5.858741,35.1,0.0,9.62,48.85,35.3,35.3,17.18,728.95,557584,2020-09-30 09:10:27.084,2020-09-30 11:10:27.084,19,0,0,11.55,51.519566,5.858136,-2.8,-9.2,0.1,-16.0,-1.1,-107.1,0,1,0,67,100,-8276,2476,11550,3061.5,9,WP,1,0,0,0,0,0,0,1601457027084,3847,3849,3840,0,0,0,13,,,,,,,0,0,0,160.0,-11.0,-1071.0,-55.0,0.0,-1074.0,14,351.0,96.17,488.49,-28.0,-92.0,1.0,0,,,100,100,0,1,0,0,0,1,0,,,,,0.0,0.0,0,LSS,804.1322240932504,296.1232775585389,35.04253539602482,-8.92767408914545,-2.7324815408576337,0.0012571305366624787,0
51.519316,5.858609,35.1,0.0,9.52,43.03,35.3,35.3,17.18,728.95,558596,2020-09-30 09:10:28.097,2020-09-30 11:10:28.097,18,0,0,11.55,51.519566,5.858136,-2.8,-9.1,0.0,-15.8,-1.6,-107.3,0,1,0,67,100,-8276,2476,11550,3061.5,9,WP,1,0,0,0,0,0,0,1601457028096,3847,3849,3840,0,0,0,13,,,,,,,0,0,0,158.0,-16.0,-1073.0,-55.0,0.0,-1074.0,14,351.0,95.21,430.35,-28.0,-91.0,0.0,0,,,100,100,0,1,0,0,0,1,0,,,,,0.0,0.0,0,LSS,794.9703589076747,293.22910648501,35.04381533190627,-8.995820333853453,-2.8417186310372378,0.0012567389931211106,0
51.51929,5.858477,35.0,0.0,9.59,38.79,35.3,35.3,17.18,728.95,559589,2020-09-30 09:10:29.089,2020-09-30 11:10:29.089,19,0,0,11.487,51.519566,5.858136,-2.7,-9.2,0.0,-16.0,-2.0,-107.3,0,1,0,67,100,-7572,2472,11487,3061.5,9,WP,1,0,0,0,0,0,0,1601457029089,3847,3849,3840,0,0,0,13,,,,,,,0,0,0,160.0,-20.0,-1073.0,-55.0,0.0,-1075.0,14,350.0,95.88,387.9,-27.0,-92.0,0.0,0,,,100,100,0,1,0,0,0,1,0,,,,,0.0,0.0,0,LSS,785.8084709887765,290.33494738959234,34.945080823302646,-8.995842655169062,-2.841706870010986,-0.09694509602126654,0
51.519265,5.858344,35.1,0.0,9.62,36.53,35.3,35.3,17.18,728.95,560595,2020-09-30 09:10:30.095,2020-09-30 11:10:30.095,19,0,0,11.487,51.519566,5.858136,-2.8,-9.2,0.0,-15.9,-2.4,-107.0,0,1,0,67,100,-7572,2472,11487,3061.5,9,WP,1,0,0,0,0,0,0,1601457030095,3847,3849,3840,0,0,0,13,,,,,,,0,0,0,159.0,-24.0,-1070.0,-55.0,0.0,-1075.0,14,351.0,96.17,365.29,-28.0,-92.0,0.0,0,,,100,100,0,1,0,0,0,1,0,,,,,0.0,0.0,0,LSS,776.57716859717,287.552062138987,35.04633528134303,-9.063999096287235,-2.7324496941506844,0.09941937521271069,0
51.519239,5.858212,35.1,0.0,9.62,36.78,35.3,35.3,17.18,728.95,561581,2020-09-30 09:10:31.081,2020-09-30 11:10:31.081,18,0,0,11.571,51.519566,5.858136,-2.8,-9.2,0.1,-15.5,-2.2,-107.1,0,1,0,66,100,-7550,2468,11571,3061.5,9,WP,1,0,0,0,0,0,0,1601457031081,3847,3849,3840,0,0,0,13,,,,,,,0,0,0,155.0,-22.0,-1071.0,-55.0,0.0,-1075.0,14,351.0,96.17,367.79,-28.0,-92.0,1.0,0,,,100,100,0,1,0,0,0,1,0,,,,,0.0,0.0,0,LSS,767.4152722577445,284.6579407941389,35.04757182890329,-8.995850923087195,-2.8416698036130548,0.0012141370191540524,0
51.519213,5.858078,35.0,0.0,9.71,39.55,35.3,35.3,17.18,728.95,562587,2020-09-30 09:10:32.087,2020-09-30 11:10:32.088,19,0,0,11.571,51.519566,5.858136,-2.8,-9.3,0.0,-15.6,-2.2,-107.4,0,1,0,66,100,-7550,2468,11571,3061.5,9,WP,1,0,0,0,0,0,0,1601457032087,3847,3849,3840,0,0,0,13,,,,,,,0,0,0,156.0,-22.0,-1074.0,-55.0,0.0,-1075.0,14,350.0,97.12,395.45,-28.0,-93.0,0.0,0,,,100,100,0,1,0,0,0,1,0,,,,,0.0,0.0,0,LSS,758.1145302284863,281.76381084556624,34.9488103984265,-9.132180246272531,-2.8416782514081484,-0.09697152997647869,0
51.519187,5.857943,35.1,0.0,9.74,44.31,35.3,35.3,17.18,728.95,563582,2020-09-30 09:10:33.082,2020-09-30 11:10:33.082,19,0,0,11.656,51.519566,5.858136,-2.9,-9.3,0.0,-15.6,-2.1,-107.2,0,1,0,66,100,-7826,2455,11656,3061.5,9,WP,1,0,0,0,0,0,0,1601457033082,3847,3849,3840,0,0,0,13,,,,,,,0,0,0,156.0,-21.0,-1072.0,-55.0,0.0,-1076.0,14,351.0,97.42,443.12,-29.0,-93.0,0.0,0,,,100,100,0,1,0,0,0,1,0,,,,,0.0,0.0,0,LSS,748.74438959165,278.8696965477401,35.05004225083724,-9.200321109791718,-2.8416628843075995,0.09939717927566408,0
51.519161,5.85781,35.1,0.0,9.62,50.49,35.3,35.3,17.18,728.95,564585,2020-09-30 09:10:34.085,2020-09-30 11:10:34.085,19,0,0,11.656,51.519566,5.858136,-2.8,-9.2,0.0,-15.9,-2.2,-107.0,0,1,0,66,100,-7826,2455,11656,3061.5,9,WP,1,0,0,0,0,0,0,1601457034085,3847,3849,3840,0,0,0,13,,,,,,,0,0,0,159.0,-22.0,-1070.0,-55.0,0.0,-1076.0,14,351.0,96.17,504.94,-28.0,-92.0,0.0,0,,,100,100,0,1,0,0,0,1,0,,,,,0.0,0.0,0,LSS,739.5130499658253,275.9756153261535,35.05124299127843,-9.064035655691955,-2.8416304075245016,0.0011789788495861226,0
51.519135,5.857677,35.1,0.0,9.52,57.6,35.3,35.3,17.18,728.95,565582,2020-09-30 09:10:35.082,2020-09-30 11:10:35.082,19,0,0,11.698,51.519566,5.858136,-2.8,-9.1,0.0,-15.5,-2.5,-107.2,0,1,0,66,100,-7802,2453,11698,3061.5,9,WP,1,0,0,0,0,0,0,1601457035082,3847,3849,3840,0,0,0,13,,,,,,,0,0,0,155.0,-25.0,-1072.0,-55.0,0.0,-1076.0,14,351.0,95.21,575.96,-28.0,-91.0,0.0,0,,,100,100,0,1,0,0,0,1,0,,,,,0.0,0.0,0,LSS,730.2816998231073,273.08155089307,35.052429083934754,-9.064045981982607,-2.8416139232874458,0.001164596533510321,0
51.519107,5.857534,35.1,0.0,9.4,66.0,35.3,35.3,17.18,728.95,566687,2020-09-30 09:10:36.187,2020-09-30 11:10:36.187,19,0,0,11.698,51.519566,5.858136,-2.7,-9.0,0.0,-15.8,-2.6,-107.1,0,1,0,66,100,-7802,2453,11698,3061.5,9,WP,1,0,0,0,0,0,0,1601457036187,3841,3843,3833,0,0,0,13,,,,,,,0,0,0,158.0,-26.0,-1071.0,-55.0,0.0,-1076.0,14,351.0,93.96,660.02,-27.0,-90.0,0.0,0,,,100,100,0,1,0,0,0,1,0,,,,,0.0,0.0,0,LSS,720.3562521821492,269.9648871627699,35.053688228975446,-9.745564020271877,-3.060178947291006,0.0012363249546781293,0
51.519082,5.857403,35.1,0.0,9.55,74.16,35.3,35.3,17.18,728.95,567681,2020-09-30 09:10:37.181,2020-09-30 11:10:37.181,18,0,0,11.613,51.519566,5.858136,-2.9,-9.1,0.1,-16.0,-1.6,-106.7,0,1,0,66,100,-7528,2447,11613,3061.5,9,WP,1,0,0,0,0,0,0,1601457037181,3841,3843,3833,0,0,0,13,,,,,,,0,0,0,160.0,-16.0,-1067.0,-55.0,0.0,-1076.0,14,351.0,95.51,741.56,-29.0,-91.0,1.0,0,,,100,100,0,1,0,0,0,1,0,,,,,0.0,0.0,0,LSS,711.2636884204126,267.1821358054674,35.05482381505385,-8.927774892765967,-2.7323182274600577,0.001115005310385923,0
51.519053,5.857264,35.0,0.0,9.77,83.24,35.3,35.3,17.18,728.95,568717,2020-09-30 09:10:38.217,2020-09-30 11:10:38.218,19,0,0,11.613,51.519566,5.858136,-3.0,-9.3,0.0,-16.0,0.1,-107.0,0,1,0,66,100,-7528,2447,11613,3061.5,9,WP,1,0,0,0,0,0,-436,1601457038217,3841,3843,3833,0,0,0,13,,,,,,,0,0,0,160.0,1.0,-1070.0,-83.0,0.0,-1075.0,14,350.0,97.72,832.43,-30.0,-93.0,0.0,0,,,100,100,0,1,0,0,0,1,0,,,,,0.0,0.0,0,LSS,701.6158697225703,263.95428464339386,34.95602467661125,-9.47296667888341,-3.1693512762171188,-0.09700855454284911,0
51.519024,5.857122,35.0,0.0,9.93,92.69,35.3,35.3,17.18,728.95,569788,2020-09-30 09:10:39.288,2020-09-30 11:10:39.288,19,0,0,11.656,51.519566,5.858136,-2.9,-9.5,0.0,-13.0,-1.2,-106.9,0,1,0,66,100,-7276,2445,11656,3061.5,9,WP,1,0,0,0,0,0,-319,1601457039288,3841,3843,3833,0,0,0,13,,,,,,,0,0,0,130.0,-12.0,-1069.0,-187.0,0.0,-1075.0,14,350.0,99.33,926.87,-29.0,-95.0,0.0,0,,,100,100,0,1,0,0,0,1,0,,,,,0.0,0.0,0,LSS,691.7598139497702,260.72642765118275,34.95723188174536,-9.677429774031053,-3.1693570006923366,0.0011853263797897216,0
51.518998,5.856983,35.0,0.0,9.81,102.0,35.3,35.3,17.18,728.95,570811,2020-09-30 09:10:40.312,2020-09-30 11:10:40.312,19,0,0,11.656,51.519566,5.858136,-2.8,-9.4,0.0,-13.6,-2.0,-106.9,0,1,0,66,100,-7276,2445,11656,3061.5,9,WP,1,0,0,0,0,0,0,1601457040311,3841,3843,3833,0,0,0,13,,,,,,,0,0,0,136.0,-20.0,-1069.0,-201.0,0.0,-1075.0,14,350.0,98.08,1020.01,-28.0,-94.0,0.0,0,,,100,100,0,1,0,0,0,1,0,,,,,0.0,0.0,0,LSS,682.1119369156293,257.83239416675906,34.95838654465638,-9.473023957925557,-2.841583535524967,0.0011337364044663152,0
51.518972,5.856843,35.0,0.0,9.62,111.47,35.3,35.3,17.18,728.95,571848,2020-09-30 09:10:41.349,2020-09-30 11:10:41.349,19,0,0,11.444,51.519566,5.858136,-2.8,-9.2,0.0,-14.9,-2.2,-106.9,0,1,0,66,100,-7594,2441,11444,3061.5,9,WP,1,0,0,0,0,0,0,1601457041348,3841,3843,3833,0,0,0,13,,,,,,,0,0,0,149.0,-22.0,-1069.0,-201.0,0.0,-1075.0,14,350.0,96.17,1114.73,-28.0,-92.0,0.0,0,,,100,100,0,1,0,0,0,1,0,,,,,0.0,0.0,0,LSS,672.3946368295224,254.93836982784433,34.95953263328293,-9.541188822815363,-2.8415745557644323,0.0011253175158477788,0
51.518947,5.856712,35.1,0.0,9.52,120.52,35.3,35.3,17.18,728.95,572959,2020-09-30 09:10:42.460,2020-09-30 11:10:42.460,19,0,0,11.444,51.519566,5.858136,-2.8,-9.1,0.0,-15.6,-2.0,-107.5,0,1,0,66,100,-7594,2441,11444,3061.5,9,WP,1,0,0,0,0,0,0,1601457042459,3841,3843,3833,0,0,0,13,,,,,,,0,0,0,156.0,-20.0,-1075.0,-201.0,0.0,-1075.0,14,351.0,95.21,1205.17,-28.0,-91.0,0.0,0,,,100,100,0,1,0,0,0,1,0,,,,,0.0,0.0,0,LSS,663.302030426143,252.15570837053934,35.06059342979772,-8.927816761593864,-2.73222995676305,0.09922922350728938,0
51.518919,5.856568,35.0,0.0,9.46,130.52,35.3,35.3,17.18,728.95,573961,2020-09-30 09:10:43.462,2020-09-30 11:10:43.462,19,0,0,11.487,51.519566,5.858136,-2.9,-9.0,0.1,-15.5,-1.9,-107.0,0,1,0,66,100,-7720,2437,11487,3061.5,9,WP,1,0,0,0,0,0,0,1601457043461,3841,3843,3833,0,0,0,13,,,,,,,0,0,0,155.0,-19.0,-1070.0,-201.0,0.0,-1076.0,14,350.0,94.56,1305.23,-29.0,-90.0,1.0,0,,,100,100,0,1,0,0,0,1,0,,,,,0.0,0.0,0,LSS,653.3070784516983,249.03916275976988,34.96174542742722,-9.813808693578615,-3.060062968496947,-0.09705653288648357,0
51.518893,5.856438,35.0,0.0,9.55,139.69,35.3,35.3,17.18,728.95,574962,2020-09-30 09:10:44.462,2020-09-30 11:10:44.462,19,0,0,11.487,51.519566,5.858136,-2.9,-9.1,0.0,-16.3,-0.6,-107.0,0,1,0,66,100,-7720,2437,11487,3061.5,9,WP,1,0,0,0,0,0,0,1601457044462,3841,3843,3833,0,0,0,13,,,,,,,0,0,0,163.0,-6.0,-1070.0,-201.0,0.0,-1075.0,14,350.0,95.51,1396.93,-29.0,-91.0,0.0,0,,,100,100,0,1,0,0,0,1,0,,,,,0.0,0.0,0,LSS,644.2838669464012,246.1452815309117,34.96277379327172,-8.859679540341503,-2.84143403935969,0.0010097282799140656,0
51.518865,5.856301,35.0,0.0,9.52,149.34,35.3,35.3,17.18,728.95,575958,2020-09-30 09:10:45.459,2020-09-30 11:10:45.459,19,0,0,11.55,51.519566,5.858136,-2.8,-9.1,0.0,-15.9,-0.9,-107.3,0,1,0,66,100,-7802,2430,11550,3061.5,9,WP,1,0,0,0,0,0,0,1601457045458,3841,3843,3833,0,0,0,13,,,,,,,0,0,0,159.0,-9.0,-1073.0,-201.0,0.0,-1075.0,14,350.0,95.21,1493.37,-28.0,-91.0,0.0,0,,,100,100,0,1,0,0,0,1,0,,,,,0.0,0.0,0,LSS,634.7747874227697,243.0288380015601,34.963844870176814,-9.336741940886613,-3.0599627371492835,0.001051665267582632,0
51.518839,5.856167,35.0,0.0,9.74,158.8,35.3,35.3,17.18,728.95,577013,2020-09-30 09:10:46.513,2020-09-30 11:10:46.513,19,0,0,11.55,51.519566,5.858136,-2.9,-9.3,0.0,-16.3,-1.0,-106.8,0,1,0,66,100,-7802,2430,11550,3061.5,9,WP,1,0,0,0,0,0,0,1601457046513,3841,3843,3833,0,0,0,13,,,,,,,0,0,0,163.0,-10.0,-1068.0,-201.0,0.0,-1075.0,14,350.0,97.42,1588.01,-29.0,-93.0,0.0,0,,,100,100,0,1,0,0,0,1,0,,,,,0.0,0.0,0,LSS,625.4739056356798,240.1349555246826,34.964871523848956,-9.13231747120638,-2.841435264760557,0.0010080471380672737,0
51.51881,5.856023,35.0,0.0,9.84,169.07,35.3,35.3,17.18,728.95,578033,2020-09-30 09:10:47.533,2020-09-30 11:10:47.533,19,0,0,11.634,51.519566,5.858136,-2.9,-9.4,0.0,-14.1,0.0,-107.0,0,1,0,65,100,-7554,2426,11634,3061.5,9,WP,1,0,0,0,0,0,0,1601457047533,3839,3841,3828,0,0,0,13,,,,,,,0,0,0,141.0,0.0,-1070.0,-201.0,0.0,-1075.0,14,350.0,98.37,1690.65,-29.0,-94.0,0.0,0,,,100,100,0,1,0,0,0,1,0,,,,,0.0,0.0,0,LSS,615.4789306651504,236.90722954338906,34.96596262229137,-9.813831272894285,-3.169228364148086,0.0010713239450382123,0
51.518783,5.855882,35.0,0.0,9.71,179.12,35.3,35.3,17.18,728.95,579087,2020-09-30 09:10:48.588,2020-09-30 11:10:48.588,19,0,0,11.634,51.519566,5.858136,-2.8,-9.3,0.0,-12.8,-0.8,-107.2,0,1,0,65,100,-7554,2426,11634,3061.5,9,WP,1,0,0,0,0,0,0,1601457048587,3839,3841,3828,0,0,0,13,,,,,,,0,0,0,128.0,-8.0,-1072.0,-201.0,0.0,-1075.0,14,350.0,97.12,1791.2,-28.0,-93.0,0.0,0,,,100,100,0,1,0,0,0,1,0,,,,,0.0,0.0,0,LSS,605.6921535192181,233.90206566470357,34.96700856738349,-9.609406716754465,-2.950699860657478,0.0010269889304380592,0
51.518757,5.855747,35.0,0.0,9.74,188.68,35.3,35.3,17.18,728.95,580087,2020-09-30 09:10:49.587,2020-09-30 11:10:49.587,19,0,0,11.656,51.519566,5.858136,-2.9,-9.3,0.0,-15.4,-1.2,-107.0,0,1,0,65,100,-7058,2422,11656,3061.5,9,WP,1,0,0,0,0,0,0,1601457049587,3839,3841,3828,0,0,0,13,,,,,,,0,0,0,154.0,-12.0,-1070.0,-201.0,0.0,-1075.0,14,350.0,97.42,1886.84,-29.0,-93.0,0.0,0,,,100,100,0,1,0,0,0,1,0,,,,,0.0,0.0,0,LSS,596.3218260709976,231.0082283215221,34.967995233339906,-9.200504535504114,-2.841390949044019,0.0009687841387844805,0
51.518728,5.855599,34.9,0.0,9.55,199.25,35.3,35.3,17.18,728.95,581186,2020-09-30 09:10:50.687,2020-09-30 11:10:50.687,19,0,0,11.656,51.519566,5.858136,-2.9,-9.1,0.0,-11.4,0.0,-107.1,0,1,0,65,100,-7058,2422,11656,3061.5,9,WP,1,0,0,0,0,0,0,1601457050686,3839,3841,3828,0,0,0,13,,,,,,,0,0,0,114.0,0.0,-1071.0,-201.0,0.0,-1074.0,14,349.0,95.51,1992.51,-29.0,-91.0,0.0,0,,,75,100,0,1,0,0,0,1,0,,,,,0.0,0.0,0,LSS,586.0491557285982,227.7805241278929,34.86906159061617,-10.086493839117042,-3.169206971351979,-0.09714062113875699,0
51.518704,5.855471,34.9,0.0,9.3,208.41,35.3,35.3,17.18,728.95,582196,2020-09-30 09:10:51.697,2020-09-30 11:10:51.697,19,0,0,11.656,51.519566,5.858136,-2.7,-8.9,0.0,-15.6,-1.0,-107.1,0,1,0,65,100,-7058,2422,11656,3061.5,9,WP,1,0,0,0,0,0,0,1601457051696,3839,3841,3828,0,0,0,13,,,,,,,0,0,0,156.0,-10.0,-1071.0,-201.0,0.0,-1074.0,14,349.0,93.01,2084.13,-27.0,-89.0,0.0,0,,,100,100,0,1,0,0,0,1,0,,,,,0.0,0.0,0,LSS,577.1646679603579,225.10929585517908,34.86996496610956,-8.723469959723738,-2.622816328914711,0.0008870031885397432,0
51.518679,5.85534,35.0,0.0,9.52,217.71,35.3,35.3,17.18,728.95,583238,2020-09-30 09:10:52.739,2020-09-30 11:10:52.739,19,0,0,11.656,51.519566,5.858136,-2.8,-9.1,0.0,-16.1,-0.8,-107.2,0,1,0,65,100,-7058,2422,11656,3061.5,9,WP,1,0,0,0,0,0,0,1601457052738,3839,3841,3828,0,0,0,13,,,,,,,0,0,0,161.0,-8.0,-1072.0,-201.0,0.0,-1074.0,14,350.0,95.21,2177.07,-28.0,-91.0,0.0,0,,,100,100,0,1,0,0,0,1,0,,,,,0.0,0.0,0,LSS,568.0719546673893,222.32680453352884,34.970877265997075,-8.927921713972099,-2.732062904557911,0.09908341815520265,0
51.518652,5.855204,35.0,0.0,9.65,227.5,35.3,35.3,17.18,728.95,584198,2020-09-30 09:10:53.698,2020-09-30 11:10:53.699,19,0,0,11.465,51.519566,5.858136,-2.9,-9.2,0.0,-16.3,-0.5,-107.3,0,1,0,65,100,-7152,2414,11465,3061.5,9,WP,1,0,0,0,0,0,660,1601457053698,3839,3841,3828,0,0,0,13,,,,,,,0,0,0,163.0,-5.0,-1073.0,-95.0,0.0,-1074.0,14,350.0,96.46,2274.99,-29.0,-92.0,0.0,0,,,100,100,0,1,0,0,0,1,0,,,,,0.0,0.0,0,LSS,558.6321841305202,219.32177019331087,34.97181341941058,-9.268689073942278,-2.950572669877378,0.0009191870587744223,0
51.518625,5.855066,35.0,0.0,9.52,237.48,35.3,35.3,17.18,728.95,585263,2020-09-30 09:10:54.764,2020-09-30 11:10:54.764,19,0,0,11.465,51.519566,5.858136,-2.8,-9.1,0.0,-15.9,-0.7,-107.5,0,1,0,65,100,-7152,2414,11465,3061.5,9,WP,1,0,0,0,0,0,0,1601457054763,3839,3841,3828,0,0,0,13,,,,,,,0,0,0,159.0,-7.0,-1075.0,-4.0,0.0,-1074.0,14,350.0,95.21,2374.77,-28.0,-91.0,0.0,0,,,100,100,0,1,0,0,0,1,0,,,,,0.0,0.0,0,LSS,549.0535772501621,216.31673840145243,34.97274614188531,-9.405009220172115,-2.9505701677029808,0.0009158183005381963,0
51.518599,5.854931,34.9,0.0,9.4,247.14,35.3,35.3,17.18,728.95,586319,2020-09-30 09:10:55.819,2020-09-30 11:10:55.819,19,0,0,11.592,51.519566,5.858136,-2.7,-9.0,0.0,-15.8,-1.2,-107.2,0,1,0,65,100,-7654,2412,11592,3061.5,9,WP,1,0,0,0,0,0,-282,1601457055819,3839,3841,3828,0,0,0,13,,,,,,,0,0,0,158.0,-12.0,-1072.0,-20.0,0.0,-1075.0,14,349.0,93.96,2471.39,-27.0,-90.0,0.0,0,,,100,100,0,1,0,0,0,1,0,,,,,0.0,0.0,0,LSS,539.6831766643807,213.42300224826954,34.87364178972854,-9.200576347558224,-2.841291592960029,-0.09730823672333254,0
51.518574,5.854801,34.9,0.0,9.33,256.46,35.3,35.3,17.18,728.95,587299,2020-09-30 09:10:56.800,2020-09-30 11:10:56.800,19,0,0,11.656,51.519566,5.858136,-2.8,-8.9,0.0,-16.2,-1.0,-107.3,0,1,0,65,100,-7246,2416,11656,3061.5,9,WP,1,0,0,0,0,0,-234,1601457056799,3839,3841,3828,0,0,0,13,,,,,,,0,0,0,162.0,-10.0,-1073.0,-56.0,0.0,-1075.0,14,349.0,93.3,2564.64,-28.0,-89.0,0.0,0,,,100,100,0,1,0,0,0,1,0,,,,,0.0,0.0,0,LSS,530.659825705658,210.64058181675475,34.874489902263036,-8.859816466386075,-2.7319932991981934,0.0008327417866014783,0
51.518547,5.854663,34.9,0.0,9.2,266.4,35.3,35.3,17.18,728.95,588384,2020-09-30 09:10:57.884,2020-09-30 11:10:57.884,18,0,0,11.55,51.519566,5.858136,-2.7,-8.8,0.0,-15.8,-0.3,-107.5,0,1,0,65,100,-7838,2405,11550,3061.5,9,WP,1,0,0,0,0,0,-322,1601457057884,3839,3841,3828,0,0,0,13,,,,,,,0,0,0,158.0,-3.0,-1075.0,-119.0,0.0,-1075.0,14,349.0,92.05,2663.97,-27.0,-88.0,0.0,0,,,100,75,0,1,0,0,0,1,0,,,,,0.0,0.0,0,LSS,521.0811860634328,207.635602849662,34.87537661096549,-9.405041388280319,-2.950518300305697,0.0008706384577986184,0
51.518522,5.854534,35.0,0.0,9.3,275.69,35.3,35.3,17.18,728.95,589402,2020-09-30 09:10:58.903,2020-09-30 11:10:58.903,19,0,0,11.55,51.519566,5.858136,-2.7,-8.9,0.0,-15.8,-1.6,-107.4,0,1,0,65,100,-7838,2405,11550,3061.5,9,WP,1,0,0,0,0,0,0,1601457058902,3828,3830,3821,0,0,0,13,,,,,,,0,0,0,158.0,-16.0,-1074.0,-163.0,0.0,-1075.0,14,350.0,93.01,2756.9,-27.0,-89.0,0.0,0,,,75,75,0,1,0,0,0,1,0,,,,,0.0,0.0,0,LSS,512.1272353954915,204.85322569073804,34.976190373828686,-8.791673950169065,-2.731950810857162,0.09898666696436877,0
51.518498,5.854406,34.9,0.0,9.2,284.88,35.3,35.3,17.18,728.95,590488,2020-09-30 09:10:59.988,2020-09-30 11:10:59.988,19,0,0,11.613,51.519566,5.858136,-2.7,-8.8,0.0,-15.4,-2.3,-107.5,0,1,0,65,100,-8236,2401,11613,3061.5,9,WP,1,0,0,0,0,0,0,1601457059988,3828,3830,3821,0,0,0,13,,,,,,,0,0,0,154.0,-23.0,-1075.0,-163.0,0.0,-1075.0,14,349.0,92.05,2848.83,-27.0,-88.0,0.0,0,,,75,75,0,1,0,0,0,1,0,,,,,0.0,0.0,0,LSS,503.2426606556712,202.18212356881145,34.87698138690061,-8.723555355076323,-2.62269246441836,-0.09741097514877993,0
51.518474,5.854278,34.9,0.0,8.79,294.12,35.3,35.3,17.18,728.95,591460,2020-09-30 09:11:00.960,2020-09-30 11:11:00.960,19,0,0,11.613,51.519566,5.858136,-2.6,-8.4,0.0,-15.9,-2.0,-107.4,0,1,0,65,100,-8236,2401,11613,3061.5,9,WP,1,0,0,0,0,0,0,1601457060960,3828,3830,3821,0,0,0,13,,,,,,,0,0,0,159.0,-20.0,-1074.0,-163.0,0.0,-1076.0,14,349.0,87.93,2941.17,-26.0,-84.0,0.0,0,,,75,75,0,1,0,0,0,1,0,,,,,0.0,0.0,0,LSS,494.3580845868583,199.5110402064024,34.87775893161607,-8.723556659982952,-2.6226740448884835,0.0007634529018000066,0
51.518449,5.854149,35.0,0.0,8.82,303.38,35.3,35.3,17.18,728.95,592534,2020-09-30 09:11:02.035,2020-09-30 11:11:02.035,19,0,0,11.55,51.519566,5.858136,-2.7,-8.4,0.0,-16.5,-1.6,-106.9,0,1,0,65,100,-8372,2397,11550,3061.5,9,WP,1,0,0,0,0,0,0,1601457062034,3828,3830,3821,0,0,0,13,,,,,,,0,0,0,165.0,-16.0,-1069.0,-163.0,0.0,-1076.0,14,350.0,88.23,3033.82,-27.0,-84.0,0.0,0,,,75,75,0,1,0,0,0,1,0,,,,,0.0,0.0,0,LSS,485.4041045473326,196.7287100529161,34.97853171016875,-8.791702789438224,-2.7319046573214596,0.09894642543205617,0
51.518424,5.854022,34.9,0.0,8.89,312.57,35.3,35.3,17.18,728.95,593689,2020-09-30 09:11:03.189,2020-09-30 11:11:03.189,18,0,0,11.55,51.519566,5.858136,-2.6,-8.5,0.0,-15.8,-1.8,-107.1,0,1,0,65,100,-8568,2391,11550,3061.5,9,WP,1,0,0,0,0,0,0,1601457063189,3828,3830,3821,0,0,0,13,,,,,,,0,0,0,158.0,-18.0,-1071.0,-163.0,0.0,-1076.0,14,349.0,88.89,3125.73,-26.0,-85.0,0.0,0,,,75,75,0,1,0,0,0,1,0,,,,,0.0,0.0,0,LSS,476.58892529720816,193.9464025392919,34.87928038082707,-8.65541755293243,-2.731882427772381,-0.0974525501706339,0
