lat,lon,alt,ultrasonicHeight(m),speed(mps),distance(m),max_altitude(m),max_ascent(m),max_speed(mps),max_distance(m),time(millisecond),datetime(utc),time,satellites,pressure(Pa),temperature(F),voltage(v),home_latitude,home_longitude,velocityX(mps),velocityY(mps),velocityZ(mps),pitch(deg),roll(deg),yaw(deg),powerlevel,isflying,istakingphoto,remainPowerPercent,remainLifePercent,currentCurrent,currentElectricity,currentVoltage,batteryTemperature,dischargeCount,flightmode,isMotorsOn,isTakingVideo,Rc_elevator,Rc_aileron,Rc_throttle,Rc_rudder,Rc_gyro,timestamp,Battery_Cell1,Battery_Cell2,Battery_Cell3,Battery_Cell4,Battery_Cell5,Battery_Cell6,Dronetype,AppVersion,Planename,FlyControllerSerialNumber,RemoteSerialNumber,BatterySerialNumber,CENTER_BATTERY.productDate,CENTER_BATTERY.serialNo,CENTER_BATTERY.fullCapacity,CENTER_BATTERY.productDateRaw,pitchRaw,rollRaw,yawRaw,gimbalPitchRaw,gimbalRollRaw,gimbalYawRaw,flyState,altitudeRaw,speedRaw,distanceRaw,velocityXRaw,velocityYRaw,velocityZRaw,data_reuse,App_Tip,App_Warning,downlinkSignalQuality,uplinkSignalQuality,transmissionChannel,rcModeSwitch,rcHome,rcPause,rcTransform,rcJoystickMode,appMode,FlyControllerSerialNumber_legacy,RemoteSerialNumber_legacy,BatterySerialNumber_legacy,Battery2SerialNumber,frontAvoidDist,backAvoidDist,isBrakingToAvoid,uav_category,x,y,z,vel_x,vel_y,vel_z,track_id
51.521211,5.868285,35.1,0.0,3.05,727.85,35.3,35.3,17.18,781.85,1005117,2020-09-30 09:17:54.618,2020-09-30 11:17:54.618,18,0,0,11.191,51.519566,5.858136,-1.2,-2.8,0.0,-14.5,-4.3,-106.9,0,1,0,40,100,-7642,1491,11191,3091.5,9,WP,1,0,0,0,0,0,0,1601457474617,3689,3692,3681,0,0,0,13,,,,,,,0,0,0,145.0,-43.0,-1069.0,-163.0,0.0,-1101.0,14,351.0,30.46,7278.47,-12.0,-28.0,0.0,0,,,75,75,0,1,0,0,0,1,0,,,,,0.0,0.0,0,LSS,1140.8007048426553,402.66248394447484,34.985470294275615,-3.507800226688371,-1.4066219712475625,-0.09648359435325857,0
51.521198,5.868233,35.0,0.0,4.56,723.98,35.3,35.3,17.18,781.85,1006113,2020-09-30 09:17:55.613,2020-09-30 11:17:55.613,18,0,0,11.149,51.519566,5.858136,-1.5,-4.3,0.1,-14.8,-3.9,-106.7,0,1,0,40,100,-8984,1489,11149,3091.5,9,WP,1,0,0,0,0,0,0,1601457475613,3689,3692,3681,0,0,0,13,,,,,,,0,0,0,148.0,-39.0,-1067.0,-163.0,0.0,-1092.0,14,350.0,45.55,7239.8,-15.0,-43.0,1.0,0,,,75,75,0,1,0,0,0,1,0,,,,,0.0,0.0,0,LSS,1137.1917607042305,401.21530343530833,34.886204691962774,-3.507800226688371,-1.4066219712475625,-0.09648359435325857,0
51.521181,5.868163,35.0,0.0,5.69,718.82,35.3,35.3,17.18,781.85,1007123,2020-09-30 09:17:56.623,2020-09-30 11:17:56.623,18,0,0,11.149,51.519566,5.858136,-1.8,-5.4,0.0,-15.2,-3.8,-106.6,0,1,0,40,100,-8984,1489,11149,3091.5,9,WP,1,0,0,0,0,0,0,1601457476623,3689,3692,3681,0,0,0,13,,,,,,,0,0,0,152.0,-38.0,-1066.0,-163.0,0.0,-1089.0,14,350.0,56.92,7188.22,-18.0,-54.0,0.0,0,,,75,75,0,1,0,0,0,1,0,,,,,0.0,0.0,0,LSS,1132.333575052796,399.32281780543747,34.8871860847141,-4.722030620522355,-1.8394470146504314,0.0009538883350742716,0
51.521163,5.86808,35.0,0.0,6.51,712.69,35.3,35.3,17.18,781.85,1008118,2020-09-30 09:17:57.618,2020-09-30 11:17:57.618,18,0,0,11.212,51.519566,5.858136,-2.0,-6.2,0.0,-15.0,-4.3,-106.7,0,1,0,40,100,-8090,1480,11212,3091.5,9,WP,1,0,0,0,0,0,0,1601457477618,3689,3692,3681,0,0,0,13,,,,,,,0,0,0,150.0,-43.0,-1067.0,-163.0,0.0,-1086.0,14,350.0,65.15,7126.92,-20.0,-62.0,0.0,0,,,75,75,0,1,0,0,0,1,0,,,,,0.0,0.0,0,LSS,1126.573097008539,397.3188778093015,34.88832927903138,-5.599035455921043,-1.9477777718620837,0.0011111552663301315,0
51.521142,5.867986,35.0,0.0,7.15,705.84,35.3,35.3,17.18,781.85,1009117,2020-09-30 09:17:58.617,2020-09-30 11:17:58.617,19,0,0,11.212,51.519566,5.858136,-2.2,-6.8,0.0,-15.7,-1.8,-106.8,0,1,0,40,100,-8090,1480,11212,3091.5,9,WP,1,0,0,0,0,0,0,1601457478617,3689,3692,3681,0,0,0,13,,,,,,,0,0,0,157.0,-18.0,-1068.0,-163.0,0.0,-1085.0,14,350.0,71.47,7058.44,-22.0,-68.0,0.0,0,,,75,75,0,1,0,0,0,1,0,,,,,0.0,0.0,0,LSS,1120.0491917001086,394.9809994295132,34.8896211816633,-6.341066983041343,-2.272357231378747,0.001255695896441587,0
51.521121,5.867884,35.0,0.0,7.62,698.34,35.3,35.3,17.18,781.85,1010115,2020-09-30 09:17:59.615,2020-09-30 11:17:59.616,19,0,0,11.212,51.519566,5.858136,-2.2,-7.3,0.1,-14.4,-3.2,-106.7,0,1,0,40,100,-7880,1476,11212,3091.5,9,WP,1,0,0,0,0,0,0,1601457479615,3689,3692,3681,0,0,0,13,,,,,,,0,0,0,144.0,-32.0,-1067.0,-163.0,0.0,-1083.0,14,350.0,76.25,6983.44,-22.0,-73.0,1.0,0,,,75,75,0,1,0,0,0,1,0,,,,,0.0,0.0,0,LSS,1112.97001005035,392.64300775932884,34.891002295672365,-6.880781204507762,-2.2724673467093344,0.001342407044347117,0
51.5211,5.867775,35.0,0.0,7.94,690.48,35.3,35.3,17.18,781.85,1011115,2020-09-30 09:18:00.615,2020-09-30 11:18:00.615,19,0,0,11.212,51.519566,5.858136,-2.3,-7.6,0.0,-14.4,-3.3,-106.8,0,1,0,40,100,-7880,1476,11212,3091.5,9,WP,1,0,0,0,0,0,0,1601457480615,3690,3692,3683,0,0,0,13,,,,,,,0,0,0,144.0,-33.0,-1068.0,-163.0,0.0,-1082.0,14,350.0,79.4,6904.81,-23.0,-76.0,0.0,0,,,75,75,0,1,0,0,0,1,0,,,,,0.0,0.0,0,LSS,1105.4049601164093,390.30492022140163,34.892458767617626,-7.353032592177967,-2.272560527672305,0.001415653006472155,0
51.521078,5.867663,35.0,0.0,8.13,682.3,35.3,35.3,17.18,781.85,1012117,2020-09-30 09:18:01.617,2020-09-30 11:18:01.617,18,0,0,11.128,51.519566,5.858136,-2.3,-7.8,0.0,-13.7,-4.9,-107.0,0,1,0,40,100,-7830,1472,11128,3091.5,9,WP,1,0,0,0,0,0,0,1601457481617,3690,3692,3683,0,0,0,13,,,,,,,0,0,0,137.0,-49.0,-1070.0,-163.0,0.0,-1082.0,14,350.0,81.32,6822.99,-23.0,-78.0,0.0,0,,,75,75,0,1,0,0,0,1,0,,,,,0.0,0.0,0,LSS,1097.6317006904824,387.85554011985494,34.89394796292285,-7.555406825519841,-2.3807340169033044,0.001447459264784816,0
51.521056,5.867547,35.0,0.0,8.35,673.94,35.3,35.3,17.18,781.85,1013134,2020-09-30 09:18:02.635,2020-09-30 11:18:02.635,19,0,0,11.128,51.519566,5.858136,-2.4,-8.0,0.0,-12.8,-4.3,-107.0,0,1,0,40,100,-7830,1472,11128,3091.5,9,WP,1,0,0,0,0,0,0,1601457482634,3690,3692,3683,0,0,0,13,,,,,,,0,0,0,128.0,-43.0,-1070.0,-163.0,0.0,-1081.0,14,350.0,83.52,6739.38,-24.0,-80.0,0.0,0,,,75,75,0,1,0,0,0,1,0,,,,,0.0,0.0,0,LSS,1089.580798204933,385.4061123687319,34.89547410258896,-7.825268688194,-2.3807803310573323,0.0014833682266640713,0
51.521034,5.867432,35.0,0.0,8.26,665.58,35.3,35.3,17.18,781.85,1014108,2020-09-30 09:18:03.609,2020-09-30 11:18:03.609,18,0,0,11.212,51.519566,5.858136,-2.4,-7.9,0.0,-14.9,-3.0,-106.6,0,1,0,40,100,-7456,1468,11212,3091.5,9,WP,1,0,0,0,0,0,0,1601457483608,3690,3692,3683,0,0,0,13,,,,,,,0,0,0,149.0,-30.0,-1066.0,-163.0,0.0,-1081.0,14,350.0,82.57,6655.79,-24.0,-79.0,0.0,0,,,75,75,0,1,0,0,0,1,0,,,,,0.0,0.0,0,LSS,1081.5992968805674,382.95671216184553,34.896977414824164,-7.757812557094323,-2.380753558772714,0.0014611805550757825,0
51.521011,5.867318,35.0,0.0,8.26,657.29,35.3,35.3,17.18,781.85,1015106,2020-09-30 09:18:04.606,2020-09-30 11:18:04.606,18,0,0,11.212,51.519566,5.858136,-2.4,-7.9,0.0,-16.1,-3.9,-106.5,0,1,0,40,100,-7456,1468,11212,3091.5,9,WP,1,0,0,0,0,0,0,1601457484606,3690,3692,3683,0,0,0,13,,,,,,,0,0,0,161.0,-39.0,-1065.0,-163.0,0.0,-1080.0,14,350.0,82.57,6572.92,-24.0,-79.0,0.0,0,,,75,75,0,1,0,0,0,1,0,,,,,0.0,0.0,0,LSS,1073.6872203326811,380.39608032924923,34.89846479222865,-7.690333472539081,-2.4888678179339916,0.0014456923123528512,0
51.520989,5.867203,35.0,0.0,8.35,648.94,35.3,35.3,17.18,781.85,1016105,2020-09-30 09:18:05.605,2020-09-30 11:18:05.606,19,0,0,11.212,51.519566,5.858136,-2.4,-8.0,0.0,-14.0,-3.1,-106.7,0,1,0,40,100,-8696,1466,11212,3091.5,9,WP,1,0,0,0,0,0,0,1601457485605,3690,3692,3683,0,0,0,13,,,,,,,0,0,0,140.0,-31.0,-1067.0,-163.0,0.0,-1080.0,14,350.0,83.52,6489.38,-24.0,-80.0,0.0,0,,,75,75,0,1,0,0,0,1,0,,,,,0.0,0.0,0,LSS,1065.7057034741792,377.94670511131386,34.899946332736505,-7.757827655872464,-2.3807292701595877,0.001440019000007437,0
51.520966,5.867087,34.9,0.0,8.35,640.53,35.3,35.3,17.18,781.85,1017106,2020-09-30 09:18:06.606,2020-09-30 11:18:06.607,19,0,0,11.212,51.519566,5.858136,-2.4,-8.0,0.0,-14.6,-3.7,-106.7,0,1,0,40,100,-8696,1466,11212,3091.5,9,WP,1,0,0,0,0,0,0,1601457486606,3690,3692,3683,0,0,0,13,,,,,,,0,0,0,146.0,-37.0,-1067.0,-163.0,0.0,-1080.0,14,349.0,83.52,6405.26,-24.0,-80.0,0.0,0,,,75,100,0,1,0,0,0,1,0,,,,,0.0,0.0,0,LSS,1057.6547765083678,375.3860632612693,34.80143500162026,-7.825292482374623,-2.48887755463421,-0.09575046228666842,0
51.520944,5.866972,34.9,0.0,8.23,632.17,35.3,35.3,17.18,781.85,1018109,2020-09-30 09:18:07.610,2020-09-30 11:18:07.610,18,0,0,11.107,51.519566,5.858136,-2.3,-7.9,0.0,-14.1,-4.1,-106.6,0,1,0,39,100,-7390,1460,11107,3091.5,9,WP,1,0,0,0,0,0,0,1601457487609,3690,3692,3683,0,0,0,13,,,,,,,0,0,0,141.0,-41.0,-1066.0,-163.0,0.0,-1080.0,14,349.0,82.28,6321.73,-23.0,-79.0,0.0,0,,,75,100,0,1,0,0,0,1,0,,,,,0.0,0.0,0,LSS,1049.6732441736915,372.936713287784,34.80289459584944,-7.757842698313168,-2.3807047332079923,0.0014186877855658486,0
51.520922,5.866857,34.9,0.0,8.35,623.86,35.3,35.3,17.18,781.85,1019106,2020-09-30 09:18:08.607,2020-09-30 11:18:08.607,18,0,0,11.107,51.519566,5.858136,-2.4,-8.0,0.0,-15.3,-5.0,-106.6,0,1,0,39,100,-7390,1460,11107,3091.5,9,WP,1,0,0,0,0,0,0,1601457488606,3690,3692,3683,0,0,0,13,,,,,,,0,0,0,153.0,-50.0,-1066.0,-163.0,0.0,-1079.0,14,349.0,83.52,6238.58,-24.0,-80.0,0.0,0,,,100,100,0,1,0,0,0,1,0,,,,,0.0,0.0,0,LSS,1041.6917041428308,370.48737586437585,34.804343282025286,-7.757850178805077,-2.3806925348580696,0.0014080854402639096,0
51.5209,5.866742,34.9,0.0,8.38,615.49,35.3,35.3,17.18,781.85,1020109,2020-09-30 09:18:09.609,2020-09-30 11:18:09.610,18,0,0,11.17,51.519566,5.858136,-2.5,-8.0,0.0,-14.0,-4.0,-106.7,0,1,0,39,100,-7456,1458,11170,3091.5,9,WP,1,0,0,0,0,0,0,1601457489609,3690,3692,3683,0,0,0,13,,,,,,,0,0,0,140.0,-40.0,-1067.0,-163.0,0.0,-1079.0,14,349.0,83.82,6154.9,-25.0,-80.0,0.0,0,,,100,100,0,1,0,0,0,1,0,,,,,0.0,0.0,0,LSS,1033.7101564157008,368.0380509887935,34.80578105955817,-7.757857659379418,-2.3806803386963913,0.0013974825218502891,0
51.520876,5.866624,34.9,0.0,8.48,606.94,35.3,35.3,17.18,781.85,1021104,2020-09-30 09:18:10.605,2020-09-30 11:18:10.605,18,0,0,11.17,51.519566,5.858136,-2.5,-8.1,0.0,-11.9,-3.4,-106.7,0,1,0,39,100,-7456,1458,11170,3091.5,9,WP,1,0,0,0,0,0,0,1601457490604,3690,3692,3683,0,0,0,13,,,,,,,0,0,0,119.0,-34.0,-1067.0,-163.0,0.0,-1079.0,14,349.0,84.77,6069.42,-25.0,-81.0,0.0,0,,,100,100,0,1,0,0,0,1,0,,,,,0.0,0.0,0,LSS,1025.5204184299082,365.36617894873723,34.807254096373526,-7.960213198429085,-2.5969904183340144,0.0014317536311543402,0
51.520853,5.866508,35.0,0.0,8.38,598.49,35.3,35.3,17.18,781.85,1022105,2020-09-30 09:18:11.605,2020-09-30 11:18:11.605,19,0,0,11.128,51.519566,5.858136,-2.5,-8.0,0.0,-12.2,-2.5,-106.6,0,1,0,39,100,-7202,1449,11128,3091.5,9,WP,1,0,0,0,0,0,0,1601457491605,3691,3695,3685,0,0,0,13,,,,,,,0,0,0,122.0,-25.0,-1066.0,-163.0,0.0,-1078.0,14,350.0,83.82,5984.85,-25.0,-80.0,0.0,0,,,100,100,0,1,0,0,0,1,0,,,,,0.0,0.0,0,LSS,1017.469483866249,362.80561245128365,34.908687092604936,-7.82529986728589,-2.488804313867522,0.09859024510407834,0
51.520831,5.866393,35.0,0.0,8.23,590.13,35.3,35.3,17.18,781.85,1023113,2020-09-30 09:18:12.613,2020-09-30 11:18:12.613,19,0,0,11.128,51.519566,5.858136,-2.3,-7.9,0.0,-14.9,-3.9,-106.9,0,1,0,39,100,-7202,1449,11128,3091.5,9,WP,1,0,0,0,0,0,0,1601457492613,3691,3695,3685,0,0,0,13,,,,,,,0,0,0,149.0,-39.0,-1069.0,-163.0,0.0,-1078.0,14,350.0,82.28,5901.34,-23.0,-79.0,0.0,0,,,100,100,0,1,0,0,0,1,0,,,,,0.0,0.0,0,LSS,1009.4879122674648,360.3563256222359,34.910091671518614,-7.757880862009004,-2.380643358450211,0.0013652143238644266,0
51.52081,5.86628,35.0,0.0,8.1,581.95,35.3,35.3,17.18,781.85,1024109,2020-09-30 09:18:13.610,2020-09-30 11:18:13.610,19,0,0,11.275,51.519566,5.858136,-2.2,-7.8,0.0,-15.0,-5.7,-106.8,0,1,0,39,100,-7078,1445,11275,3091.5,9,WP,1,0,0,0,0,0,0,1601457493609,3691,3695,3685,0,0,0,13,,,,,,,0,0,0,150.0,-57.0,-1068.0,-163.0,0.0,-1078.0,14,350.0,81.04,5819.54,-22.0,-78.0,0.0,0,,,100,100,0,1,0,0,0,1,0,,,,,0.0,0.0,0,LSS,1001.6451295691152,358.0183375475688,34.911457342324354,-7.622981645580969,-2.2724638519596616,0.0013273966507130234,0
51.520789,5.866168,35.0,0.0,8.07,573.87,35.3,35.3,17.18,781.85,1025110,2020-09-30 09:18:14.611,2020-09-30 11:18:14.611,19,0,0,11.275,51.519566,5.858136,-2.4,-7.7,0.0,-15.3,-5.2,-106.5,0,1,0,39,100,-7078,1445,11275,3091.5,9,WP,1,0,0,0,0,0,0,1601457494610,3691,3695,3685,0,0,0,13,,,,,,,0,0,0,153.0,-52.0,-1065.0,-163.0,0.0,-1078.0,14,350.0,80.65,5738.74,-24.0,-77.0,0.0,0,,,100,100,0,1,0,0,0,1,0,,,,,0.0,0.0,0,LSS,993.8717489495748,355.6803751684304,34.91280173858269,-7.5555246225731025,-2.2724388765713868,0.0013067183416687054,0
51.520767,5.866057,35.0,0.0,8.23,565.79,35.3,35.3,17.18,781.85,1026113,2020-09-30 09:18:15.613,2020-09-30 11:18:15.613,19,0,0,11.107,51.519566,5.858136,-2.3,-7.9,0.0,-14.9,-5.5,-107.1,0,1,0,39,100,-7942,1443,11107,3091.5,9,WP,1,0,0,0,0,0,0,1601457495613,3691,3695,3685,0,0,0,13,,,,,,,0,0,0,149.0,-55.0,-1071.0,-163.0,0.0,-1078.0,14,350.0,82.28,5657.86,-23.0,-79.0,0.0,0,,,100,100,0,1,0,0,0,1,0,,,,,0.0,0.0,0,LSS,986.1677921026657,353.23117932476066,34.914131275089744,-7.488046513732183,-2.3805549230193725,0.001292275048314483,0
51.520745,5.865943,35.0,0.0,8.13,557.56,35.3,35.3,17.18,781.85,1027107,2020-09-30 09:18:16.608,2020-09-30 11:18:16.608,19,0,0,11.107,51.519566,5.858136,-2.3,-7.8,0.0,-14.7,-6.0,-106.8,0,1,0,39,100,-7942,1443,11107,3091.5,9,WP,1,0,0,0,0,0,0,1601457496607,3691,3695,3685,0,0,0,13,,,,,,,0,0,0,147.0,-60.0,-1068.0,-163.0,0.0,-1079.0,14,350.0,81.32,5575.62,-23.0,-78.0,0.0,0,,,100,100,0,1,0,0,0,1,0,,,,,0.0,0.0,0,LSS,978.2555997348453,350.78195507422015,34.915482462832585,-7.690446046515135,-2.3805825337620163,0.0013133194887040818,0
51.520723,5.86583,35.0,0.0,8.16,549.33,35.3,35.3,17.18,781.85,1028107,2020-09-30 09:18:17.608,2020-09-30 11:18:17.608,19,0,0,11.107,51.519566,5.858136,-2.4,-7.8,0.0,-14.5,-5.9,-107.0,0,1,0,39,100,-8040,1437,11107,3091.5,9,WP,1,0,0,0,0,0,0,1601457497607,3691,3695,3685,0,0,0,13,,,,,,,0,0,0,145.0,-59.0,-1070.0,-163.0,0.0,-1079.0,14,350.0,81.61,5493.31,-24.0,-78.0,0.0,0,,,100,100,0,1,0,0,0,1,0,,,,,0.0,0.0,0,LSS,970.4128091357264,348.3327564118534,34.91681237570731,-7.622989324924012,-2.380557662719903,0.0012926408679373976,0
51.520701,5.865716,35.0,0.0,8.26,541.06,35.3,35.3,17.18,781.85,1029107,2020-09-30 09:18:18.608,2020-09-30 11:18:18.608,19,0,0,11.107,51.519566,5.858136,-2.4,-7.9,0.0,-14.3,-5.8,-106.6,0,1,0,39,100,-8040,1437,11107,3091.5,9,WP,1,0,0,0,0,0,0,1601457498607,3691,3695,3685,0,0,0,13,,,,,,,0,0,0,143.0,-58.0,-1066.0,-163.0,0.0,-1079.0,14,350.0,82.57,5410.6,-24.0,-79.0,0.0,0,,,100,100,0,1,0,0,0,1,0,,,,,0.0,0.0,0,LSS,962.5006015433872,345.88355671625277,34.91814217837401,-7.690460844353122,-2.3805586669964365,0.001292533748596,0
51.520679,5.865602,35.0,0.0,8.29,532.76,35.3,35.3,17.18,781.85,1030110,2020-09-30 09:18:19.611,2020-09-30 11:18:19.611,19,0,0,11.043,51.519566,5.858136,-2.5,-7.9,0.0,-14.3,-4.4,-106.7,0,1,0,39,100,-8104,1435,11043,3091.5,9,WP,1,0,0,0,0,0,0,1601457499610,3691,3695,3685,0,0,0,13,,,,,,,0,0,0,143.0,-44.0,-1067.0,-163.0,0.0,-1079.0,14,350.0,82.86,5327.62,-25.0,-79.0,0.0,0,,,100,100,0,1,0,0,0,1,0,,,,,0.0,0.0,0,LSS,954.588386322153,343.4343693535349,34.91946124564285,-7.690468259441457,-2.3805466797538286,0.0012820992199306452,0
51.520656,5.865487,34.9,0.0,8.38,524.46,35.3,35.3,17.18,781.85,1031109,2020-09-30 09:18:20.610,2020-09-30 11:18:20.610,19,0,0,11.043,51.519566,5.858136,-2.5,-8.0,0.0,-13.9,-4.4,-107.0,0,1,0,39,100,-8104,1435,11043,3091.5,9,WP,1,0,0,0,0,0,0,1601457500609,3691,3695,3685,0,0,0,13,,,,,,,0,0,0,139.0,-44.0,-1070.0,-163.0,0.0,-1079.0,14,349.0,83.82,5244.6,-25.0,-80.0,0.0,0,,,100,100,0,1,0,0,0,1,0,,,,,0.0,0.0,0,LSS,946.6067598944544,340.87391720376434,34.82078580802553,-7.7579341542937374,-2.488693170881389,-0.0959099695551631,0
51.520633,5.865371,34.9,0.0,8.48,515.98,35.3,35.3,17.18,781.85,1032109,2020-09-30 09:18:21.609,2020-09-30 11:18:21.609,19,0,0,11.064,51.519566,5.858136,-2.5,-8.1,0.0,-13.0,-4.9,-106.6,0,1,0,39,100,-7452,1428,11064,3091.5,9,WP,1,0,0,0,0,0,0,1601457501609,3685,3688,3679,0,0,0,13,,,,,,,0,0,0,130.0,-49.0,-1066.0,-163.0,0.0,-1079.0,14,349.0,84.77,5159.77,-25.0,-81.0,0.0,0,,,100,100,0,1,0,0,0,1,0,,,,,0.0,0.0,0,LSS,938.5557308234143,338.3134701679971,34.82210956588122,-7.825391726012309,-2.4886882002026116,0.001286658348855924,0
51.52061,5.865255,34.9,0.0,8.35,507.56,35.3,35.3,17.18,781.85,1033104,2020-09-30 09:18:22.605,2020-09-30 11:18:22.605,19,0,0,11.064,51.519566,5.858136,-2.4,-8.0,0.0,-14.2,-4.5,-106.7,0,1,0,39,100,-7452,1428,11064,3091.5,9,WP,1,0,0,0,0,0,0,1601457502604,3685,3688,3679,0,0,0,13,,,,,,,0,0,0,142.0,-45.0,-1067.0,-163.0,0.0,-1079.0,14,349.0,83.52,5075.59,-24.0,-80.0,0.0,0,,,100,100,0,1,0,0,0,1,0,,,,,0.0,0.0,0,LSS,930.5046936371042,335.7530359020624,34.82342215295219,-7.825399613844463,-2.4886757882561255,0.0012758006354475447,0
51.520588,5.86514,35.0,0.0,8.23,499.25,35.3,35.3,17.18,781.85,1034104,2020-09-30 09:18:23.605,2020-09-30 11:18:23.605,19,0,0,11.085,51.519566,5.858136,-2.3,-7.9,0.0,-14.5,-6.0,-106.4,0,1,0,39,100,-7388,1426,11085,3091.5,9,WP,1,0,0,0,0,0,0,1601457503604,3685,3688,3679,0,0,0,13,,,,,,,0,0,0,145.0,-60.0,-1064.0,-163.0,0.0,-1079.0,14,350.0,82.28,4992.51,-23.0,-79.0,0.0,0,,,100,100,0,1,0,0,0,1,0,,,,,0.0,0.0,0,LSS,922.5230521689217,333.30389107049007,34.92470774000569,-7.757948773254468,-2.3805053405819714,0.09844696720121646,0
51.520567,5.865026,35.0,0.0,8.16,491.05,35.3,35.3,17.18,781.85,1035109,2020-09-30 09:18:24.610,2020-09-30 11:18:24.610,19,0,0,11.085,51.519566,5.858136,-2.4,-7.8,0.0,-15.0,-5.7,-106.5,0,1,0,39,100,-7388,1426,11085,3091.5,9,WP,1,0,0,0,0,0,0,1601457504609,3685,3688,3679,0,0,0,13,,,,,,,0,0,0,150.0,-57.0,-1065.0,-163.0,0.0,-1079.0,14,350.0,81.61,4910.5,-24.0,-78.0,0.0,0,,,100,100,0,1,0,0,0,1,0,,,,,0.0,0.0,0,LSS,914.6107780520177,330.9660248509453,34.925966711987655,-7.6905255045070176,-2.272345411936974,0.0012236881576315232,0
51.520545,5.864914,35.0,0.0,8.32,482.87,35.3,35.3,17.18,781.85,1036106,2020-09-30 09:18:25.606,2020-09-30 11:18:25.606,19,0,0,11.085,51.519566,5.858136,-2.6,-7.9,0.0,-15.3,-4.1,-106.7,0,1,0,38,100,-7824,1420,11085,3091.5,9,WP,1,0,0,0,0,0,0,1601457505606,3685,3688,3679,0,0,0,13,,,,,,,0,0,0,153.0,-41.0,-1067.0,-163.0,0.0,-1079.0,14,350.0,83.17,4828.72,-26.0,-79.0,0.0,0,,,100,100,0,1,0,0,0,1,0,,,,,0.0,0.0,0,LSS,906.8373358476388,328.51693690526577,34.927201067034986,-7.555584481441094,-2.380450048967605,0.001199761134770412,0
51.520522,5.864799,34.9,0.0,8.38,474.54,35.3,35.3,17.18,781.85,1037107,2020-09-30 09:18:26.607,2020-09-30 11:18:26.607,19,0,0,11.085,51.519566,5.858136,-2.5,-8.0,0.0,-14.3,-4.6,-106.7,0,1,0,38,100,-7824,1420,11085,3091.5,9,WP,1,0,0,0,0,0,0,1601457506607,3685,3688,3679,0,0,0,13,,,,,,,0,0,0,143.0,-46.0,-1067.0,-163.0,0.0,-1079.0,14,349.0,83.82,4745.36,-25.0,-80.0,0.0,0,,,100,100,0,1,0,0,0,1,0,,,,,0.0,0.0,0,LSS,898.8556626642027,325.95656006952163,34.82846000732255,-7.757979599659518,-2.4886199675984044,-0.09597375253193233,0
51.520498,5.864684,34.9,0.0,8.45,466.16,35.3,35.3,17.18,781.85,1038108,2020-09-30 09:18:27.608,2020-09-30 11:18:27.608,18,0,0,11.107,51.519566,5.858136,-2.4,-8.1,0.0,-14.4,-4.5,-107.0,0,1,0,38,100,-7794,1414,11107,3091.5,9,WP,1,0,0,0,0,0,0,1601457507608,3685,3688,3679,0,0,0,13,,,,,,,0,0,0,144.0,-45.0,-1070.0,-163.0,0.0,-1079.0,14,349.0,84.48,4661.62,-24.0,-81.0,0.0,0,,,100,100,0,1,0,0,0,1,0,,,,,0.0,0.0,0,LSS,890.874015134966,323.2849421060781,34.82971359025538,-7.757954664442101,-2.5967434624473036,0.0012184501414541527,0
51.520476,5.864566,34.9,0.0,8.45,457.65,35.3,35.3,17.18,781.85,1039105,2020-09-30 09:18:28.606,2020-09-30 11:18:28.606,18,0,0,11.107,51.519566,5.858136,-2.4,-8.1,0.0,-13.3,-5.9,-106.9,0,1,0,38,100,-7794,1414,11107,3091.5,9,WP,1,0,0,0,0,0,0,1601457508605,3685,3688,3679,0,0,0,13,,,,,,,0,0,0,133.0,-59.0,-1069.0,-163.0,0.0,-1079.0,14,349.0,84.48,4576.47,-24.0,-81.0,0.0,0,,,100,100,0,1,0,0,0,1,0,,,,,0.0,0.0,0,LSS,882.6840912213314,320.8358181719939,34.83097365911274,-7.9603939154758,-2.380485028764836,0.0012247542921042067,0
51.520453,5.864451,35.0,0.0,8.38,449.3,35.3,35.3,17.18,781.85,1040107,2020-09-30 09:18:29.607,2020-09-30 11:18:29.607,18,0,0,11.191,51.519566,5.858136,-2.5,-8.0,0.0,-14.3,-3.3,-106.4,0,1,0,38,100,-7704,1412,11191,3091.5,9,WP,1,0,0,0,0,0,0,1601457509607,3685,3688,3679,0,0,0,13,,,,,,,0,0,0,143.0,-33.0,-1064.0,-163.0,0.0,-1079.0,14,350.0,83.82,4493.05,-25.0,-80.0,0.0,0,,,100,100,0,1,0,0,0,1,0,,,,,0.0,0.0,0,LSS,874.702421671763,318.2754894612562,34.93219935017521,-7.75797606763427,-2.4885731913386206,0.09838874984931208,0
51.52043,5.864335,35.0,0.0,8.48,440.85,35.3,35.3,17.18,781.85,1041106,2020-09-30 09:18:30.607,2020-09-30 11:18:30.607,18,0,0,11.191,51.519566,5.858136,-2.5,-8.1,0.0,-11.6,-4.3,-106.6,0,1,0,38,100,-7704,1412,11191,3091.5,9,WP,1,0,0,0,0,0,0,1601457510606,3685,3688,3679,0,0,0,13,,,,,,,0,0,0,116.0,-43.0,-1066.0,-163.0,0.0,-1078.0,14,350.0,84.77,4408.51,-25.0,-81.0,0.0,0,,,100,100,0,1,0,0,0,1,0,,,,,0.0,0.0,0,LSS,866.6513204226901,315.71515642418035,34.93342345881652,-7.825461881190622,-2.488577396427266,0.0011898018935123061,0
51.520406,5.864218,34.8,0.0,8.38,432.35,35.3,35.3,17.18,781.85,1042107,2020-09-30 09:18:31.607,2020-09-30 11:18:31.607,18,0,0,11.212,51.519566,5.858136,-2.5,-8.0,0.0,-11.9,-2.2,-106.9,0,1,0,38,100,-7176,1405,11212,3091.5,9,WP,1,0,0,0,0,0,0,1601457511607,3685,3688,3679,0,0,0,13,,,,,,,0,0,0,119.0,-22.0,-1069.0,-163.0,0.0,-1078.0,14,348.0,83.82,4323.55,-25.0,-80.0,0.0,0,,,100,100,0,1,0,0,0,1,0,,,,,0.0,0.0,0,LSS,858.530793116933,313.0435557738623,34.734651185879216,-7.8929422100719355,-2.5967266345377924,-0.1932015008614652,0
51.520383,5.864101,34.8,0.0,8.48,423.86,35.3,35.3,17.18,781.85,1043106,2020-09-30 09:18:32.607,2020-09-30 11:18:32.607,18,0,0,11.212,51.519566,5.858136,-2.5,-8.1,0.0,-11.4,-2.0,-106.7,0,1,0,38,100,-7176,1405,11212,3091.5,9,WP,1,0,0,0,0,0,0,1601457512606,3684,3687,3677,0,0,0,13,,,,,,,0,0,0,114.0,-20.0,-1067.0,-163.0,0.0,-1077.0,14,348.0,84.77,4238.63,-25.0,-81.0,0.0,0,,,100,100,0,1,0,0,0,1,0,,,,,0.0,0.0,0,LSS,850.4102657654144,310.48323684691917,34.73586205890848,-7.892942254550883,-2.488563681743727,0.0011769372214227543,0
51.52036,5.863985,34.9,0.0,8.48,415.44,35.3,35.3,17.18,781.85,1044107,2020-09-30 09:18:33.608,2020-09-30 11:18:33.608,18,0,0,11.128,51.519566,5.858136,-2.5,-8.1,0.0,-10.8,-1.4,-107.0,0,1,0,38,100,-7536,1403,11128,3091.5,9,WP,1,0,0,0,0,0,0,1601457513607,3684,3687,3677,0,0,0,13,,,,,,,0,0,0,108.0,-14.0,-1070.0,-163.0,0.0,-1076.0,14,349.0,84.77,4154.41,-25.0,-81.0,0.0,0,,,100,100,0,1,0,0,0,1,0,,,,,0.0,0.0,0,LSS,842.3591533566829,307.9229472488352,34.837052437980134,-7.825472728089717,-2.4885351748522644,0.09835442750886253,0
51.520337,5.863868,34.8,0.0,8.42,407.01,35.3,35.3,17.18,781.85,1045103,2020-09-30 09:18:34.603,2020-09-30 11:18:34.603,19,0,0,11.128,51.519566,5.858136,-2.3,-8.1,0.0,-10.5,-2.3,-106.8,0,1,0,38,100,-7536,1403,11128,3091.5,9,WP,1,0,0,0,0,0,0,1601457514603,3684,3687,3677,0,0,0,13,,,,,,,0,0,0,105.0,-23.0,-1068.0,-163.0,0.0,-1076.0,14,348.0,84.2,4070.08,-23.0,-81.0,0.0,0,,,100,100,0,1,0,0,0,1,0,,,,,0.0,0.0,0,LSS,834.2385964905573,305.3626493608207,34.73824070824935,-7.892970941984459,-2.4885432324500663,-0.0960424419593285,0
51.520315,5.863752,34.9,0.0,8.26,398.62,35.3,35.3,17.18,781.85,1046119,2020-09-30 09:18:35.619,2020-09-30 11:18:35.620,19,0,0,11.085,51.519566,5.858136,-2.4,-7.9,0.0,-11.5,-2.3,-106.8,0,1,0,38,100,-6874,1397,11085,3091.5,9,WP,1,0,0,0,0,0,0,1601457515619,3684,3687,3677,0,0,0,13,,,,,,,0,0,0,115.0,-23.0,-1068.0,-163.0,0.0,-1075.0,14,349.0,82.57,3986.16,-24.0,-79.0,0.0,0,,,100,100,0,1,0,0,0,1,0,,,,,0.0,0.0,0,LSS,826.1874494698742,302.9136441599672,34.83940337686826,-7.825506370010187,-2.3803696231398765,0.09832749366653101,0
51.520293,5.863637,35.0,0.0,8.35,390.27,35.3,35.3,17.18,781.85,1047109,2020-09-30 09:18:36.610,2020-09-30 11:18:36.610,19,0,0,11.085,51.519566,5.858136,-2.4,-8.0,0.0,-11.7,-2.9,-107.3,0,1,0,38,100,-6874,1397,11085,3091.5,9,WP,1,0,0,0,0,0,0,1601457516609,3684,3687,3677,0,0,0,13,,,,,,,0,0,0,117.0,-29.0,-1073.0,-163.0,0.0,-1075.0,14,350.0,83.52,3902.73,-24.0,-80.0,0.0,0,,,100,100,0,1,0,0,0,1,0,,,,,0.0,0.0,0,LSS,818.2057044869941,300.46466282889,34.940546075956405,-7.758049386859356,-2.3803464223355406,0.0983080837998581,0
51.520271,5.863522,34.9,0.0,8.38,381.97,35.3,35.3,17.18,781.85,1048108,2020-09-30 09:18:37.609,2020-09-30 11:18:37.609,19,0,0,11.043,51.519566,5.858136,-2.5,-8.0,0.0,-12.5,-2.4,-106.9,0,1,0,38,100,-7776,1393,11043,3091.5,9,WP,1,0,0,0,0,0,0,1601457517608,3684,3687,3677,0,0,0,13,,,,,,,0,0,0,125.0,-24.0,-1069.0,-163.0,0.0,-1076.0,14,349.0,83.82,3819.66,-25.0,-80.0,0.0,0,,,100,100,0,1,0,0,0,1,0,,,,,0.0,0.0,0,LSS,810.2239262051971,298.0156846205427,34.84167786756092,-7.758081752544148,-2.3803433871230357,-0.09609733775855682,0
51.520248,5.863407,34.9,0.0,8.35,373.65,35.3,35.3,17.18,781.85,1049109,2020-09-30 09:18:38.609,2020-09-30 11:18:38.610,19,0,0,11.043,51.519566,5.858136,-2.4,-8.0,0.0,-12.6,-1.9,-106.9,0,1,0,38,100,-7776,1393,11043,3091.5,9,WP,1,0,0,0,0,0,0,1601457518609,3684,3687,3677,0,0,0,13,,,,,,,0,0,0,126.0,-19.0,-1069.0,-163.0,0.0,-1075.0,14,349.0,83.52,3736.5,-24.0,-80.0,0.0,0,,,100,100,0,1,0,0,0,1,0,,,,,0.0,0.0,0,LSS,802.2421705995615,295.45546484644916,34.84280390644585,-7.758059711902613,-2.48846730774209,0.0010944806304356949,0
51.520225,5.863291,35.0,0.0,8.38,365.21,35.3,35.3,17.18,781.85,1050110,2020-09-30 09:18:39.611,2020-09-30 11:18:39.611,19,0,0,11.17,51.519566,5.858136,-2.5,-8.0,0.0,-12.1,-1.4,-106.6,0,1,0,38,100,-7876,1391,11170,3091.5,9,WP,1,0,0,0,0,0,0,1601457519610,3684,3687,3677,0,0,0,13,,,,,,,0,0,0,121.0,-14.0,-1066.0,-163.0,0.0,-1075.0,14,350.0,83.82,3652.11,-25.0,-80.0,0.0,0,,,100,100,0,1,0,0,0,1,0,,,,,0.0,0.0,0,LSS,794.1910092210165,292.8952513670449,34.94392757405629,-7.825520325480083,-2.4884611894671442,0.09828958569646556,0
51.520204,5.863175,35.0,0.0,8.32,356.88,35.3,35.3,17.18,781.85,1051109,2020-09-30 09:18:40.610,2020-09-30 11:18:40.610,19,0,0,11.17,51.519566,5.858136,-2.3,-8.0,0.0,-13.1,-3.7,-107.0,0,1,0,38,100,-7876,1391,11170,3091.5,9,WP,1,0,0,0,0,0,0,1601457520609,3684,3687,3677,0,0,0,13,,,,,,,0,0,0,131.0,-37.0,-1070.0,-163.0,0.0,-1075.0,14,350.0,83.24,3568.84,-23.0,-80.0,0.0,0,,,100,100,0,1,0,0,0,1,0,,,,,0.0,0.0,0,LSS,786.1397927417314,290.5575636776863,34.94502993893656,-7.82557388197234,-2.2721718852201924,0.0010714701110846982,0
51.52018,5.86305,35.0,0.0,8.16,347.81,35.3,35.3,17.18,781.85,1052215,2020-09-30 09:18:41.715,2020-09-30 11:18:41.715,19,0,0,11.149,51.519566,5.858136,-2.4,-7.8,0.0,-11.0,-2.9,-107.1,0,1,0,38,100,-7386,1385,11149,3091.5,9,WP,1,0,0,0,0,0,0,1601457521715,3684,3687,3677,0,0,0,13,,,,,,,0,0,0,110.0,-29.0,-1071.0,-163.0,0.0,-1076.0,14,350.0,81.61,3478.1,-24.0,-78.0,0.0,0,,,100,100,0,1,0,0,0,1,0,,,,,0.0,0.0,0,LSS,777.4639279595216,287.88601663661973,34.94621240598083,-8.432715853295894,-2.5966745277338816,0.0011493273397588863,0
51.520159,5.862938,35.0,0.0,7.94,339.78,35.3,35.3,17.18,781.85,1053214,2020-09-30 09:18:42.714,2020-09-30 11:18:42.714,19,0,0,11.149,51.519566,5.858136,-2.3,-7.6,0.0,-14.7,-3.4,-106.9,0,1,0,38,100,-7386,1385,11149,3091.5,9,WP,1,0,0,0,0,0,0,1601457522714,3684,3687,3677,0,0,0,13,,,,,,,0,0,0,147.0,-34.0,-1069.0,-163.0,0.0,-1076.0,14,350.0,79.4,3397.78,-23.0,-76.0,0.0,0,,,100,100,0,1,0,0,0,1,0,,,,,0.0,0.0,0,LSS,769.6903368684497,285.5483975295263,34.94725843095635,-7.555729195450307,-2.2721052250347644,0.0010167091829417004,0
51.520137,5.862827,35.0,0.0,8.16,331.7,35.3,35.3,17.18,781.85,1054213,2020-09-30 09:18:43.714,2020-09-30 11:18:43.714,19,0,0,11.022,51.519566,5.858136,-2.4,-7.8,0.1,-14.9,-3.3,-107.0,0,1,0,37,100,-7912,1383,11022,3091.5,9,WP,1,0,0,0,0,0,0,1601457523713,3678,3682,3673,0,0,0,13,,,,,,,0,0,0,149.0,-33.0,-1070.0,-163.0,0.0,-1076.0,14,350.0,81.61,3316.96,-24.0,-78.0,1.0,0,,,100,100,0,1,0,0,0,1,0,,,,,0.0,0.0,0,LSS,761.9861655995369,283.09954191012434,34.94829080900553,-7.488254926365938,-2.3802242338433293,0.001003444724002661,0
51.520113,5.862709,35.0,0.0,8.16,323.22,35.3,35.3,17.18,781.85,1055254,2020-09-30 09:18:44.755,2020-09-30 11:18:44.755,19,0,0,11.022,51.519566,5.858136,-2.4,-7.8,0.0,-13.5,-2.4,-106.9,0,1,0,37,100,-7912,1383,11022,3091.5,9,WP,1,0,0,0,0,0,0,1601457524754,3678,3682,3673,0,0,0,13,,,,,,,0,0,0,135.0,-24.0,-1069.0,-163.0,0.0,-1076.0,14,350.0,81.61,3232.18,-24.0,-78.0,0.0,0,,,100,100,0,1,0,0,0,1,0,,,,,0.0,0.0,0,LSS,753.7961476605321,280.4281082134927,34.94938007536902,-7.960485305700187,-2.596564359878904,0.0010587386920468994,0
51.52009,5.86259,35.0,0.0,8.16,314.56,35.3,35.3,17.18,781.85,1056318,2020-09-30 09:18:45.819,2020-09-30 11:18:45.819,19,0,0,11.107,51.519566,5.858136,-2.4,-7.8,0.0,-10.4,-2.9,-107.0,0,1,0,37,100,-7948,1374,11107,3091.5,9,WP,1,0,0,0,0,0,0,1601457525818,3678,3682,3673,0,0,0,13,,,,,,,0,0,0,104.0,-29.0,-1070.0,-163.0,0.0,-1076.0,14,350.0,81.61,3145.57,-24.0,-78.0,0.0,0,,,100,100,0,1,0,0,0,1,0,,,,,0.0,0.0,0,LSS,745.5366944184339,277.8679363729296,34.950460977711984,-8.027974621851813,-2.488420717592051,0.0010506090807292391,0
51.520067,5.862473,35.1,0.0,8.04,306.13,35.3,35.3,17.18,781.85,1057354,2020-09-30 09:18:46.855,2020-09-30 11:18:46.855,19,0,0,11.107,51.519566,5.858136,-2.3,-7.7,0.0,-11.6,-2.7,-106.7,0,1,0,37,100,-7948,1374,11107,3091.5,9,WP,1,0,0,0,0,0,0,1601457526854,3678,3682,3673,0,0,0,13,,,,,,,0,0,0,116.0,-27.0,-1067.0,-163.0,0.0,-1076.0,14,351.0,80.36,3061.27,-23.0,-77.0,0.0,0,,,100,100,0,1,0,0,0,1,0,,,,,0.0,0.0,0,LSS,737.4160651812158,275.30780243412664,35.0515141619325,-7.893041284811791,-2.4883838780628835,0.09822107766706605,0
51.520046,5.862361,35.1,0.0,8.26,298.04,35.3,35.3,17.18,781.85,1058355,2020-09-30 09:18:47.856,2020-09-30 11:18:47.856,19,0,0,11.107,51.519566,5.858136,-2.4,-7.9,0.0,-11.6,-3.3,-107.2,0,1,0,37,100,-7220,1372,11107,3091.5,9,WP,1,0,0,0,0,0,0,1601457527855,3678,3682,3673,0,0,0,13,,,,,,,0,0,0,116.0,-33.0,-1072.0,-163.0,0.0,-1076.0,14,351.0,82.57,2980.39,-24.0,-79.0,0.0,0,,,100,100,0,1,0,0,0,1,0,,,,,0.0,0.0,0,LSS,729.6424362953501,272.97024461488763,35.052506866365846,-7.555765931010949,-2.272045654827707,0.0009648829970080311,0
51.520021,5.862239,35.0,0.0,8.04,289.22,35.3,35.3,17.18,781.85,1059426,2020-09-30 09:18:48.926,2020-09-30 11:18:48.926,19,0,0,11.107,51.519566,5.858136,-2.3,-7.7,0.0,-9.9,-2.7,-107.0,0,1,0,37,100,-7220,1372,11107,3091.5,9,WP,1,0,0,0,0,0,0,1601457528926,3678,3682,3673,0,0,0,13,,,,,,,0,0,0,99.0,-27.0,-1070.0,-163.0,0.0,-1076.0,14,350.0,80.36,2892.22,-23.0,-77.0,0.0,0,,,100,100,0,1,0,0,0,1,0,,,,,0.0,0.0,0,LSS,721.1747475401562,270.18756057400003,34.95358649428074,-8.230374147038177,-2.704696812982077,-0.09614803951376387,0
51.52,5.862129,34.9,0.0,7.72,281.33,35.3,35.3,17.18,781.85,1060458,2020-09-30 09:18:49.959,2020-09-30 11:18:49.959,19,0,0,11.17,51.519566,5.858136,-2.2,-7.4,0.0,-15.2,-2.2,-107.0,0,1,0,37,100,-7280,1366,11170,3091.5,9,WP,1,0,0,0,0,0,0,1601457529958,3678,3682,3673,0,0,0,13,,,,,,,0,0,0,152.0,-22.0,-1070.0,-163.0,0.0,-1076.0,14,349.0,77.2,2813.28,-22.0,-74.0,0.0,0,,,100,100,0,1,0,0,0,1,0,,,,,0.0,0.0,0,LSS,713.5399132996482,267.85004295471754,34.85454207207941,-7.420861130666351,-2.2720065815112,-0.09626861301369406,0
51.51998,5.862019,35.0,0.0,8.13,273.39,35.3,35.3,17.18,781.85,1061457,2020-09-30 09:18:50.958,2020-09-30 11:18:50.958,19,0,0,11.17,51.519566,5.858136,-2.3,-7.8,0.0,-15.5,-4.5,-106.8,0,1,0,37,100,-7280,1366,11170,3091.5,9,WP,1,0,0,0,0,0,0,1601457530957,3678,3682,3673,0,0,0,13,,,,,,,0,0,0,155.0,-45.0,-1068.0,-163.0,0.0,-1076.0,14,350.0,81.32,2733.9,-23.0,-78.0,0.0,0,,,100,100,0,1,0,0,0,1,0,,,,,0.0,0.0,0,LSS,705.9050789022906,265.6238040442497,34.95548303636825,-7.420861283120136,-2.16384655879163,0.09811200280010049,0
51.519957,5.861904,35.0,0.0,8.13,265.12,35.3,35.3,17.18,781.85,1062489,2020-09-30 09:18:51.990,2020-09-30 11:18:51.990,19,0,0,11.043,51.519566,5.858136,-2.3,-7.8,0.0,-15.1,-3.9,-106.8,0,1,0,37,100,-7024,1362,11043,3091.5,9,WP,1,0,0,0,0,0,0,1601457531989,3678,3682,3673,0,0,0,13,,,,,,,0,0,0,151.0,-39.0,-1068.0,-163.0,0.0,-1077.0,14,350.0,81.32,2651.24,-23.0,-78.0,0.0,0,,,100,100,0,1,0,0,0,1,0,,,,,0.0,0.0,0,LSS,697.9232197107837,263.0637482537324,34.95646579256233,-7.758160394686549,-2.4883079199533746,0.0009552135661114701,0
51.519933,5.861785,34.9,0.0,8.04,256.55,35.3,35.3,17.18,781.85,1063558,2020-09-30 09:18:53.059,2020-09-30 11:18:53.059,18,0,0,11.043,51.519566,5.858136,-2.3,-7.7,0.0,-14.3,-3.3,-106.7,0,1,0,37,100,-7024,1362,11043,3091.5,9,WP,1,0,0,0,0,0,0,1601457533058,3678,3682,3673,0,0,0,13,,,,,,,0,0,0,143.0,-33.0,-1067.0,-163.0,0.0,-1077.0,14,349.0,80.36,2565.48,-23.0,-77.0,0.0,0,,,100,100,0,1,0,0,0,1,0,,,,,0.0,0.0,0,LSS,689.6637143956852,260.3924044082305,34.85747206327353,-8.028025235459179,-2.5964770269080284,-0.09621934081571276,0
51.519911,5.86167,35.0,0.0,8.07,248.27,35.3,35.3,17.18,781.85,1064590,2020-09-30 09:18:54.091,2020-09-30 11:18:54.091,19,0,0,11.212,51.519566,5.858136,-2.4,-7.7,0.0,-14.6,-3.5,-106.8,0,1,0,37,100,-7596,1360,11212,3091.5,9,WP,1,0,0,0,0,0,0,1601457534090,3678,3682,3673,0,0,0,13,,,,,,,0,0,0,146.0,-35.0,-1068.0,-163.0,0.0,-1077.0,14,350.0,80.65,2482.66,-24.0,-77.0,0.0,0,,,100,100,0,1,0,0,0,1,0,,,,,0.0,0.0,0,LSS,681.6818346623525,257.94363706222686,34.95842793649517,-7.758180360809217,-2.3801384343865473,0.09812649389662106,0
51.519889,5.861558,35.1,0.0,8.26,240.19,35.3,35.3,17.18,781.85,1065587,2020-09-30 09:18:55.088,2020-09-30 11:18:55.088,19,0,0,11.128,51.519566,5.858136,-2.4,-7.9,0.0,-13.9,-3.3,-107.1,0,1,0,37,100,-8150,1353,11128,3091.5,9,WP,1,0,0,0,0,0,0,1601457535087,3674,3678,3666,0,0,0,13,,,,,,,0,0,0,139.0,-33.0,-1071.0,-163.0,0.0,-1077.0,14,351.0,82.57,2401.85,-24.0,-79.0,0.0,0,,,100,100,0,1,0,0,0,1,0,,,,,0.0,0.0,0,LSS,673.908178987776,255.4949098072767,35.059350945329854,-7.555791968943972,-2.380099466920944,0.0980945505637294,0
51.519866,5.861436,35.0,0.0,8.26,231.48,35.3,35.3,17.18,781.85,1066658,2020-09-30 09:18:56.158,2020-09-30 11:18:56.158,19,0,0,11.128,51.519566,5.858136,-2.4,-7.9,0.1,-12.4,-3.4,-107.1,0,1,0,37,100,-8150,1353,11128,3091.5,9,WP,1,0,0,0,0,0,0,1601457536158,3674,3678,3666,0,0,0,13,,,,,,,0,0,0,124.0,-34.0,-1071.0,-163.0,0.0,-1077.0,14,350.0,82.57,2314.8,-24.0,-79.0,1.0,0,,,100,100,0,1,0,0,0,1,0,,,,,0.0,0.0,0,LSS,665.4404023037973,252.93483665546182,34.960340283606456,-8.230459611539498,-2.4883247946849445,-0.09623579870357868,0
51.519843,5.861322,34.9,0.0,8.04,223.24,35.3,35.3,17.18,781.85,1067690,2020-09-30 09:18:57.191,2020-09-30 11:18:57.191,19,0,0,11.043,51.519566,5.858136,-2.3,-7.7,0.0,-14.0,-4.0,-106.9,0,1,0,37,100,-7370,1351,11043,3091.5,9,WP,1,0,0,0,0,0,0,1601457537190,3674,3678,3666,0,0,0,13,,,,,,,0,0,0,140.0,-40.0,-1069.0,-163.0,0.0,-1077.0,14,349.0,80.36,2232.37,-23.0,-77.0,0.0,0,,,100,100,0,1,0,0,0,1,0,,,,,0.0,0.0,0,LSS,657.5279032346112,250.37484954459043,34.86126026959508,-7.690744152298702,-2.4882411651164227,-0.09630320733119013,0
51.519821,5.86121,35.0,0.0,8.16,215.22,35.3,35.3,17.18,781.85,1068693,2020-09-30 09:18:58.193,2020-09-30 11:18:58.194,19,0,0,11.043,51.519566,5.858136,-2.4,-7.8,0.0,-14.7,-2.7,-106.9,0,1,0,37,100,-7370,1351,11043,3091.5,9,WP,1,0,0,0,0,0,0,1601457538193,3674,3678,3666,0,0,0,13,,,,,,,0,0,0,147.0,-27.0,-1069.0,-163.0,0.0,-1077.0,14,350.0,81.61,2152.22,-24.0,-78.0,0.0,0,,,100,100,0,1,0,0,0,1,0,,,,,0.0,0.0,0,LSS,649.7542240802703,247.92615919536658,34.962150993817076,-7.555814790666838,-2.3800635955108915,0.09806317075640737,0
51.519798,5.861091,35.0,0.0,8.26,206.72,35.3,35.3,17.18,781.85,1069729,2020-09-30 09:18:59.230,2020-09-30 11:18:59.230,18,0,0,11.085,51.519566,5.858136,-2.4,-7.9,0.0,-12.6,-2.6,-106.8,0,1,0,36,100,-7738,1343,11085,3091.5,9,WP,1,0,0,0,0,0,0,1601457539229,3674,3678,3666,0,0,0,13,,,,,,,0,0,0,126.0,-26.0,-1068.0,-163.0,0.0,-1077.0,14,350.0,82.57,2067.25,-24.0,-79.0,0.0,0,,,100,100,0,1,0,0,0,1,0,,,,,0.0,0.0,0,LSS,641.4946655688648,245.36615662894908,34.96308439472487,-8.028076940891868,-2.4882561875069205,0.0009072415062074901,0
51.519774,5.860971,35.0,0.0,7.97,198.14,35.3,35.3,17.18,781.85,1070795,2020-09-30 09:19:00.295,2020-09-30 11:19:00.296,18,0,0,11.085,51.519566,5.858136,-2.4,-7.6,0.0,-11.7,-1.8,-106.6,0,1,0,36,100,-7738,1343,11085,3091.5,9,WP,1,0,0,0,0,0,0,1601457540295,3674,3678,3666,0,0,0,13,,,,,,,0,0,0,117.0,-18.0,-1066.0,-163.0,0.0,-1076.0,14,350.0,79.7,1981.42,-24.0,-76.0,0.0,0,,,100,100,0,1,0,0,0,1,0,,,,,0.0,0.0,0,LSS,633.1657017599048,242.69490002724064,34.9640172050687,-8.095537092436679,-2.596392228200516,0.0009066674933239161,0
51.519752,5.860856,35.0,0.0,8.07,189.94,35.3,35.3,17.18,781.85,1071826,2020-09-30 09:19:01.327,2020-09-30 11:19:01.327,18,0,0,11.17,51.519566,5.858136,-2.4,-7.7,0.0,-12.4,-2.2,-106.7,0,1,0,36,100,-7220,1341,11170,3091.5,9,WP,1,0,0,0,0,0,0,1601457541326,3674,3678,3666,0,0,0,13,,,,,,,0,0,0,124.0,-22.0,-1067.0,-163.0,0.0,-1076.0,14,350.0,80.65,1899.43,-24.0,-77.0,0.0,0,,,100,100,0,1,0,0,0,1,0,,,,,0.0,0.0,0,LSS,625.1837561991558,240.24621742912348,34.96489572291867,-7.758244343352722,-2.380056061635948,0.0008538965955336669,0
51.519729,5.860745,35.0,0.0,8.16,181.98,35.3,35.3,17.18,781.85,1072831,2020-09-30 09:19:02.332,2020-09-30 11:19:02.332,18,0,0,11.17,51.519566,5.858136,-2.4,-7.8,0.0,-13.1,-0.7,-106.7,0,1,0,36,100,-7220,1341,11170,3091.5,9,WP,1,0,0,0,0,0,0,1601457542331,3674,3678,3666,0,0,0,13,,,,,,,0,0,0,131.0,-7.0,-1067.0,-163.0,0.0,-1075.0,14,350.0,81.61,1819.84,-24.0,-78.0,0.0,0,,,100,100,0,1,0,0,0,1,0,,,,,0.0,0.0,0,LSS,617.4794601006367,237.6863222976761,34.96574066123527,-7.488376257510036,-2.488151763498656,0.000821258158851492,0
51.519706,5.860626,35.0,0.0,8.29,173.55,35.3,35.3,17.18,781.85,1073866,2020-09-30 09:19:03.367,2020-09-30 11:19:03.367,18,0,0,11.043,51.519566,5.858136,-2.5,-7.9,0.0,-11.7,-0.3,-106.8,0,1,0,36,100,-7228,1335,11043,3091.5,9,WP,1,0,0,0,0,0,0,1601457543366,3674,3678,3666,0,0,0,13,,,,,,,0,0,0,117.0,-3.0,-1068.0,-163.0,0.0,-1074.0,14,350.0,82.86,1735.45,-25.0,-79.0,0.0,0,,,100,100,0,1,0,0,0,1,0,,,,,0.0,0.0,0,LSS,609.2198686783565,235.12637224240285,34.96662824080545,-8.028108929409612,-2.488205148034812,0.0008627043528649808,0
51.519683,5.86051,35.0,0.0,7.75,165.31,35.3,35.3,17.18,781.85,1074942,2020-09-30 09:19:04.443,2020-09-30 11:19:04.443,18,0,0,11.043,51.519566,5.858136,-2.3,-7.4,0.0,-11.1,0.2,-107.2,0,1,0,36,100,-7228,1335,11043,3091.5,9,WP,1,0,0,0,0,0,0,1601457544442,3674,3678,3666,0,0,0,13,,,,,,,0,0,0,111.0,2.0,-1072.0,-163.0,0.0,-1074.0,14,350.0,77.49,1653.14,-23.0,-74.0,0.0,0,,,100,100,0,1,0,0,0,1,0,,,,,0.0,0.0,0,LSS,601.1685018721744,232.56646026126967,34.967484534318714,-7.82571999582261,-2.4881681409568337,0.0008322951158941891,0
51.519662,5.8604,34.9,0.0,8.04,157.53,35.3,35.3,17.18,781.85,1075930,2020-09-30 09:19:05.431,2020-09-30 11:19:05.431,18,0,0,11.17,51.519566,5.858136,-2.3,-7.7,0.0,-14.0,-1.6,-107.1,0,1,0,36,100,-6962,1330,11170,3091.5,9,WP,1,0,0,0,0,0,0,1601457545430,3682,3685,3677,0,0,0,13,,,,,,,0,0,0,140.0,-16.0,-1071.0,-163.0,0.0,-1074.0,14,349.0,80.36,1575.25,-23.0,-77.0,0.0,0,,,100,100,0,1,0,0,0,1,0,,,,,0.0,0.0,0,LSS,593.5335577582479,230.22912371192163,34.86828296611027,-7.420967924783306,-2.271830586224831,-0.09642135486234206,0
51.51964,5.860285,34.9,0.0,8.04,149.36,35.3,35.3,17.18,781.85,1076972,2020-09-30 09:19:06.472,2020-09-30 11:19:06.472,18,0,0,11.17,51.519566,5.858136,-2.3,-7.7,0.0,-14.2,-1.5,-107.2,0,1,0,36,100,-6962,1330,11170,3091.5,9,WP,1,0,0,0,0,0,0,1601457546472,3682,3685,3677,0,0,0,13,,,,,,,0,0,0,142.0,-15.0,-1072.0,-163.0,0.0,-1074.0,14,349.0,80.36,1493.56,-23.0,-77.0,0.0,0,,,100,100,0,1,0,0,0,1,0,,,,,0.0,0.0,0,LSS,585.5515736350434,227.78050346543267,34.869107201193515,-7.758281825060684,-2.3799954574683158,0.0008011351522629036,0
51.519617,5.860167,35.0,0.0,8.13,141.05,35.3,35.3,17.18,781.85,1078031,2020-09-30 09:19:07.531,2020-09-30 11:19:07.531,18,0,0,11.064,51.519566,5.858136,-2.3,-7.8,0.0,-12.5,-2.2,-107.1,0,1,0,36,100,-7274,1328,11064,3091.5,9,WP,1,0,0,0,0,0,0,1601457547531,3682,3685,3677,0,0,0,13,,,,,,,0,0,0,125.0,-22.0,-1071.0,-163.0,0.0,-1074.0,14,350.0,81.32,1410.48,-23.0,-78.0,0.0,0,,,100,100,0,1,0,0,0,1,0,,,,,0.0,0.0,0,LSS,577.3613702621656,225.2206168161959,34.96994327155443,-7.960665542621859,-2.488143519009649,0.09801004861903163,0
51.519595,5.860051,35.0,0.0,8.13,132.96,35.3,35.3,17.18,781.85,1079067,2020-09-30 09:19:08.568,2020-09-30 11:19:08.568,19,0,0,11.064,51.519566,5.858136,-2.3,-7.8,0.0,-13.0,-2.3,-107.2,0,1,0,36,100,-7274,1328,11064,3091.5,9,WP,1,0,0,0,0,0,0,1601457548567,3682,3685,3677,0,0,0,13,,,,,,,0,0,0,130.0,-23.0,-1072.0,-163.0,0.0,-1074.0,14,350.0,81.32,1329.57,-23.0,-78.0,0.0,0,,,100,100,0,1,0,0,0,1,0,,,,,0.0,0.0,0,LSS,569.309959236829,222.77201418114802,34.97075156980567,-7.825762975695418,-2.3799783396037424,0.0007856449643415751,0
51.519573,5.859939,35.0,0.0,8.16,125.15,35.3,35.3,17.18,781.85,1080070,2020-09-30 09:19:09.570,2020-09-30 11:19:09.570,19,0,0,11.043,51.519566,5.858136,-2.4,-7.8,0.0,-14.0,-1.4,-106.9,0,1,0,36,100,-7536,1322,11043,3091.5,9,WP,1,0,0,0,0,0,0,1601457549570,3682,3685,3677,0,0,0,13,,,,,,,0,0,0,140.0,-14.0,-1069.0,-163.0,0.0,-1075.0,14,350.0,81.61,1251.48,-24.0,-78.0,0.0,0,,,100,100,0,1,0,0,0,1,0,,,,,0.0,0.0,0,LSS,561.5361850393381,220.32345499470182,34.971524395314816,-7.555907170146852,-2.3799361086882858,0.0007511663778073396,0
51.51955,5.859826,35.0,0.0,8.16,117.33,35.3,35.3,17.18,781.85,1081077,2020-09-30 09:19:10.578,2020-09-30 11:19:10.578,19,0,0,11.043,51.519566,5.858136,-2.4,-7.8,0.0,-14.9,-0.7,-107.3,0,1,0,36,100,-7536,1322,11043,3091.5,9,WP,1,0,0,0,0,0,0,1601457550577,3682,3685,3677,0,0,0,13,,,,,,,0,0,0,149.0,-7.0,-1073.0,-163.0,0.0,-1074.0,14,350.0,81.61,1173.3,-24.0,-78.0,0.0,0,,,100,100,0,1,0,0,0,1,0,,,,,0.0,0.0,0,LSS,553.6930042937977,217.7636413296956,34.97229663998665,-7.623368537140485,-2.488072580227939,0.0007506018189874361,0
51.519526,5.859703,35.0,0.0,8.04,108.83,35.3,35.3,17.18,781.85,1082174,2020-09-30 09:19:11.675,2020-09-30 11:19:11.675,19,0,0,11.17,51.519566,5.858136,-2.3,-7.7,0.0,-11.8,-0.3,-107.3,0,1,0,36,100,-7642,1320,11170,3091.5,9,WP,1,0,0,0,0,0,0,1601457551674,3682,3685,3677,0,0,0,13,,,,,,,0,0,0,118.0,-3.0,-1073.0,-163.0,0.0,-1074.0,14,350.0,80.36,1088.29,-23.0,-77.0,0.0,0,,,100,100,0,1,0,0,0,1,0,,,,,0.0,0.0,0,LSS,545.1557154109871,215.09250643657433,34.97312123210885,-8.29802366835716,-2.5962739306061646,0.000801482184881015,0
51.519504,5.85959,35.0,0.0,8.23,101.16,35.3,35.3,17.18,781.85,1083171,2020-09-30 09:19:12.671,2020-09-30 11:19:12.671,19,0,0,11.17,51.519566,5.858136,-2.3,-7.9,0.0,-12.7,-0.7,-107.0,0,1,0,36,100,-7642,1320,11170,3091.5,9,WP,1,0,0,0,0,0,0,1601457552671,3682,3685,3677,0,0,0,13,,,,,,,0,0,0,127.0,-7.0,-1070.0,-163.0,0.0,-1074.0,14,350.0,82.28,1011.57,-23.0,-79.0,0.0,0,,,100,100,0,1,0,0,0,1,0,,,,,0.0,0.0,0,LSS,537.3125065692316,212.643976897293,34.97386756688233,-7.623395845933882,-2.3799072924119327,0.0007254180688831183,0
51.519482,5.859471,35.1,0.0,8.16,93.16,35.3,35.3,17.18,781.85,1084209,2020-09-30 09:19:13.710,2020-09-30 11:19:13.710,19,0,0,11.043,51.519566,5.858136,-2.4,-7.8,0.0,-10.5,-0.7,-107.2,0,1,0,36,100,-7074,1314,11043,3091.5,9,WP,1,0,0,0,0,0,0,1601457553709,3682,3685,3677,0,0,0,13,,,,,,,0,0,0,105.0,-7.0,-1072.0,-163.0,0.0,-1074.0,14,351.0,81.61,931.58,-24.0,-78.0,0.0,0,,,100,100,0,1,0,0,0,1,0,,,,,0.0,0.0,0,LSS,529.0528307310407,210.19541938662496,35.07463782383607,-8.028190979488334,-2.3799344798753,0.09794607969190093,0
51.519458,5.859352,35.0,0.0,8.04,85.25,35.3,35.3,17.18,781.85,1085279,2020-09-30 09:19:14.779,2020-09-30 11:19:14.779,19,0,0,11.043,51.519566,5.858136,-2.3,-7.7,0.0,-3.8,-0.2,-107.2,0,1,0,36,100,-7074,1314,11043,3091.5,9,WP,1,0,0,0,0,0,0,1601457554779,3682,3685,3677,0,0,0,13,,,,,,,0,0,0,38.0,-2.0,-1072.0,-163.0,0.0,-1074.0,14,350.0,80.36,852.46,-23.0,-77.0,0.0,0,,,100,100,0,1,0,0,0,1,0,,,,,0.0,0.0,0,LSS,520.7931531864436,207.52435108803903,34.97540371367984,-8.02819263807089,-2.5962092024427035,-0.0964529847927185,0
51.519436,5.859238,35.0,0.0,7.91,77.81,35.3,35.3,17.18,781.85,1086318,2020-09-30 09:19:15.819,2020-09-30 11:19:15.819,19,0,0,11.149,51.519566,5.858136,-2.2,-7.6,0.0,-12.7,-1.0,-107.3,0,1,0,36,100,-7004,1312,11149,3101.5,9,WP,1,0,0,0,0,0,0,1601457555818,3679,3681,3673,0,0,0,13,,,,,,,0,0,0,127.0,-10.0,-1073.0,-163.0,0.0,-1074.0,14,350.0,79.12,778.07,-22.0,-76.0,0.0,0,,,100,100,0,1,0,0,0,1,0,,,,,0.0,0.0,0,LSS,512.8805095636791,205.07585217888658,34.97612281439697,-7.690884654632878,-2.3798775207200076,0.0006989472715076722,0
51.519416,5.859131,35.0,0.0,7.91,71.03,35.3,35.3,17.18,781.85,1087320,2020-09-30 09:19:16.821,2020-09-30 11:19:16.821,19,0,0,11.149,51.519566,5.858136,-2.2,-7.6,0.0,-15.4,-1.6,-107.4,0,1,0,36,100,-7004,1312,11149,3101.5,9,WP,1,0,0,0,0,0,0,1601457556820,3679,3681,3673,0,0,0,13,,,,,,,0,0,0,154.0,-16.0,-1074.0,-163.0,0.0,-1074.0,14,350.0,79.12,710.31,-22.0,-76.0,0.0,0,,,100,100,0,1,0,0,0,1,0,,,,,0.0,0.0,0,LSS,505.45371589867375,202.84993154963956,34.976785696119876,-7.218651079771211,-2.1635371976888536,0.0006443038652521716,0
51.519394,5.859019,35.0,0.0,8.07,64.22,35.3,35.3,17.18,781.85,1088313,2020-09-30 09:19:17.814,2020-09-30 11:19:17.814,19,0,0,11.022,51.519566,5.858136,-2.4,-7.7,0.0,-15.4,-0.9,-107.2,0,1,0,35,100,-7920,1305,11022,3101.5,9,WP,1,0,0,0,0,0,0,1601457557813,3679,3681,3673,0,0,0,13,,,,,,,0,0,0,154.0,-9.0,-1072.0,-163.0,0.0,-1074.0,14,350.0,80.65,642.2,-24.0,-77.0,0.0,0,,,100,100,0,1,0,0,0,1,0,,,,,0.0,0.0,0,LSS,497.67988044186757,200.40147014611995,34.97747320127671,-7.5559667126146515,-2.379841066216334,0.0006682372052565454,0
51.51937,5.858898,35.1,0.0,7.82,57.21,35.3,35.3,17.18,781.85,1089408,2020-09-30 09:19:18.909,2020-09-30 11:19:18.909,19,0,0,11.022,51.519566,5.858136,-2.2,-7.5,0.0,-15.2,-0.8,-107.1,0,1,0,35,100,-7920,1305,11022,3101.5,9,WP,1,0,0,0,0,0,0,1601457558908,3679,3681,3673,0,0,0,13,,,,,,,0,0,0,152.0,-8.0,-1071.0,-163.0,0.0,-1074.0,14,351.0,78.16,572.14,-22.0,-75.0,0.0,0,,,100,100,0,1,0,0,0,1,0,,,,,0.0,0.0,0,LSS,489.2813635010897,197.73044592163671,35.07820507411245,-8.163140935056463,-2.5961663635564465,0.09790877132339872,0
51.51935,5.858789,35.1,0.0,7.91,51.33,35.3,35.3,17.18,781.85,1090412,2020-09-30 09:19:19.913,2020-09-30 11:19:19.913,19,0,0,11.064,51.519566,5.858136,-2.2,-7.6,0.0,-16.1,-1.7,-107.2,0,1,0,35,100,-8080,1301,11064,3091.5,9,WP,1,0,0,0,0,0,0,1601457559912,3679,3681,3673,0,0,0,13,,,,,,,0,0,0,161.0,-17.0,-1072.0,-163.0,0.0,-1074.0,14,351.0,79.12,513.3,-22.0,-76.0,0.0,0,,,100,100,0,1,0,0,0,1,0,,,,,0.0,0.0,0,LSS,481.71572566754764,195.50454661440165,35.07884843283438,-7.353604015363063,-2.1635164732455068,0.0006253280139755817,0
51.519328,5.858676,35.1,0.0,7.94,45.9,35.3,35.3,17.18,781.85,1091456,2020-09-30 09:19:20.957,2020-09-30 11:19:20.957,19,0,0,11.149,51.519566,5.858136,-2.3,-7.6,0.1,-16.0,-1.6,-107.3,0,1,0,35,100,-7972,1299,11149,3101.5,9,WP,1,0,0,0,0,0,0,1601457560956,3679,3681,3673,0,0,0,13,,,,,,,0,0,0,160.0,-16.0,-1073.0,-163.0,0.0,-1075.0,14,351.0,79.41,458.99,-23.0,-76.0,1.0,0,,,100,100,0,1,0,0,0,1,0,,,,,0.0,0.0,0,LSS,473.87245588831854,193.05611504830506,35.07950939357093,-7.623455075579835,-2.3798120650139745,0.0006424367162761986,0
51.519306,5.858561,35.1,0.0,7.94,41.35,35.3,35.3,17.18,781.85,1092509,2020-09-30 09:19:22.010,2020-09-30 11:19:22.010,19,0,0,11.149,51.519566,5.858136,-2.3,-7.6,0.0,-16.0,-0.6,-107.3,0,1,0,35,100,-7972,1299,11149,3101.5,9,WP,1,0,0,0,0,0,0,1601457562009,3679,3681,3673,0,0,0,13,,,,,,,0,0,0,160.0,-6.0,-1073.0,-163.0,0.0,-1075.0,14,351.0,79.4,413.51,-23.0,-76.0,0.0,0,,,100,100,0,1,0,0,0,1,0,,,,,0.0,0.0,0,LSS,465.8903554403571,190.6076828676735,35.08016991007153,-7.758394889711502,-2.379812662326047,0.0006420049304379236,0
51.519285,5.858451,35.1,0.0,8.04,38.2,35.3,35.3,17.18,781.85,1093513,2020-09-30 09:19:23.014,2020-09-30 11:19:23.014,19,0,0,11.149,51.519566,5.858136,-2.3,-7.7,0.0,-16.0,-2.6,-107.3,0,1,0,35,100,-7972,1299,11149,3101.5,9,WP,1,0,0,0,0,0,0,1601457563013,3679,3681,3673,0,0,0,13,,,,,,,0,0,0,160.0,-26.0,-1073.0,-163.0,0.0,-1076.0,14,351.0,80.36,382.0,-23.0,-77.0,0.0,0,,,100,100,0,1,0,0,0,1,0,,,,,0.0,0.0,0,LSS,458.25529520245533,188.27055334407578,35.08079135713126,-7.421080794279513,-2.2716293625577344,0.0006040304458528321,0
51.519262,5.858335,35.1,0.0,8.04,36.58,35.3,35.3,17.18,781.85,1094553,2020-09-30 09:19:24.053,2020-09-30 11:19:24.053,19,0,0,11.149,51.519566,5.858136,-2.3,-7.7,0.1,-16.0,-2.0,-107.1,0,1,0,35,100,-8530,1291,11149,3101.5,9,WP,1,0,0,0,0,0,0,1601457564053,3679,3681,3673,0,0,0,13,,,,,,,0,0,0,160.0,-20.0,-1071.0,-163.0,0.0,-1076.0,14,351.0,80.37,365.76,-23.0,-77.0,1.0,0,,,100,100,0,1,0,0,0,1,0,,,,,0.0,0.0,0,LSS,450.2037779488976,185.71088075307028,35.08143866278924,-7.825866226774906,-2.4879354599532038,0.0006291643335833393,0
51.51924,5.858222,35.1,0.0,8.35,36.83,35.3,35.3,17.18,781.85,1095552,2020-09-30 09:19:25.053,2020-09-30 11:19:25.053,19,0,0,11.043,51.519566,5.858136,-2.4,-8.0,0.0,-14.5,-1.5,-107.0,0,1,0,35,100,-7910,1289,11043,3101.5,9,WP,1,0,0,0,0,0,0,1601457565052,3679,3681,3673,0,0,0,13,,,,,,,0,0,0,145.0,-15.0,-1070.0,-163.0,0.0,-1076.0,14,351.0,83.52,368.32,-24.0,-80.0,0.0,0,,,100,100,0,1,0,0,0,1,0,,,,,0.0,0.0,0,LSS,442.36047786351446,183.26249787257802,35.082057189455114,-7.623484532376588,-2.379764743867583,0.0006011918986684896,0
51.519215,5.858096,35.1,0.0,8.16,39.21,35.3,35.3,17.18,781.85,1096665,2020-09-30 09:19:26.166,2020-09-30 11:19:26.166,19,0,0,11.043,51.519566,5.858136,-2.4,-7.8,0.0,-12.2,-1.4,-106.9,0,1,0,35,100,-7910,1289,11043,3101.5,9,WP,1,0,0,0,0,0,0,1601457566165,3679,3681,3673,0,0,0,13,,,,,,,0,0,0,122.0,-14.0,-1069.0,-163.0,0.0,-1076.0,14,351.0,81.61,392.07,-24.0,-78.0,0.0,0,,,100,100,0,1,0,0,0,1,0,,,,,0.0,0.0,0,LSS,433.61484675917876,180.48027357715517,35.08273589658634,-8.500526911373166,-2.7042499522982815,0.0006596857522485277,0
51.519192,5.857985,35.0,0.0,8.1,42.91,35.3,35.3,17.18,781.85,1097840,2020-09-30 09:19:27.341,2020-09-30 11:19:27.341,19,0,0,11.001,51.519566,5.858136,-2.5,-7.7,0.1,-14.7,0.7,-107.2,0,1,0,35,100,-7632,1283,11001,3101.5,9,WP,1,0,0,0,0,0,0,1601457567340,3667,3670,3660,0,0,0,13,,,,,,,0,0,0,147.0,7.0,-1072.0,-163.0,0.0,-1075.0,14,350.0,80.96,429.06,-25.0,-77.0,1.0,0,,,100,100,0,1,0,0,0,1,0,,,,,0.0,0.0,0,LSS,425.9103567201319,177.92066636005205,34.98332591406003,-7.488564762679738,-2.487871918213357,-0.09662392818113574,0
51.519166,5.857855,35.0,0.0,8.35,48.58,35.3,35.3,17.18,781.85,1098965,2020-09-30 09:19:28.466,2020-09-30 11:19:28.466,19,0,0,11.001,51.519566,5.858136,-2.4,-8.0,0.0,-11.6,0.7,-106.9,0,1,0,35,100,-7632,1283,11001,3101.5,9,WP,1,0,0,0,0,0,0,1601457568465,3667,3670,3660,0,0,0,13,,,,,,,0,0,0,116.0,7.0,-1069.0,-163.0,0.0,-1074.0,14,350.0,83.52,485.82,-24.0,-80.0,0.0,0,,,75,100,0,1,0,0,0,1,0,,,,,0.0,0.0,0,LSS,416.88706961928943,175.02718884789144,34.98400095049499,-8.77040134836376,-2.812385197379378,0.0006561179305463275,0
51.51914,5.85772,35.0,0.0,8.26,55.55,35.3,35.3,17.18,781.85,1100037,2020-09-30 09:19:29.537,2020-09-30 11:19:29.537,19,0,0,11.022,51.519566,5.858136,-2.4,-7.9,0.0,-7.3,-0.3,-107.3,0,1,0,35,100,-7870,1280,11022,3101.5,9,WP,1,0,0,0,0,0,0,1601457569537,3667,3670,3660,0,0,0,13,,,,,,,0,0,0,73.0,-3.0,-1073.0,-163.0,0.0,-1073.0,14,350.0,82.57,555.52,-24.0,-79.0,0.0,0,,,75,100,0,1,0,0,0,1,0,,,,,0.0,0.0,0,LSS,407.516713211352,172.13369952646013,34.98468407415021,-9.107743725360395,-2.8123966756846133,0.0006639784991763558,0
51.51912,5.85761,35.0,0.0,7.82,61.64,35.3,35.3,17.18,781.85,1100959,2020-09-30 09:19:30.459,2020-09-30 11:19:30.459,19,0,0,11.022,51.519566,5.858136,-2.2,-7.5,0.0,-14.0,-0.8,-107.0,0,1,0,35,100,-7870,1280,11022,3101.5,9,WP,1,0,0,0,0,0,0,1601457570459,3667,3670,3660,0,0,0,13,,,,,,,0,0,0,140.0,-8.0,-1070.0,-163.0,0.0,-1073.0,14,350.0,78.16,616.41,-22.0,-75.0,0.0,0,,,75,100,0,1,0,0,0,1,0,,,,,0.0,0.0,0,LSS,399.88158971951697,169.90791663901314,34.98522605297059,-7.421142275464294,-2.1634033162269097,0.0005267893755256344,0
51.5191,5.857499,34.9,0.0,8.13,68.22,35.3,35.3,17.18,781.85,1101960,2020-09-30 09:19:31.460,2020-09-30 11:19:31.460,19,0,0,11.085,51.519566,5.858136,-2.3,-7.8,0.0,-14.0,-2.5,-107.2,0,1,0,35,100,-6880,1274,11085,3101.5,9,WP,1,0,0,0,0,0,0,1601457571460,3667,3670,3660,0,0,0,13,,,,,,,0,0,0,140.0,-25.0,-1072.0,-163.0,0.0,-1073.0,14,349.0,81.32,682.22,-23.0,-78.0,0.0,0,,,100,100,0,1,0,0,0,1,0,,,,,0.0,0.0,0,LSS,392.17704153491576,167.68213724571694,34.885762391958195,-7.48862127865254,-2.1633999200028313,-0.09667610227927279,0
51.519077,5.857385,34.9,0.0,8.19,75.4,35.3,35.3,17.18,781.85,1102966,2020-09-30 09:19:32.467,2020-09-30 11:19:32.467,19,0,0,11.085,51.519566,5.858136,-2.5,-7.8,0.0,-14.2,0.5,-106.9,0,1,0,35,100,-6880,1274,11085,3101.5,9,WP,1,0,0,0,0,0,0,1601457572466,3667,3670,3660,0,0,0,13,,,,,,,0,0,0,142.0,5.0,-1069.0,-163.0,0.0,-1073.0,14,349.0,81.91,754.04,-25.0,-78.0,0.0,0,,,100,100,0,1,0,0,0,1,0,,,,,0.0,0.0,0,LSS,384.2642824142441,165.12258003529521,34.886309843377575,-7.690996915607024,-2.487823313014276,0.0005321086000066927,0
51.519055,5.857272,35.0,0.0,8.38,82.7,35.3,35.3,17.18,781.85,1103990,2020-09-30 09:19:33.491,2020-09-30 11:19:33.491,19,0,0,11.212,51.519566,5.858136,-2.5,-8.0,0.0,-14.2,-1.1,-107.4,0,1,0,35,100,-7056,1272,11212,3101.5,9,WP,1,0,0,0,0,0,0,1601457573490,3667,3670,3660,0,0,0,13,,,,,,,0,0,0,142.0,-11.0,-1074.0,-163.0,0.0,-1073.0,14,350.0,83.82,826.96,-25.0,-80.0,0.0,0,,,100,100,0,1,0,0,0,1,0,,,,,0.0,0.0,0,LSS,376.4209249021391,162.67430165908914,34.98683954449959,-7.623540349662823,-2.3796631684081944,0.09771226565414211,0
51.51903,5.857147,34.9,0.0,8.07,90.94,35.3,35.3,17.18,781.85,1105117,2020-09-30 09:19:34.617,2020-09-30 11:19:34.617,19,0,0,11.212,51.519566,5.858136,-2.4,-7.7,0.0,-12.0,-1.0,-107.6,0,1,0,35,100,-7056,1272,11212,3101.5,9,WP,1,0,0,0,0,0,0,1601457574617,3667,3670,3660,0,0,0,13,,,,,,,0,0,0,120.0,-10.0,-1076.0,-163.0,0.0,-1074.0,14,349.0,80.65,909.39,-24.0,-77.0,0.0,0,,,100,100,0,1,0,0,0,1,0,,,,,0.0,0.0,0,LSS,367.74462860271944,159.89219352090075,34.887415043906316,-8.433135276847066,-2.7041370504749955,-0.09663803936618791,0
51.519009,5.857036,34.9,0.0,8.04,98.35,35.3,35.3,17.18,781.85,1106092,2020-09-30 09:19:35.593,2020-09-30 11:19:35.593,19,0,0,10.98,51.519566,5.858136,-2.3,-7.7,0.0,-15.3,-2.4,-107.1,0,1,0,34,100,-7032,1266,10980,3101.5,9,WP,1,0,0,0,0,0,0,1601457575592,3667,3670,3660,0,0,0,13,,,,,,,0,0,0,153.0,-24.0,-1071.0,-163.0,0.0,-1074.0,14,349.0,80.36,983.53,-23.0,-77.0,0.0,0,,,100,100,0,1,0,0,0,1,0,,,,,0.0,0.0,0,LSS,360.0400652916094,157.55520675593812,34.887911896250856,-7.488635981227355,-2.2714906048620396,0.00048292760983782484,0
51.518984,5.856906,34.9,0.0,8.16,107.16,35.3,35.3,17.18,781.85,1107747,2020-09-30 09:19:37.247,2020-09-30 11:19:37.247,19,0,0,10.98,51.519566,5.858136,-2.4,-7.8,0.0,-12.1,-2.2,-107.0,0,1,0,34,100,-7032,1266,10980,3101.5,9,WP,1,0,0,0,0,0,0,1601457577247,3667,3670,3660,0,0,0,13,,,,,,,0,0,0,121.0,-22.0,-1070.0,-163.0,0.0,-1074.0,14,349.0,81.61,1071.62,-24.0,-78.0,0.0,0,,,100,100,0,1,0,0,0,1,0,,,,,0.0,0.0,0,LSS,351.0166969597411,154.77310517739386,34.88848199409266,-8.770480302816834,-2.704130674670799,0.0005541203360327838,0
51.518942,5.856688,35.0,0.0,7.91,122.18,35.3,35.3,17.18,781.85,1109268,2020-09-30 09:19:38.768,2020-09-30 11:19:38.768,19,0,0,11.191,51.519566,5.858136,-2.2,-7.6,0.0,-15.4,-3.7,-107.4,0,1,0,34,100,-7426,1262,11191,3101.5,9,WP,1,0,0,0,0,0,0,1601457578768,3669,3672,3663,0,0,0,13,,,,,,,0,0,0,154.0,-37.0,-1074.0,-163.0,0.0,-1075.0,14,350.0,79.12,1221.8,-22.0,-76.0,0.0,0,,,41,100,0,1,0,0,0,1,0,,,,,0.0,0.0,0,LSS,335.8851860123358,150.09921481769794,34.98940688646614,-14.707436717104345,-4.542900370415361,0.09809638131465762,0
51.518922,5.856575,35.0,0.0,7.6,129.91,35.3,35.3,17.18,781.85,1110219,2020-09-30 09:19:39.719,2020-09-30 11:19:39.719,19,0,0,11.149,51.519566,5.858136,-2.1,-7.3,0.0,-15.3,-3.6,-107.2,0,1,0,34,100,-7696,1260,11149,3101.5,9,WP,1,0,0,0,0,0,0,1601457579719,3669,3672,3663,0,0,0,13,,,,,,,0,0,0,153.0,-36.0,-1072.0,-163.0,0.0,-1077.0,14,350.0,75.96,1299.1,-21.0,-73.0,0.0,0,,,75,100,0,1,0,0,0,1,0,,,,,0.0,0.0,0,LSS,328.0417616129123,147.87352620650552,34.98986629205859,-7.623605362403942,-2.1633116821493306,0.00044653033672233767,0
51.518903,5.856472,35.0,0.0,7.47,137.08,35.3,35.3,17.18,781.85,1111215,2020-09-30 09:19:40.716,2020-09-30 11:19:40.716,19,0,0,11.149,51.519566,5.858136,-2.0,-7.2,0.0,-15.0,-4.9,-107.4,0,1,0,34,100,-7696,1260,11149,3101.5,9,WP,1,0,0,0,0,0,0,1601457580715,3669,3672,3663,0,0,0,13,,,,,,,0,0,0,150.0,-49.0,-1074.0,-163.0,0.0,-1078.0,14,350.0,74.73,1370.81,-20.0,-72.0,0.0,0,,,100,100,0,1,0,0,0,1,0,,,,,0.0,0.0,0,LSS,320.89244499108713,145.7591523112058,34.9902779380741,-6.948950580778983,-2.05511666148252,0.00040010926496157,0
51.518881,5.85636,35.0,0.0,7.37,144.91,35.3,35.3,17.18,781.85,1112304,2020-09-30 09:19:41.805,2020-09-30 11:19:41.805,19,0,0,11.085,51.519566,5.858136,-2.3,-7.0,0.0,-16.2,-3.2,-106.7,0,1,0,34,100,-8492,1251,11085,3101.5,9,WP,1,0,0,0,0,0,0,1601457581804,3669,3672,3663,0,0,0,13,,,,,,,0,0,0,162.0,-32.0,-1067.0,-163.0,0.0,-1078.0,14,350.0,73.68,1449.08,-23.0,-70.0,0.0,0,,,100,100,0,1,0,0,0,1,0,,,,,0.0,0.0,0,LSS,313.1184332342735,143.31097353000615,34.99071903455963,-7.556138071655534,-2.3795663646415828,0.00042873435902296577,0
51.518861,5.85626,35.0,0.0,7.37,152.06,35.3,35.3,17.18,781.85,1113315,2020-09-30 09:19:42.816,2020-09-30 11:19:42.816,19,0,0,11.085,51.519566,5.858136,-2.3,-7.0,0.0,-15.8,-2.4,-106.8,0,1,0,34,100,-8492,1251,11085,3101.5,9,WP,1,0,0,0,0,0,0,1601457582815,3669,3672,3663,0,0,0,13,,,,,,,0,0,0,158.0,-24.0,-1068.0,-163.0,0.0,-1078.0,14,350.0,73.68,1520.62,-23.0,-70.0,0.0,0,,,100,100,0,1,0,0,0,1,0,,,,,0.0,0.0,0,LSS,306.177347372043,141.08537439040452,34.99110496397628,-6.746555675872362,-2.163224718080494,0.00037511339695676346,0
51.518839,5.856158,35.0,0.0,7.56,159.41,35.3,35.3,17.18,781.85,1114317,2020-09-30 09:19:43.817,2020-09-30 11:19:43.817,19,0,0,11.085,51.519566,5.858136,-2.3,-7.2,0.0,-16.2,-1.4,-107.1,0,1,0,34,100,-7896,1249,11085,3101.5,9,WP,1,0,0,0,0,0,0,1601457583817,3669,3672,3663,0,0,0,13,,,,,,,0,0,0,162.0,-14.0,-1071.0,-163.0,0.0,-1078.0,14,350.0,75.58,1594.09,-23.0,-72.0,0.0,0,,,100,100,0,1,0,0,0,1,0,,,,,0.0,0.0,0,LSS,299.09744400770705,138.63725896022927,34.9914939206926,-6.881482692383768,-2.379504789086723,0.00037805585383194126,0
51.518816,5.856046,35.0,0.0,7.84,167.38,35.3,35.3,17.18,781.85,1115417,2020-09-30 09:19:44.918,2020-09-30 11:19:44.918,19,0,0,11.085,51.519566,5.858136,-2.3,-7.5,0.0,-15.8,-1.9,-106.9,0,1,0,34,100,-7896,1249,11085,3101.5,9,WP,1,0,0,0,0,0,0,1601457584917,3669,3672,3663,0,0,0,13,,,,,,,0,0,0,158.0,-19.0,-1069.0,-163.0,0.0,-1078.0,14,350.0,78.45,1673.84,-23.0,-75.0,0.0,0,,,100,100,0,1,0,0,0,1,0,,,,,0.0,0.0,0,LSS,291.32341723049,136.07785475259365,34.991908147364605,-7.556152671098588,-2.487674598269131,0.00040261759623674425,0
51.518792,5.855928,35.0,0.0,8.13,175.81,35.3,35.3,17.18,781.85,1116415,2020-09-30 09:19:45.915,2020-09-30 11:19:45.915,19,0,0,11.064,51.519566,5.858136,-2.3,-7.8,0.0,-16.0,-1.5,-106.9,0,1,0,34,100,-7682,1243,11064,3101.5,9,WP,1,0,0,0,0,0,0,1601457585915,3669,3672,3663,0,0,0,13,,,,,,,0,0,0,160.0,-15.0,-1069.0,-163.0,0.0,-1077.0,14,350.0,81.32,1758.14,-23.0,-78.0,0.0,0,,,100,100,0,1,0,0,0,1,0,,,,,0.0,0.0,0,LSS,283.132914820299,133.40718041965977,34.99233268349122,-7.9609561991448725,-2.595826278033079,0.0004126381190899103,0
51.51877,5.85581,35.1,0.0,8.23,184.18,35.3,35.3,17.18,781.85,1117487,2020-09-30 09:19:46.987,2020-09-30 11:19:46.987,19,0,0,11.064,51.519566,5.858136,-2.3,-7.9,0.0,-15.5,-2.8,-107.0,0,1,0,34,100,-7682,1243,11064,3101.5,9,WP,1,0,0,0,0,0,0,1601457586987,3669,3672,3663,0,0,0,13,,,,,,,0,0,0,155.0,-28.0,-1070.0,-163.0,0.0,-1077.0,14,351.0,82.28,1841.8,-23.0,-79.0,0.0,0,,,100,100,0,1,0,0,0,1,0,,,,,0.0,0.0,0,LSS,274.9423960587974,130.9590389632443,35.09274103822015,-7.96097209219525,-2.3795300859181077,0.0975943201030749,0
51.518749,5.855697,35.0,0.0,8.26,192.22,35.3,35.3,17.18,781.85,1118527,2020-09-30 09:19:48.027,2020-09-30 11:19:48.027,19,0,0,11.022,51.519566,5.858136,-2.4,-7.9,0.0,-15.6,-3.2,-106.9,0,1,0,34,100,-7596,1241,11022,3101.5,9,WP,1,0,0,0,0,0,0,1601457588027,3664,3667,3658,0,0,0,13,,,,,,,0,0,0,156.0,-32.0,-1069.0,-163.0,0.0,-1077.0,14,350.0,82.57,1922.23,-24.0,-79.0,0.0,0,,,100,100,0,1,0,0,0,1,0,,,,,0.0,0.0,0,LSS,267.0989169601808,128.62218364499722,34.99312121642495,-7.623658528602835,-2.2713628420591414,-0.09682788651540894,0
