lat,lon,alt,ultrasonicHeight(m),speed(mps),distance(m),max_altitude(m),max_ascent(m),max_speed(mps),max_distance(m),time(millisecond),datetime(utc),time,satellites,pressure(Pa),temperature(F),voltage(v),home_latitude,home_longitude,velocityX(mps),velocityY(mps),velocityZ(mps),pitch(deg),roll(deg),yaw(deg),powerlevel,isflying,istakingphoto,remainPowerPercent,remainLifePercent,currentCurrent,currentElectricity,currentVoltage,batteryTemperature,dischargeCount,flightmode,isMotorsOn,isTakingVideo,Rc_elevator,Rc_aileron,Rc_throttle,Rc_rudder,Rc_gyro,timestamp,Battery_Cell1,Battery_Cell2,Battery_Cell3,Battery_Cell4,Battery_Cell5,Battery_Cell6,Dronetype,AppVersion,Planename,FlyControllerSerialNumber,RemoteSerialNumber,BatterySerialNumber,CENTER_BATTERY.productDate,CENTER_BATTERY.serialNo,CENTER_BATTERY.fullCapacity,CENTER_BATTERY.productDateRaw,pitchRaw,rollRaw,yawRaw,gimbalPitchRaw,gimbalRollRaw,gimbalYawRaw,flyState,altitudeRaw,speedRaw,distanceRaw,velocityXRaw,velocityYRaw,velocityZRaw,data_reuse,App_Tip,App_Warning,downlinkSignalQuality,uplinkSignalQuality,transmissionChannel,rcModeSwitch,rcHome,rcPause,rcTransform,rcJoystickMode,appMode,FlyControllerSerialNumber_legacy,RemoteSerialNumber_legacy,BatterySerialNumber_legacy,Battery2SerialNumber,frontAvoidDist,backAvoidDist,isBrakingToAvoid,uav_category,x,y,z,vel_x,vel_y,vel_z,track_id
51.515427,5.847496,39.9,0.0,9.71,857.49,40.1,40.1,17.28,991.14,680192,2020-09-29 12:22:16.839,2020-09-29 14:22:16.839,18,0,0,11.465,51.519506,5.857977,5.2,8.2,0.0,-15.1,-2.5,60.6,0,1,0,59,100,-7954,2178,11465,3071.5,8,WP,1,0,0,0,0,0,0,1601382136839,3805,3806,3795,0,0,0,13,,,,,,,0,0,0,151.0,-25.0,606.0,-87.0,0.0,608.0,14,399.0,97.1,8574.87,52.0,82.0,0.0,0,,,75,75,0,1,0,0,0,1,0,,,,,0.0,0.0,0,LSS,34.708751673895314,55.62952832161656,39.899663025769605,8.678781657371408,5.452779672121964,-0.00010293934337295823,0
51.515476,5.847621,39.9,0.0,10.91,847.19,40.1,40.1,17.28,991.14,681184,2020-09-29 12:22:17.831,2020-09-29 14:22:17.832,18,0,0,11.529,51.519506,5.857977,5.7,9.3,0.0,-16.0,-2.6,60.8,0,1,0,59,100,-7366,2176,11529,3071.5,8,WP,1,0,0,0,0,0,0,1601382137831,3797,3796,3784,0,0,0,13,,,,,,,0,0,0,160.0,-26.0,608.0,-87.0,0.0,607.0,14,399.0,109.08,8471.88,57.0,93.0,0.0,0,,,75,75,0,1,0,0,0,1,0,,,,,0.0,0.0,0,LSS,43.38589304153348,61.081277418380495,39.89956010588177,8.678781657371408,5.452779672121964,-0.00010293934337295823,0
51.515531,5.84776,39.9,0.0,11.82,835.84,40.1,40.1,17.28,991.14,682185,2020-09-29 12:22:18.832,2020-09-29 14:22:18.833,18,0,0,11.529,51.519506,5.857977,6.3,10.0,0.0,-15.5,-2.4,60.8,0,1,0,59,100,-7366,2176,11529,3071.5,8,WP,1,0,0,0,0,0,0,1601382138832,3797,3796,3784,0,0,0,13,,,,,,,0,0,0,155.0,-24.0,608.0,-87.0,0.0,606.0,14,399.0,118.19,8358.44,63.0,100.0,0.0,0,,,75,75,0,1,0,0,0,1,0,,,,,0.0,0.0,0,LSS,53.03485178219161,67.20060438765111,39.89942575056534,9.650782738595725,6.120483740697608,-0.000134380714381156,0
51.51559,5.847906,39.9,0.0,11.9,823.77,40.1,40.1,17.28,991.14,683189,2020-09-29 12:22:19.837,2020-09-29 14:22:19.837,18,0,0,11.487,51.519506,5.857977,6.3,10.1,0.0,-8.9,-0.2,60.3,0,1,0,59,100,-7396,2170,11487,3071.5,8,WP,1,0,0,0,0,0,0,1601382139836,3797,3796,3784,0,0,0,13,,,,,,,0,0,0,89.0,-2.0,603.0,-87.0,0.0,605.0,14,399.0,119.04,8237.67,63.0,101.0,0.0,0,,,75,75,0,1,0,0,0,1,0,,,,,0.0,0.0,0,LSS,63.169702580000354,73.76499106555374,39.89926103622567,10.136766646704972,6.565627581515539,-0.0001647454765703144,0
51.515648,5.848047,39.9,0.0,11.58,812.06,40.1,40.1,17.28,991.14,684176,2020-09-29 12:22:20.824,2020-09-29 14:22:20.824,18,0,0,11.487,51.519506,5.857977,6.0,9.9,0.0,-8.6,1.2,60.2,0,1,0,59,100,-7396,2170,11487,3071.5,8,WP,1,0,0,0,0,0,0,1601382140823,3797,3796,3784,0,0,0,13,,,,,,,0,0,0,86.0,12.0,602.0,-87.0,0.0,605.0,14,399.0,115.76,8120.64,60.0,99.0,0.0,0,,,75,75,0,1,0,0,0,1,0,,,,,0.0,0.0,0,LSS,72.9574429585168,80.21813419941665,39.89907886239497,9.789590611141945,6.4543630084715105,-0.00018220826805707263,0
51.515703,5.848185,39.9,0.0,11.29,800.69,40.1,40.1,17.28,991.14,685200,2020-09-29 12:22:21.847,2020-09-29 14:22:21.847,18,0,0,11.381,51.519506,5.857977,5.6,9.8,0.0,-10.3,0.9,60.5,0,1,0,59,100,-6506,2166,11381,3071.5,8,WP,1,0,0,0,0,0,0,1601382141847,3797,3796,3784,0,0,0,13,,,,,,,0,0,0,103.0,9.0,605.0,-87.0,0.0,605.0,14,399.0,112.87,8006.89,56.0,98.0,0.0,0,,,75,75,0,1,0,0,0,1,0,,,,,0.0,0.0,0,LSS,82.53691265907034,86.3375163766175,39.898882389983655,9.581280562579874,6.120538959064111,-0.00019650955162318405,0
51.515755,5.848322,39.9,0.0,11.19,789.55,40.1,40.1,17.28,991.14,686186,2020-09-29 12:22:22.834,2020-09-29 14:22:22.834,18,0,0,11.381,51.519506,5.857977,5.4,9.8,0.0,-12.1,0.2,60.5,0,1,0,59,100,-6506,2166,11381,3071.5,8,WP,1,0,0,0,0,0,0,1601382142833,3797,3796,3784,0,0,0,13,,,,,,,0,0,0,121.0,2.0,605.0,-87.0,0.0,605.0,14,399.0,111.89,7895.49,54.0,98.0,0.0,0,,,75,75,0,1,0,0,0,1,0,,,,,0.0,0.0,0,LSS,92.04694833164734,92.12313892150348,39.89867151675394,9.511833409091322,5.786716234254255,-0.0002109130922861365,0
51.515806,5.848461,39.9,0.0,11.33,778.35,40.1,40.1,17.28,991.14,687195,2020-09-29 12:22:23.843,2020-09-29 14:22:23.843,18,0,0,11.55,51.519506,5.857977,5.5,9.9,0.0,-11.1,-1.2,60.4,0,1,0,59,100,-7176,2162,11550,3071.5,8,WP,1,0,0,0,0,0,0,1601382143842,3797,3796,3784,0,0,0,13,,,,,,,0,0,0,111.0,-12.0,604.0,-87.0,0.0,605.0,14,399.0,113.25,7783.47,55.0,99.0,0.0,0,,,75,75,0,1,0,0,0,1,0,,,,,0.0,0.0,0,LSS,101.69579842462103,97.79752326523311,39.89844074365623,9.65067407037299,5.675457005103592,-0.00023081672207271638,0
51.515856,5.848602,39.8,0.0,11.24,767.08,40.1,40.1,17.28,991.14,688196,2020-09-29 12:22:24.844,2020-09-29 14:22:24.844,18,0,0,11.55,51.519506,5.857977,5.5,9.8,0.0,-10.7,-2.4,60.6,0,1,0,59,100,-7176,2162,11550,3071.5,8,WP,1,0,0,0,0,0,0,1601382144843,3797,3796,3784,0,0,0,13,,,,,,,0,0,0,107.0,-24.0,606.0,-87.0,0.0,605.0,14,398.0,112.38,7670.78,55.0,98.0,0.0,0,,,75,75,0,1,0,0,0,1,0,,,,,0.0,0.0,0,LSS,111.48346136212494,103.3606685685781,39.798189736285465,9.789513155490297,5.564196936566007,-0.10026995839290168,0
51.515908,5.848742,39.9,0.0,11.2,755.82,40.1,40.1,17.28,991.14,689188,2020-09-29 12:22:25.835,2020-09-29 14:22:25.836,18,0,0,11.487,51.519506,5.857977,5.6,9.7,0.0,-11.1,-0.9,60.6,0,1,0,59,100,-6806,2158,11487,3071.5,8,WP,1,0,0,0,0,0,0,1601382145835,3797,3796,3784,0,0,0,13,,,,,,,0,0,0,111.0,-9.0,606.0,-87.0,0.0,605.0,14,399.0,112.0,7558.15,56.0,97.0,0.0,0,,,75,75,0,1,0,0,0,1,0,,,,,0.0,0.0,0,LSS,121.20168427197694,109.14635202928895,39.89791639594875,9.720060001192229,5.786777161594384,0.09974551156496843,0
51.515959,5.848882,39.9,0.0,11.2,744.5,40.1,40.1,17.28,991.14,690185,2020-09-29 12:22:26.832,2020-09-29 14:22:26.832,18,0,0,11.487,51.519506,5.857977,5.6,9.7,0.0,-10.1,-0.9,60.5,0,1,0,59,100,-6806,2158,11487,3071.5,8,WP,1,0,0,0,0,0,0,1601382146832,3797,3796,3784,0,0,0,13,,,,,,,0,0,0,101.0,-9.0,605.0,-87.0,0.0,605.0,14,399.0,112.0,7444.96,56.0,97.0,0.0,0,,,41,41,0,1,0,0,0,1,0,,,,,0.0,0.0,0,LSS,130.9198861717873,114.82079367192893,39.89762503438822,9.720038987178944,5.675514314845483,-0.0002914166382726364,0
51.516011,5.849022,39.9,0.0,11.2,733.26,40.1,40.1,17.28,991.14,691187,2020-09-29 12:22:27.834,2020-09-29 14:22:27.834,18,0,0,11.36,51.519506,5.857977,5.6,9.7,0.0,-10.1,-1.4,60.6,0,1,0,58,100,-6960,2156,11360,3071.5,8,WP,1,0,0,0,0,0,0,1601382147834,3797,3796,3784,0,0,0,13,,,,,,,0,0,0,101.0,-14.0,606.0,-87.0,0.0,605.0,14,399.0,112.0,7332.58,56.0,97.0,0.0,0,,,75,75,0,1,0,0,0,1,0,,,,,0.0,0.0,0,LSS,140.63806328510572,120.60651278689156,39.897311740074265,9.720014196001449,5.786812822586101,-0.0003133535377734098,0
51.516062,5.84916,39.9,0.0,11.11,722.07,40.1,40.1,17.28,991.14,692181,2020-09-29 12:22:28.828,2020-09-29 14:22:28.828,18,0,0,11.36,51.519506,5.857977,5.6,9.6,0.0,-11.1,-1.3,60.5,0,1,0,58,100,-6960,2156,11360,3071.5,8,WP,1,0,0,0,0,0,0,1601382148828,3800,3799,3787,0,0,0,13,,,,,,,0,0,0,111.0,-13.0,605.0,-87.0,0.0,605.0,14,399.0,111.14,7220.74,56.0,96.0,0.0,0,,,41,75,0,1,0,0,0,1,0,,,,,0.0,0.0,0,LSS,150.21738848211479,126.28098759813149,39.896983885306334,9.581136031719064,5.6755474897154885,-0.00032791674419616556,0
51.516114,5.849299,39.8,0.0,11.16,710.83,40.1,40.1,17.28,991.14,693181,2020-09-29 12:22:29.828,2020-09-29 14:22:29.828,18,0,0,11.444,51.519506,5.857977,5.7,9.6,0.0,-10.7,-1.1,60.6,0,1,0,58,100,-7042,2149,11444,3071.5,8,WP,1,0,0,0,0,0,0,1601382149828,3800,3799,3787,0,0,0,13,,,,,,,0,0,0,107.0,-11.0,606.0,-87.0,0.0,605.0,14,398.0,111.65,7108.35,57.0,96.0,0.0,0,,,41,75,0,1,0,0,0,1,0,,,,,0.0,0.0,0,LSS,159.86610274062636,132.06673946866002,39.79663258337825,9.650538210233309,5.786845584343969,-0.10037027190947684,0
51.516165,5.849438,39.8,0.0,11.16,699.67,40.1,40.1,17.28,991.14,694192,2020-09-29 12:22:30.839,2020-09-29 14:22:30.839,18,0,0,11.444,51.519506,5.857977,5.7,9.6,0.0,-10.6,-1.6,60.5,0,1,0,58,100,-7042,2149,11444,3071.5,8,WP,1,0,0,0,0,0,0,1601382150839,3800,3799,3787,0,0,0,13,,,,,,,0,0,0,106.0,-16.0,605.0,-87.0,0.0,605.0,14,398.0,111.65,6996.66,57.0,96.0,0.0,0,,,41,41,0,1,0,0,0,1,0,,,,,0.0,0.0,0,LSS,169.5148010868168,137.7412528575042,39.796263869749176,9.650522294904166,5.6755860746122915,-0.00036878332912140767,0
51.516217,5.849577,39.8,0.0,11.16,688.43,40.1,40.1,17.28,991.14,695186,2020-09-29 12:22:31.833,2020-09-29 14:22:31.833,18,0,0,11.508,51.519506,5.857977,5.7,9.6,0.0,-10.1,-1.7,60.5,0,1,0,58,100,-7096,2147,11508,3071.5,8,WP,1,0,0,0,0,0,0,1601382151833,3800,3799,3787,0,0,0,13,,,,,,,0,0,0,101.0,-17.0,605.0,-87.0,0.0,604.0,14,398.0,111.65,6884.27,57.0,96.0,0.0,0,,,41,41,0,1,0,0,0,1,0,,,,,0.0,0.0,0,LSS,179.16347395748465,143.52704345480032,39.795873034571215,9.65049681456582,5.786884318432297,-0.00039090905977231085,0
51.516269,5.849716,39.9,0.0,11.16,677.18,40.1,40.1,17.28,991.14,696175,2020-09-29 12:22:32.822,2020-09-29 14:22:32.822,18,0,0,11.508,51.519506,5.857977,5.7,9.6,0.0,-9.7,-1.7,60.4,0,1,0,58,100,-7096,2147,11508,3071.5,8,WP,1,0,0,0,0,0,0,1601382152822,3800,3799,3787,0,0,0,13,,,,,,,0,0,0,97.0,-17.0,604.0,-87.0,0.0,604.0,14,399.0,111.65,6771.8,57.0,96.0,0.0,0,,,41,75,0,1,0,0,0,1,0,,,,,0.0,0.0,0,LSS,188.8121278075779,149.3128547696035,39.89546238290786,9.650477790395625,5.786905039855702,0.09960817428158224,0
51.51632,5.849854,39.9,0.0,11.16,666.05,40.1,40.1,17.28,991.14,697178,2020-09-29 12:22:33.825,2020-09-29 14:22:33.826,18,0,0,11.508,51.519506,5.857977,5.7,9.6,0.0,-10.5,-1.7,60.6,0,1,0,58,100,-6826,2141,11508,3071.5,8,WP,1,0,0,0,0,0,0,1601382153825,3800,3799,3787,0,0,0,13,,,,,,,0,0,0,105.0,-17.0,606.0,-87.0,0.0,604.0,14,399.0,111.65,6660.55,57.0,96.0,0.0,0,,,41,75,0,1,0,0,0,1,0,,,,,0.0,0.0,0,LSS,198.39134507934546,154.98742065365423,39.89503677488494,9.581028086075829,5.675638579742308,-0.00042568847803781823,0
51.516372,5.849993,39.9,0.0,11.16,654.83,40.1,40.1,17.28,991.14,698188,2020-09-29 12:22:34.836,2020-09-29 14:22:34.836,18,0,0,11.508,51.519506,5.857977,5.7,9.6,0.0,-10.1,-1.6,60.5,0,1,0,58,100,-6826,2141,11508,3071.5,8,WP,1,0,0,0,0,0,0,1601382154835,3800,3799,3787,0,0,0,13,,,,,,,0,0,0,101.0,-16.0,605.0,-87.0,0.0,604.0,14,399.0,111.65,6548.33,57.0,96.0,0.0,0,,,41,75,0,1,0,0,0,1,0,,,,,0.0,0.0,0,LSS,208.0399524666786,160.7732663319316,39.894586693340145,9.650431318852421,5.78693940982584,-0.0004501666262906776,0
51.516423,5.85013,39.9,0.0,11.16,643.69,40.1,40.1,17.28,991.14,699188,2020-09-29 12:22:35.835,2020-09-29 14:22:35.835,18,0,0,11.402,51.519506,5.857977,5.7,9.6,0.0,-11.2,-1.7,60.5,0,1,0,58,100,-7056,2139,11402,3071.5,8,WP,1,0,0,0,0,0,0,1601382155835,3800,3799,3787,0,0,0,13,,,,,,,0,0,0,112.0,-17.0,605.0,-87.0,0.0,604.0,14,399.0,111.65,6436.88,57.0,96.0,0.0,0,,,75,75,0,1,0,0,0,1,0,,,,,0.0,0.0,0,LSS,217.5497106670207,166.44786559441894,39.89412442766698,9.51155588440423,5.675671964488622,-0.00046235305789203886,0
51.516474,5.850268,39.9,0.0,11.16,632.57,40.1,40.1,17.28,991.14,700177,2020-09-29 12:22:36.825,2020-09-29 14:22:36.825,18,0,0,11.402,51.519506,5.857977,5.7,9.6,0.0,-12.1,-2.1,60.5,0,1,0,58,100,-7056,2139,11402,3071.5,8,WP,1,0,0,0,0,0,0,1601382156824,3800,3799,3787,0,0,0,13,,,,,,,0,0,0,121.0,-21.0,605.0,-87.0,0.0,604.0,14,399.0,111.65,6325.66,57.0,96.0,0.0,0,,,75,75,0,1,0,0,0,1,0,,,,,0.0,0.0,0,LSS,227.12886353673065,172.1224858067253,39.89364049532158,9.580963671843936,5.675692918267918,-0.0004840238259066557,0
51.516526,5.850407,39.9,0.0,11.16,621.36,40.1,40.1,17.28,991.14,701176,2020-09-29 12:22:37.824,2020-09-29 14:22:37.824,18,0,0,11.381,51.519506,5.857977,5.7,9.6,0.0,-11.8,-2.2,60.6,0,1,0,58,100,-7360,2133,11381,3071.5,8,WP,1,0,0,0,0,0,0,1601382157823,3800,3799,3787,0,0,0,13,,,,,,,0,0,0,118.0,-22.0,606.0,-87.0,0.0,604.0,14,399.0,111.65,6213.57,57.0,96.0,0.0,0,,,75,100,0,1,0,0,0,1,0,,,,,0.0,0.0,0,LSS,236.7774056581868,177.9083862082951,39.89313147914126,9.65036604063784,5.786994143462905,-0.0005091124025608188,0
51.516577,5.850545,39.9,0.0,11.16,610.24,40.1,40.1,17.28,991.14,702174,2020-09-29 12:22:38.821,2020-09-29 14:22:38.821,18,0,0,11.381,51.519506,5.857977,5.7,9.6,0.0,-13.4,-2.4,60.6,0,1,0,58,100,-7360,2133,11381,3071.5,8,WP,1,0,0,0,0,0,0,1601382158821,3789,3788,3777,0,0,0,13,,,,,,,0,0,0,134.0,-24.0,606.0,-87.0,0.0,603.0,14,399.0,111.65,6102.36,57.0,96.0,0.0,0,,,75,100,0,1,0,0,0,1,0,,,,,0.0,0.0,0,LSS,246.35651544527963,183.58304276927612,39.89260852658502,9.580920581082642,5.675729273813771,-0.0005230514129555137,0
51.516629,5.850684,39.9,0.0,11.3,598.96,40.1,40.1,17.28,991.14,703172,2020-09-29 12:22:39.819,2020-09-29 14:22:39.819,18,0,0,11.55,51.519506,5.857977,5.8,9.7,0.0,-11.3,-3.3,60.7,0,1,0,58,100,-7638,2128,11550,3071.5,8,WP,1,0,0,0,0,0,0,1601382159819,3789,3788,3777,0,0,0,13,,,,,,,0,0,0,113.0,-33.0,607.0,-87.0,0.0,603.0,14,399.0,113.02,5989.63,58.0,97.0,0.0,0,,,75,100,0,1,0,0,0,1,0,,,,,0.0,0.0,0,LSS,256.00501390637584,189.36897978589678,39.89206008329836,9.650322372024522,5.787030765435332,-0.0005485469620367517,0
51.516682,5.850824,39.9,0.0,11.3,587.59,40.1,40.1,17.28,991.14,704173,2020-09-29 12:22:40.820,2020-09-29 14:22:40.820,18,0,0,11.55,51.519506,5.857977,5.8,9.7,0.0,-9.9,-1.3,60.5,0,1,0,58,100,-7638,2128,11550,3071.5,8,WP,1,0,0,0,0,0,0,1601382160820,3789,3788,3777,0,0,0,13,,,,,,,0,0,0,99.0,-13.0,605.0,-87.0,0.0,603.0,14,399.0,113.02,5875.92,58.0,97.0,0.0,0,,,100,100,0,1,0,0,0,1,0,,,,,0.0,0.0,0,LSS,265.72290017028206,195.26619765333209,39.891485528150355,9.719723291608338,5.898332652306587,-0.0005746637594566213,0
51.516734,5.850962,39.9,0.0,11.22,576.37,40.1,40.1,17.28,991.14,705173,2020-09-29 12:22:41.820,2020-09-29 14:22:41.821,18,0,0,11.487,51.519506,5.857977,5.8,9.6,0.0,-11.2,-1.2,60.7,0,1,0,58,100,-7116,2126,11487,3071.5,8,WP,1,0,0,0,0,0,0,1601382161820,3789,3788,3777,0,0,0,13,,,,,,,0,0,0,112.0,-12.0,607.0,-87.0,0.0,603.0,14,399.0,112.16,5763.69,58.0,96.0,0.0,0,,,100,100,0,1,0,0,0,1,0,,,,,0.0,0.0,0,LSS,275.30193887340727,201.05216778593837,39.890900236099526,9.580849483677621,5.787063887681052,-0.0005854026919376879,0
51.516786,5.851101,39.9,0.0,11.22,565.14,40.1,40.1,17.28,991.14,706176,2020-09-29 12:22:42.823,2020-09-29 14:22:42.823,18,0,0,11.487,51.519506,5.857977,5.8,9.6,0.0,-10.0,-1.5,60.4,0,1,0,58,100,-7116,2126,11487,3071.5,8,WP,1,0,0,0,0,0,0,1601382162823,3789,3788,3777,0,0,0,13,,,,,,,0,0,0,100.0,-15.0,604.0,-87.0,0.0,603.0,14,399.0,112.16,5651.35,58.0,96.0,0.0,0,,,100,100,0,1,0,0,0,1,0,,,,,0.0,0.0,0,LSS,284.95037119645906,206.83815992247685,39.89029223946264,9.650256221477653,5.787085895772783,-0.0006081115699739898,0
51.516838,5.85124,39.9,0.0,11.22,553.92,40.1,40.1,17.28,991.14,707174,2020-09-29 12:22:43.822,2020-09-29 14:22:43.822,18,0,0,11.465,51.519506,5.857977,5.8,9.6,0.0,-9.7,-0.9,60.4,0,1,0,58,100,-7084,2120,11465,3071.5,8,WP,1,0,0,0,0,0,0,1601382163821,3789,3788,3777,0,0,0,13,,,,,,,0,0,0,97.0,-9.0,604.0,-87.0,0.0,603.0,14,399.0,112.16,5539.19,58.0,96.0,0.0,0,,,100,100,0,1,0,0,0,1,0,,,,,0.0,0.0,0,LSS,294.5987815436817,212.6241704315533,39.88966442761628,9.650234241494278,5.787104271783815,-0.0006279305252262304,0
51.516891,5.851378,39.9,0.0,11.22,542.7,40.1,40.1,17.28,991.14,708187,2020-09-29 12:22:44.835,2020-09-29 14:22:44.835,18,0,0,11.465,51.519506,5.857977,5.8,9.6,0.0,-9.9,-0.1,60.5,0,1,0,58,100,-7084,2120,11465,3071.5,8,WP,1,0,0,0,0,0,0,1601382164834,3789,3788,3777,0,0,0,13,,,,,,,0,0,0,99.0,-1.0,605.0,-87.0,0.0,603.0,14,399.0,112.16,5427.0,58.0,96.0,0.0,0,,,100,100,0,1,0,0,0,1,0,,,,,0.0,0.0,0,LSS,304.17774797502386,218.52145401147843,39.889016289299036,9.580777198232633,5.898398377218424,-0.0006482608385441238,0
51.516943,5.851517,39.8,0.0,11.16,531.45,40.1,40.1,17.28,991.14,709186,2020-09-29 12:22:45.833,2020-09-29 14:22:45.833,18,0,0,11.571,51.519506,5.857977,5.7,9.6,0.0,-9.7,-1.1,60.5,0,1,0,58,100,-6472,2118,11571,3071.5,8,WP,1,0,0,0,0,0,0,1601382165833,3789,3788,3777,0,0,0,13,,,,,,,0,0,0,97.0,-11.0,605.0,-87.0,0.0,603.0,14,398.0,111.65,5314.51,57.0,96.0,0.0,0,,,100,100,0,1,0,0,0,1,0,,,,,0.0,0.0,0,LSS,313.8261093281712,224.3074976170853,39.78834884718077,9.650185238157334,5.787137374570658,-0.10068647186144698,0
51.516994,5.851655,39.8,0.0,11.08,520.3,40.1,40.1,17.28,991.14,710185,2020-09-29 12:22:46.833,2020-09-29 14:22:46.833,18,0,0,11.571,51.519506,5.857977,5.7,9.5,0.0,-10.9,-0.5,60.6,0,1,0,58,100,-6472,2118,11571,3071.5,8,WP,1,0,0,0,0,0,0,1601382166832,3789,3788,3777,0,0,0,13,,,,,,,0,0,0,109.0,-5.0,606.0,-87.0,0.0,603.0,14,398.0,110.79,5202.97,57.0,95.0,0.0,0,,,100,100,0,1,0,0,0,1,0,,,,,0.0,0.0,0,LSS,323.4050454278634,229.98229975368446,39.787669115511804,9.580746860848915,5.675874876950913,-0.0006798601625377848,0
51.517046,5.851793,39.8,0.0,11.08,509.14,40.1,40.1,17.28,991.14,711184,2020-09-29 12:22:47.831,2020-09-29 14:22:47.831,18,0,0,11.487,51.519506,5.857977,5.7,9.5,0.0,-11.1,-0.2,60.6,0,1,0,57,100,-6800,2112,11487,3071.5,8,WP,1,0,0,0,0,0,0,1601382167831,3789,3788,3777,0,0,0,13,,,,,,,0,0,0,111.0,-2.0,606.0,-87.0,0.0,603.0,14,398.0,110.79,5091.41,57.0,95.0,0.0,0,,,100,100,0,1,0,0,0,1,0,,,,,0.0,0.0,0,LSS,332.9839528374391,235.76837885166753,39.7869658644137,9.580718165308964,5.787172873656198,-0.0007033840376851093,0
51.517097,5.85193,39.9,0.0,11.16,498.01,40.1,40.1,17.28,991.14,712178,2020-09-29 12:22:48.825,2020-09-29 14:22:48.826,18,0,0,11.487,51.519506,5.857977,5.7,9.6,0.0,-11.5,-0.3,60.5,0,1,0,57,100,-6800,2112,11487,3071.5,8,WP,1,0,0,0,0,0,0,1601382168825,3792,3791,3780,0,0,0,13,,,,,,,0,0,0,115.0,-3.0,605.0,-87.0,0.0,603.0,14,399.0,111.65,4980.07,57.0,96.0,0.0,0,,,100,100,0,1,0,0,0,1,0,,,,,0.0,0.0,0,LSS,342.4934363257688,241.44321631288568,39.88625093899364,9.51128112046146,5.6759102082475055,0.09930384300626692,0
51.517148,5.852069,39.9,0.0,11.16,486.83,40.1,40.1,17.28,991.14,713193,2020-09-29 12:22:49.841,2020-09-29 14:22:49.841,18,0,0,11.339,51.519506,5.857977,5.7,9.6,0.0,-11.9,-1.4,60.5,0,1,0,57,100,-6912,2112,11339,3071.5,8,WP,1,0,0,0,0,0,0,1601382169840,3792,3791,3780,0,0,0,13,,,,,,,0,0,0,119.0,-14.0,605.0,-87.0,0.0,603.0,14,399.0,111.65,4868.3,57.0,96.0,0.0,0,,,100,100,0,1,0,0,0,1,0,,,,,0.0,0.0,0,LSS,352.14172313471005,247.11807754466446,39.88550916463356,9.65011067985973,5.675933983301621,-0.0007419145819357025,0
51.5172,5.852208,39.8,0.0,11.11,475.62,40.1,40.1,17.28,991.14,714174,2020-09-29 12:22:50.822,2020-09-29 14:22:50.822,18,0,0,11.339,51.519506,5.857977,5.6,9.6,0.0,-12.3,-2.1,60.6,0,1,0,57,100,-6912,2112,11339,3071.5,8,WP,1,0,0,0,0,0,0,1601382170821,3792,3791,3780,0,0,0,13,,,,,,,0,0,0,123.0,-21.0,606.0,-87.0,0.0,603.0,14,398.0,111.14,4756.17,56.0,96.0,0.0,0,,,100,100,0,1,0,0,0,1,0,,,,,0.0,0.0,0,LSS,361.78997480681124,252.9042120368367,39.78474336181861,9.650075536377571,5.78722827831684,-0.10078485115181554,0
51.517251,5.852346,39.9,0.0,11.16,464.49,40.1,40.1,17.28,991.14,715172,2020-09-29 12:22:51.820,2020-09-29 14:22:51.820,18,0,0,11.381,51.519506,5.857977,5.7,9.6,0.0,-13.2,-2.1,60.5,0,1,0,57,100,-7044,2106,11381,3071.5,8,WP,1,0,0,0,0,0,0,1601382171819,3792,3791,3780,0,0,0,13,,,,,,,0,0,0,132.0,-21.0,605.0,-87.0,0.0,603.0,14,399.0,111.65,4644.89,57.0,96.0,0.0,0,,,100,100,0,1,0,0,0,1,0,,,,,0.0,0.0,0,LSS,371.36880922721394,258.57910890272245,39.883966291624276,9.580645162338381,5.675969624144719,0.09924168648440838,0
51.517303,5.852485,39.9,0.0,11.16,453.23,40.1,40.1,17.28,991.14,716174,2020-09-29 12:22:52.821,2020-09-29 14:22:52.821,18,0,0,11.381,51.519506,5.857977,5.7,9.6,0.0,-12.0,-1.8,60.6,0,1,0,57,100,-7044,2106,11381,3071.5,8,WP,1,0,0,0,0,0,0,1601382172821,3792,3791,3780,0,0,0,13,,,,,,,0,0,0,120.0,-18.0,606.0,-87.0,0.0,603.0,14,399.0,111.65,4532.33,57.0,96.0,0.0,0,,,100,100,0,1,0,0,0,1,0,,,,,0.0,0.0,0,LSS,381.01702289738324,264.365283974546,39.883161062521864,9.65003752726195,5.787268865639156,-0.000805381319480813,0
51.517355,5.852624,39.9,0.0,11.22,441.99,40.1,40.1,17.28,991.14,717204,2020-09-29 12:22:53.851,2020-09-29 14:22:53.851,18,0,0,11.36,51.519506,5.857977,5.8,9.6,0.0,-12.5,-0.8,60.5,0,1,0,57,100,-7188,2101,11360,3071.5,8,WP,1,0,0,0,0,0,0,1601382173851,3792,3791,3780,0,0,0,13,,,,,,,0,0,0,125.0,-8.0,605.0,-87.0,0.0,603.0,14,399.0,112.16,4419.91,58.0,96.0,0.0,0,,,100,100,0,1,0,0,0,1,0,,,,,0.0,0.0,0,LSS,390.66521459116035,270.15147741925915,39.88233601555088,9.650015546715437,5.787287242001887,-0.0008252029343424323,0
51.517408,5.852763,39.9,0.0,11.22,430.73,40.1,40.1,17.28,991.14,718203,2020-09-29 12:22:54.850,2020-09-29 14:22:54.850,18,0,0,11.36,51.519506,5.857977,5.8,9.6,0.0,-11.0,-0.3,60.4,0,1,0,57,100,-7188,2101,11360,3071.5,8,WP,1,0,0,0,0,0,0,1601382174850,3792,3791,3780,0,0,0,13,,,,,,,0,0,0,110.0,-3.0,604.0,-87.0,0.0,603.0,14,399.0,112.16,4307.26,58.0,96.0,0.0,0,,,100,100,0,1,0,0,0,1,0,,,,,0.0,0.0,0,LSS,400.3133755421751,276.04894809854585,39.881486337249356,9.649984798141594,5.898585511948457,-0.000849838921076468,0
51.51746,5.852902,39.9,0.0,11.16,419.45,40.1,40.1,17.28,991.14,719203,2020-09-29 12:22:55.850,2020-09-29 14:22:55.850,18,0,0,11.402,51.519506,5.857977,5.7,9.6,0.0,-11.2,-0.6,60.5,0,1,0,57,100,-7152,2099,11402,3071.5,8,WP,1,0,0,0,0,0,0,1601382175850,3792,3791,3780,0,0,0,13,,,,,,,0,0,0,112.0,-6.0,605.0,-87.0,0.0,603.0,14,399.0,111.65,4194.52,57.0,96.0,0.0,0,,,100,100,0,1,0,0,0,1,0,,,,,0.0,0.0,0,LSS,409.96152307121986,281.8351782880291,39.880621558971455,9.649971373634381,5.787323993718076,-0.0008649417518918761,0
51.517511,5.853041,39.9,0.0,11.16,408.27,40.1,40.1,17.28,991.14,720177,2020-09-29 12:22:56.825,2020-09-29 14:22:56.825,18,0,0,11.402,51.519506,5.857977,5.7,9.6,0.0,-11.7,-1.3,60.5,0,1,0,57,100,-7152,2099,11402,3071.5,8,WP,1,0,0,0,0,0,0,1601382176824,3792,3791,3780,0,0,0,13,,,,,,,0,0,0,117.0,-13.0,605.0,-87.0,0.0,603.0,14,399.0,111.65,4082.67,57.0,96.0,0.0,0,,,100,100,0,1,0,0,0,1,0,,,,,0.0,0.0,0,LSS,419.6096578123364,287.51016798678336,39.8797419824668,9.649958583288806,5.676062474561938,-0.0008797427760432023,0
51.517563,5.85318,39.9,0.0,11.16,397.01,40.1,40.1,17.28,991.14,721188,2020-09-29 12:22:57.835,2020-09-29 14:22:57.835,18,0,0,11.36,51.519506,5.857977,5.7,9.6,0.0,-10.8,-0.5,60.4,0,1,0,57,100,-7132,2093,11360,3071.5,8,WP,1,0,0,0,0,0,0,1601382177835,3792,3791,3780,0,0,0,13,,,,,,,0,0,0,108.0,-5.0,604.0,-87.0,0.0,603.0,14,399.0,111.65,3970.07,57.0,96.0,0.0,0,,,100,100,0,1,0,0,0,1,0,,,,,0.0,0.0,0,LSS,429.2577615990803,293.2964349211536,39.87883767267172,9.649927623064647,5.7873607455511555,-0.0009044807419353902,0
51.517615,5.853318,39.9,0.0,11.16,385.81,40.1,40.1,17.28,991.14,722182,2020-09-29 12:22:58.829,2020-09-29 14:22:58.830,18,0,0,11.36,51.519506,5.857977,5.7,9.6,0.0,-11.3,-0.2,60.4,0,1,0,57,100,-7132,2093,11360,3071.5,8,WP,1,0,0,0,0,0,0,1601382178829,3792,3791,3780,0,0,0,13,,,,,,,0,0,0,113.0,-2.0,604.0,-87.0,0.0,603.0,14,399.0,111.65,3858.1,57.0,96.0,0.0,0,,,75,100,0,1,0,0,0,1,0,,,,,0.0,0.0,0,LSS,438.8364292317522,299.08271423058534,39.877918313345305,9.58047834307875,5.787373122951972,-0.000919533118176515,0
51.517667,5.853456,39.9,0.0,11.16,374.67,40.1,40.1,17.28,991.14,723187,2020-09-29 12:22:59.835,2020-09-29 14:22:59.835,18,0,0,11.423,51.519506,5.857977,5.7,9.6,0.0,-12.5,-0.4,60.4,0,1,0,57,100,-7010,2091,11423,3071.5,8,WP,1,1,0,0,0,0,0,1601382179834,3784,3783,3772,0,0,0,13,,,,,,,0,0,0,125.0,-4.0,604.0,-87.0,0.0,603.0,14,399.0,111.65,3746.72,57.0,96.0,0.0,0,,,100,100,0,1,0,0,0,1,0,,,,,0.0,0.0,0,LSS,448.4150750455805,304.8690116504445,39.87697934719003,9.580456520110603,5.787391236802937,-0.0009391436534250539,0
51.517718,5.853595,39.9,0.0,11.16,363.49,40.1,40.1,17.28,991.14,724175,2020-09-29 12:23:00.823,2020-09-29 14:23:00.823,18,0,0,11.423,51.519506,5.857977,5.7,9.6,0.0,-11.5,-0.9,60.4,0,1,0,57,100,-7010,2091,11423,3071.5,8,WP,1,1,0,0,0,0,0,1601382180822,3784,3783,3772,0,0,0,13,,,,,,,0,0,0,115.0,-9.0,604.0,-87.0,0.0,603.0,14,399.0,111.65,3634.92,57.0,96.0,0.0,0,,,100,100,0,1,0,0,0,1,0,,,,,0.0,0.0,0,LSS,458.06312309028476,310.5440745698152,39.876021217888706,9.649871870487761,5.676135709019707,-0.0009583104219938634,0
51.51777,5.853734,39.9,0.0,11.22,352.26,40.1,40.1,17.28,991.14,725194,2020-09-29 12:23:01.842,2020-09-29 14:23:01.842,18,0,0,11.36,51.519506,5.857977,5.8,9.6,0.0,-10.5,-0.2,60.4,0,1,0,57,100,-7058,2085,11360,3071.5,8,WP,1,1,0,0,0,0,0,1601382181841,3784,3783,3772,0,0,0,13,,,,,,,0,0,0,105.0,-2.0,604.0,-87.0,0.0,603.0,14,399.0,112.16,3522.58,58.0,96.0,0.0,0,,,100,100,0,1,0,0,0,1,0,,,,,0.0,0.0,0,LSS,467.711139338191,316.33041472678445,39.87503795514539,9.649840067679033,5.7874339819918275,-0.0009834486151066467,0
51.517822,5.853873,39.9,0.0,11.22,340.98,40.1,40.1,17.28,991.14,726178,2020-09-29 12:23:02.826,2020-09-29 14:23:02.826,18,0,0,11.36,51.519506,5.857977,5.8,9.6,0.0,-9.8,0.0,60.4,0,1,0,57,100,-7058,2085,11360,3071.5,8,WP,1,1,0,0,0,0,0,1601382182825,3784,3783,3772,0,0,0,13,,,,,,,0,0,0,98.0,0.0,604.0,-215.0,0.0,603.0,14,399.0,112.16,3409.8,58.0,96.0,0.0,0,,,100,100,0,1,0,0,0,1,0,,,,,0.0,0.0,0,LSS,477.3591336088573,322.11677325655796,39.87403487579107,9.649818086284595,5.787452358269221,-0.0010032689721551622,0
51.517874,5.854013,39.9,0.0,11.16,329.73,40.1,40.1,17.28,991.14,727197,2020-09-29 12:23:03.845,2020-09-29 14:23:03.845,18,0,0,11.465,51.519506,5.857977,5.7,9.6,0.0,-10.2,-1.3,60.4,0,1,0,57,100,-6712,2083,11465,3071.5,8,WP,1,1,0,0,0,0,0,1601382183844,3784,3783,3772,0,0,0,13,,,,,,,0,0,0,102.0,-13.0,604.0,-211.0,0.0,603.0,14,399.0,111.65,3297.26,57.0,96.0,0.0,0,,,100,100,0,1,0,0,0,1,0,,,,,0.0,0.0,0,LSS,487.07651968536226,327.9031568122284,39.87300669054639,9.71922300965379,5.7874773888969555,-0.0010283796084240625,0
51.517925,5.854151,39.9,0.0,11.25,318.56,40.1,40.1,17.28,991.14,728173,2020-09-29 12:23:04.820,2020-09-29 14:23:04.820,18,0,0,11.465,51.519506,5.857977,5.7,9.7,0.0,-10.0,-2.3,60.5,0,1,0,57,100,-6712,2083,11465,3071.5,8,WP,1,1,0,0,0,0,0,1601382184820,3784,3783,3772,0,0,0,13,,,,,,,0,0,0,100.0,-23.0,605.0,-207.0,0.0,603.0,14,399.0,112.51,3185.62,57.0,97.0,0.0,0,,,100,100,0,1,0,0,0,1,0,,,,,0.0,0.0,0,LSS,496.6550670941161,333.57828656015204,39.871975092586524,9.580358096434047,5.676202550205609,-0.00103179296873694,0
51.517976,5.854291,39.9,0.0,11.16,307.34,40.1,40.1,17.28,991.14,729178,2020-09-29 12:23:05.825,2020-09-29 14:23:05.825,18,0,0,11.381,51.519506,5.857977,5.7,9.6,0.0,-9.6,-3.1,60.5,0,1,0,56,100,-6986,2076,11381,3071.5,8,WP,1,1,0,0,0,0,0,1601382185825,3784,3783,3772,0,0,0,13,,,,,,,0,0,0,96.0,-31.0,605.0,-207.0,0.0,603.0,14,399.0,111.65,3073.37,57.0,96.0,0.0,0,,,100,100,0,1,0,0,0,1,0,,,,,0.0,0.0,0,LSS,506.3724203592861,339.2534482496476,39.870913089393866,9.719190192116315,5.67623449781564,-0.0010622039492042118,0
51.518028,5.854429,39.9,0.0,11.16,296.16,40.1,40.1,17.28,991.14,730180,2020-09-29 12:23:06.827,2020-09-29 14:23:06.827,18,0,0,11.381,51.519506,5.857977,5.7,9.6,0.0,-10.9,-3.3,60.4,0,1,0,56,100,-6986,2076,11381,3071.5,8,WP,1,1,0,0,0,0,0,1601382186827,3784,3783,3772,0,0,0,13,,,,,,,0,0,0,109.0,-33.0,604.0,-207.0,0.0,602.0,14,399.0,111.65,2961.59,57.0,96.0,0.0,0,,,100,100,0,1,0,0,0,1,0,,,,,0.0,0.0,0,LSS,515.9509135144085,345.03987334662605,39.86983644814168,9.580303832546782,5.7875189380577545,-0.0010768447758458428,0
51.51808,5.854568,39.9,0.0,11.16,284.98,40.1,40.1,17.28,991.14,731186,2020-09-29 12:23:07.833,2020-09-29 14:23:07.833,18,0,0,11.381,51.519506,5.857977,5.7,9.6,0.0,-10.9,-3.0,60.4,0,1,0,56,100,-7140,2074,11381,3071.5,8,WP,1,1,0,0,0,0,0,1601382187833,3784,3783,3772,0,0,0,13,,,,,,,0,0,0,109.0,-30.0,604.0,-207.0,0.0,602.0,14,399.0,111.65,2849.76,57.0,96.0,0.0,0,,,100,100,0,1,0,0,0,1,0,,,,,0.0,0.0,0,LSS,525.598798320158,350.8263237327822,39.868734492877905,9.649708600675055,5.787544232016012,-0.001102163572692893,0
51.518131,5.854706,39.9,0.0,11.16,273.8,40.1,40.1,17.28,991.14,732182,2020-09-29 12:23:08.829,2020-09-29 14:23:08.829,18,0,0,11.381,51.519506,5.857977,5.7,9.6,0.0,-11.0,-2.6,60.6,0,1,0,56,100,-7140,2074,11381,3071.5,8,WP,1,1,0,0,0,0,0,1601382188829,3784,3783,3772,0,0,0,13,,,,,,,0,0,0,110.0,-26.0,606.0,-207.0,0.0,602.0,14,399.0,111.65,2737.97,57.0,96.0,0.0,0,,,100,100,0,1,0,0,0,1,0,,,,,0.0,0.0,0,LSS,535.1772594768399,356.50152630364016,39.86762475822425,9.5802718280574,5.676275386906073,-0.001109944433150915,0
51.518183,5.854844,39.9,0.0,11.16,262.63,40.1,40.1,17.28,991.14,733176,2020-09-29 12:23:09.824,2020-09-29 14:23:09.824,18,0,0,11.381,51.519506,5.857977,5.7,9.6,0.0,-10.5,-3.0,60.7,0,1,0,56,100,-7406,2070,11381,3071.5,8,WP,1,1,0,0,0,0,0,1601382189823,3784,3783,3772,0,0,0,13,,,,,,,0,0,0,105.0,-30.0,607.0,-207.0,0.0,602.0,14,399.0,111.65,2626.27,57.0,96.0,0.0,0,,,100,100,0,1,0,0,0,1,0,,,,,0.0,0.0,0,LSS,544.7556873038899,362.28800585685434,39.86648929351833,9.58023849212496,5.787573404587645,-0.0011356793493219818,0
51.518235,5.854983,39.9,0.0,11.22,251.4,40.1,40.1,17.28,991.14,734188,2020-09-29 12:23:10.836,2020-09-29 14:23:10.836,18,0,0,11.381,51.519506,5.857977,5.8,9.6,0.0,-9.6,-3.3,60.6,0,1,0,56,100,-7406,2070,11381,3071.5,8,WP,1,1,0,0,0,0,0,1601382190835,3779,3778,3767,0,0,0,13,,,,,,,0,0,0,96.0,-33.0,606.0,-207.0,0.0,602.0,14,399.0,112.16,2514.0,58.0,96.0,0.0,0,,,100,100,0,1,0,0,0,1,0,,,,,0.0,0.0,0,LSS,554.4035065454464,368.07451109322636,39.86532820277219,9.649643024088029,5.787599092600524,-0.0011613102337716438,0
51.518287,5.855121,39.9,0.0,11.22,240.23,40.1,40.1,17.28,991.14,735176,2020-09-29 12:23:11.823,2020-09-29 14:23:11.823,18,0,0,11.423,51.519506,5.857977,5.8,9.6,0.0,-10.8,-3.0,60.5,0,1,0,56,100,-7358,2064,11423,3071.5,8,WP,1,1,0,0,0,0,0,1601382191823,3779,3778,3767,0,0,0,13,,,,,,,0,0,0,108.0,-30.0,605.0,-207.0,0.0,602.0,14,399.0,112.16,2402.31,58.0,96.0,0.0,0,,,100,100,0,1,0,0,0,1,0,,,,,0.0,0.0,0,LSS,563.9818906538471,373.861026995221,39.864153421516704,9.580194765211393,5.787609760239304,-0.001175003331115449,0
51.518339,5.855259,39.9,0.0,11.16,229.07,40.1,40.1,17.28,991.14,736184,2020-09-29 12:23:12.831,2020-09-29 14:23:12.831,18,0,0,11.423,51.519506,5.857977,5.7,9.6,0.0,-10.9,-4.1,60.8,0,1,0,56,100,-7358,2064,11423,3071.5,8,WP,1,1,0,0,0,0,0,1601382192831,3779,3778,3767,0,0,0,13,,,,,,,0,0,0,109.0,-41.0,608.0,-207.0,0.0,602.0,14,399.0,111.65,2290.71,57.0,96.0,0.0,0,,,100,100,0,1,0,0,0,1,0,,,,,0.0,0.0,0,LSS,573.5602529421457,379.6475610051791,39.862959035391356,9.580172940984381,5.787627871625869,-0.0011946119069989238,0
51.51839,5.855398,39.9,0.0,11.22,217.88,40.1,40.1,17.28,991.14,737177,2020-09-29 12:23:13.824,2020-09-29 14:23:13.825,18,0,0,11.423,51.519506,5.857977,5.8,9.6,0.0,-10.3,-3.5,60.6,0,1,0,56,100,-7768,2062,11423,3071.5,8,WP,1,1,0,0,0,0,0,1601382193824,3779,3778,3767,0,0,0,13,,,,,,,0,0,0,103.0,-35.0,606.0,-207.0,0.0,602.0,14,399.0,112.16,2178.78,58.0,96.0,0.0,0,,,100,100,0,1,0,0,0,1,0,,,,,0.0,0.0,0,LSS,583.2080191794739,385.3228622115266,39.86174543156193,9.649590009840116,5.676374041041269,-0.0012138332439103558,0
51.518442,5.855537,40.0,0.0,11.22,206.66,40.1,40.1,17.28,991.14,738179,2020-09-29 12:23:14.827,2020-09-29 14:23:14.827,18,0,0,11.423,51.519506,5.857977,5.8,9.6,0.0,-10.9,-3.8,60.7,0,1,0,56,100,-7768,2062,11423,3071.5,8,WP,1,1,0,0,0,0,0,1601382194826,3779,3778,3767,0,0,0,13,,,,,,,0,0,0,109.0,-38.0,607.0,-207.0,0.0,602.0,14,400.0,112.16,2066.61,58.0,96.0,0.0,0,,,100,100,0,1,0,0,0,1,0,,,,,0.0,0.0,0,LSS,592.8557601539845,391.1094468033277,39.960505388908416,9.649564742246897,5.787678463030614,0.09877862650689749,0
51.518495,5.855676,40.0,0.0,11.22,195.43,40.1,40.1,17.28,991.14,739190,2020-09-29 12:23:15.838,2020-09-29 14:23:15.838,18,0,0,11.423,51.519506,5.857977,5.8,9.6,0.0,-10.5,-2.8,60.6,0,1,0,56,100,-8504,2053,11423,3071.5,8,WP,1,1,0,0,0,0,0,1601382195837,3779,3778,3767,0,0,0,13,,,,,,,0,0,0,105.0,-28.0,606.0,-207.0,0.0,602.0,14,400.0,112.16,1954.33,58.0,96.0,0.0,0,,,100,100,0,1,0,0,0,1,0,,,,,0.0,0.0,0,LSS,602.5034568308618,397.00730260607463,39.95923860444452,9.649520436239666,5.898970708210755,-0.001267023931417093,0
51.518547,5.855815,40.0,0.0,11.22,184.17,40.1,40.1,17.28,991.14,740184,2020-09-29 12:23:16.832,2020-09-29 14:23:16.832,18,0,0,11.423,51.519506,5.857977,5.8,9.6,0.0,-9.0,-3.4,60.6,0,1,0,56,100,-8504,2053,11423,3071.5,8,WP,1,1,0,0,0,0,0,1601382196831,3779,3778,3767,0,0,0,13,,,,,,,0,0,0,90.0,-34.0,606.0,-207.0,0.0,602.0,14,400.0,112.16,1841.72,58.0,96.0,0.0,0,,,100,100,0,1,0,0,0,1,0,,,,,0.0,0.0,0,LSS,612.1511445124154,402.7939178966243,39.95795883062638,9.649511439215646,5.787709167582335,-0.0012800157411155548,0
51.518599,5.855953,40.0,0.0,11.13,173.06,40.1,40.1,17.28,991.14,741176,2020-09-29 12:23:17.823,2020-09-29 14:23:17.823,18,0,0,11.36,51.519506,5.857977,5.8,9.5,0.0,-10.4,-2.9,60.6,0,1,0,56,100,-7742,2051,11360,3071.5,8,WP,1,1,0,0,0,0,0,1601382197823,3779,3778,3767,0,0,0,13,,,,,,,0,0,0,104.0,-29.0,606.0,-207.0,0.0,601.0,14,400.0,111.31,1730.62,58.0,95.0,0.0,0,,,100,100,0,1,0,0,0,1,0,,,,,0.0,0.0,0,LSS,621.7293975334699,408.5805430627245,39.956665996794186,9.580063653084911,5.787719044999685,-0.0012930782239799156,0
51.518651,5.856091,40.0,0.0,11.22,161.91,40.1,40.1,17.28,991.14,742181,2020-09-29 12:23:18.828,2020-09-29 14:23:18.828,18,0,0,11.36,51.519506,5.857977,5.8,9.6,0.0,-10.1,-2.0,60.6,0,1,0,56,100,-7742,2051,11360,3071.5,8,WP,1,1,0,0,0,0,0,1601382198828,3779,3778,3767,0,0,0,13,,,,,,,0,0,0,101.0,-20.0,606.0,-207.0,0.0,601.0,14,400.0,112.16,1619.05,58.0,96.0,0.0,0,,,100,100,0,1,0,0,0,1,0,,,,,0.0,0.0,0,LSS,631.3076287340803,414.36718633690884,39.95535355442675,9.580041828515979,5.78773715650695,-0.0013126904659336127,0
51.518703,5.85623,40.0,0.0,11.16,150.69,40.1,40.1,17.28,991.14,743177,2020-09-29 12:23:19.824,2020-09-29 14:23:19.824,18,0,0,11.233,51.519506,5.857977,5.7,9.6,0.0,-10.1,-2.5,60.6,0,1,0,56,100,-8204,2045,11233,3071.5,8,WP,1,1,0,0,0,0,0,1601382199824,3779,3778,3767,0,0,0,13,,,,,,,0,0,0,101.0,-25.0,606.0,-207.0,0.0,601.0,14,400.0,111.65,1506.86,57.0,96.0,0.0,0,,,100,100,0,1,0,0,0,1,0,,,,,0.0,0.0,0,LSS,640.9552506380824,420.1538564757724,39.95401454669701,9.649445649229813,5.787764026264506,-0.001339260850040818,0
51.518754,5.856368,40.0,0.0,11.16,139.59,40.1,40.1,17.28,991.14,744177,2020-09-29 12:23:20.825,2020-09-29 14:23:20.825,18,0,0,11.233,51.519506,5.857977,5.7,9.6,0.0,-10.4,-2.6,60.6,0,1,0,56,100,-8204,2045,11233,3071.5,8,WP,1,1,0,0,0,0,0,1601382200824,3779,3778,3767,0,0,0,13,,,,,,,0,0,0,104.0,-26.0,606.0,-207.0,0.0,601.0,14,400.0,111.65,1395.87,57.0,96.0,0.0,0,,,100,100,0,1,0,0,0,1,0,,,,,0.0,0.0,0,LSS,650.5334523648474,425.8292772103156,39.952670220973005,9.580012349099066,5.676493591832052,-0.0013445798495971312,0
51.518806,5.856506,40.0,0.0,11.16,128.45,40.1,40.1,17.28,991.14,745178,2020-09-29 12:23:21.826,2020-09-29 14:23:21.826,18,0,0,11.381,51.519506,5.857977,5.7,9.6,0.0,-11.1,-2.9,60.6,0,1,0,56,100,-7884,2043,11381,3071.5,8,WP,1,1,0,0,0,0,0,1601382201825,3768,3766,3753,0,0,0,13,,,,,,,0,0,0,111.0,-29.0,606.0,-207.0,0.0,601.0,14,400.0,111.65,1284.48,57.0,96.0,0.0,0,,,100,100,0,1,0,0,0,1,0,,,,,0.0,0.0,0,LSS,660.1116182346108,431.61597493933925,39.9512989574518,9.57997648531905,5.787791621640162,-0.0013715227390049829,0
51.518858,5.856644,40.0,0.0,11.25,117.35,40.1,40.1,17.28,991.14,746179,2020-09-29 12:23:22.826,2020-09-29 14:23:22.827,18,0,0,11.381,51.519506,5.857977,5.7,9.7,0.0,-11.0,-3.0,60.7,0,1,0,56,100,-7884,2043,11381,3071.5,8,WP,1,1,0,0,0,0,-68,1601382202826,3768,3766,3753,0,0,0,13,,,,,,,0,0,0,110.0,-30.0,607.0,-208.0,0.0,601.0,14,400.0,112.51,1173.46,57.0,97.0,0.0,0,,,100,100,0,1,0,0,0,1,0,,,,,0.0,0.0,0,LSS,669.6897622833769,437.40269077587845,39.949908090606556,9.579954660196925,5.787809732578659,-0.0013911297687678867,0
51.51891,5.856784,39.9,0.0,11.3,106.13,40.1,40.1,17.28,991.14,747173,2020-09-29 12:23:23.821,2020-09-29 14:23:23.821,18,0,0,11.487,51.519506,5.857977,5.8,9.7,0.0,-8.7,-3.0,60.5,0,1,0,55,100,-7452,2037,11487,3071.5,8,WP,1,1,0,0,0,0,-325,1601382203820,3768,3766,3753,0,0,0,13,,,,,,,0,0,0,87.0,-30.0,605.0,-239.0,0.0,601.0,14,399.0,113.02,1061.29,58.0,97.0,0.0,0,,,100,100,0,1,0,0,0,1,0,,,,,0.0,0.0,0,LSS,679.406698299376,443.1894363303272,39.84848286015651,9.718772864070377,5.787839456105975,-0.10144440344229796,0
51.518962,5.856923,39.9,0.0,11.08,95.02,40.1,40.1,17.28,991.14,748178,2020-09-29 12:23:24.825,2020-09-29 14:23:24.825,18,0,0,11.487,51.519506,5.857977,5.7,9.5,0.0,-9.1,-2.4,60.5,0,1,0,55,100,-7452,2037,11487,3071.5,8,WP,1,1,0,0,0,0,-213,1601382204825,3768,3766,3753,0,0,0,13,,,,,,,0,0,0,91.0,-24.0,605.0,-303.0,0.0,601.0,14,399.0,110.79,950.16,57.0,95.0,0.0,0,,,100,100,0,1,0,0,0,1,0,,,,,0.0,0.0,0,LSS,689.0542105275234,448.9761979676663,39.847045087349755,9.649335952642483,5.7878555420365,-0.0014380445971818134,0
51.519013,5.85706,39.9,0.0,11.16,84.06,40.1,40.1,17.28,991.14,749178,2020-09-29 12:23:25.825,2020-09-29 14:23:25.826,18,0,0,11.339,51.519506,5.857977,5.7,9.6,0.0,-10.3,-3.1,60.7,0,1,0,55,100,-6802,2033,11339,3071.5,8,WP,1,1,0,0,0,0,-358,1601382205825,3768,3766,3753,0,0,0,13,,,,,,,0,0,0,103.0,-31.0,607.0,-345.0,0.0,601.0,14,399.0,111.65,840.56,57.0,96.0,0.0,0,,,100,100,0,1,0,0,0,1,0,,,,,0.0,0.0,0,LSS,698.5628919750961,454.6516999949658,39.84561061110037,9.510478928090121,5.676574899955593,-0.0014347474166480536,0
