lat,lon,alt,ultrasonicHeight(m),speed(mps),distance(m),max_altitude(m),max_ascent(m),max_speed(mps),max_distance(m),time(millisecond),datetime(utc),time,satellites,pressure(Pa),temperature(F),voltage(v),home_latitude,home_longitude,velocityX(mps),velocityY(mps),velocityZ(mps),pitch(deg),roll(deg),yaw(deg),powerlevel,isflying,istakingphoto,remainPowerPercent,remainLifePercent,currentCurrent,currentElectricity,currentVoltage,batteryTemperature,dischargeCount,flightmode,isMotorsOn,isTakingVideo,Rc_elevator,Rc_aileron,Rc_throttle,Rc_rudder,Rc_gyro,timestamp,Battery_Cell1,Battery_Cell2,Battery_Cell3,Battery_Cell4,Battery_Cell5,Battery_Cell6,Dronetype,AppVersion,Planename,FlyControllerSerialNumber,RemoteSerialNumber,BatterySerialNumber,CENTER_BATTERY.productDate,CENTER_BATTERY.serialNo,CENTER_BATTERY.fullCapacity,CENTER_BATTERY.productDateRaw,pitchRaw,rollRaw,yawRaw,gimbalPitchRaw,gimbalRollRaw,gimbalYawRaw,flyState,altitudeRaw,speedRaw,distanceRaw,velocityXRaw,velocityYRaw,velocityZRaw,data_reuse,App_Tip,App_Warning,downlinkSignalQuality,uplinkSignalQuality,transmissionChannel,rcModeSwitch,rcHome,rcPause,rcTransform,rcJoystickMode,appMode,FlyControllerSerialNumber_legacy,RemoteSerialNumber_legacy,BatterySerialNumber_legacy,Battery2SerialNumber,frontAvoidDist,backAvoidDist,isBrakingToAvoid,uav_category,x,y,z,vel_x,vel_y,vel_z,track_id
51.5172,5.84775,35.1,0.0,5.85,767.5,35.3,35.3,17.18,781.85,669813,2020-09-30 09:12:19.314,2020-09-30 11:12:19.314,18,0,0,11.529,51.519566,5.858136,2.0,5.5,0.0,-15.2,1.1,74.7,0,1,0,60,100,-7022,2226,11529,3061.5,9,WP,1,0,0,0,0,0,0,1601457139313,3806,3808,3797,0,0,0,13,,,,,,,0,0,0,152.0,11.0,747.0,-163.0,0.0,759.0,14,351.0,58.52,7675.02,20.0,55.0,0.0,0,,,75,75,0,1,0,0,0,1,0,,,,,0.0,0.0,0,LSS,34.70737809376629,55.6295033422198,35.09966303084359,7.1647887542697175,2.575868888075532,-6.608843252736007e-05,0
51.517224,5.847857,35.1,0.0,7.12,759.57,35.3,35.3,17.18,781.85,670868,2020-09-30 09:12:20.368,2020-09-30 11:12:20.368,18,0,0,11.529,51.519566,5.858136,2.4,6.7,-0.1,-15.6,0.9,74.5,0,1,0,60,100,-7022,2226,11529,3061.5,9,WP,1,0,0,0,0,0,0,1601457140368,3806,3808,3797,0,0,0,13,,,,,,,0,0,0,156.0,9.0,745.0,-163.0,0.0,757.0,14,351.0,71.18,7595.7,24.0,67.0,-1.0,0,,,75,75,0,1,0,0,0,1,0,,,,,0.0,0.0,0,LSS,42.13473486151373,58.299770097436635,35.09959452046827,7.1647887542697175,2.575868888075532,-6.608843252736007e-05,0
51.517249,5.84796,35.1,0.0,7.84,751.96,35.3,35.3,17.18,781.85,671845,2020-09-30 09:12:21.346,2020-09-30 11:12:21.346,18,0,0,11.508,51.519566,5.858136,2.6,7.4,0.0,-15.7,1.1,74.3,0,1,0,60,100,-6656,2224,11508,3061.5,9,WP,1,0,0,0,0,0,0,1601457141345,3806,3808,3797,0,0,0,13,,,,,,,0,0,0,157.0,11.0,743.0,-163.0,0.0,755.0,14,351.0,78.43,7519.58,26.0,74.0,0.0,0,,,75,75,0,1,0,0,0,1,0,,,,,0.0,0.0,0,LSS,49.28442400987119,61.08130379752609,35.09951734048971,6.896937094649827,2.6832023823822904,-7.445155251599464e-05,0
51.517275,5.848076,35.0,0.0,8.48,743.37,35.3,35.3,17.18,781.85,672890,2020-09-30 09:12:22.391,2020-09-30 11:12:22.391,18,0,0,11.508,51.519566,5.858136,2.8,8.0,0.0,-16.3,2.0,74.4,0,1,0,60,100,-6656,2224,11508,3061.5,9,WP,1,0,0,0,0,0,0,1601457142390,3813,3815,3804,0,0,0,13,,,,,,,0,0,0,163.0,20.0,744.0,-163.0,0.0,754.0,14,350.0,84.76,7433.71,28.0,80.0,0.0,0,,,75,75,0,1,0,0,0,1,0,,,,,0.0,0.0,0,LSS,57.336493545138595,63.974115445229,34.99942180289656,7.767417004310441,2.7905464904667774,-0.09655701274700863,0
51.517304,5.848203,34.9,0.0,8.92,734.0,35.3,35.3,17.18,781.85,673977,2020-09-30 09:12:23.477,2020-09-30 11:12:23.477,18,0,0,11.36,51.519566,5.858136,3.0,8.4,0.0,-15.9,2.2,74.3,0,1,0,60,100,-6634,2222,11360,3061.5,9,WP,1,0,0,0,0,0,0,1601457143477,3813,3815,3804,0,0,0,13,,,,,,,0,0,0,159.0,22.0,743.0,-163.0,0.0,753.0,14,349.0,89.2,7340.03,30.0,84.0,0.0,0,,,75,75,0,1,0,0,0,1,0,,,,,0.0,0.0,0,LSS,66.15210991865041,67.200725979747,34.89930344082322,8.503971335962786,3.1125450944419866,-0.09657903034817607,0
51.517334,5.848328,34.9,0.0,9.18,724.67,35.3,35.3,17.18,781.85,675022,2020-09-30 09:12:24.522,2020-09-30 11:12:24.522,18,0,0,11.36,51.519566,5.858136,3.2,8.6,-0.1,-15.9,3.4,74.2,0,1,0,60,100,-6634,2222,11360,3061.5,9,WP,1,0,0,0,0,0,0,1601457144522,3813,3815,3804,0,0,0,13,,,,,,,0,0,0,159.0,34.0,742.0,-163.0,0.0,752.0,14,349.0,91.77,7246.68,32.0,86.0,-1.0,0,,,75,75,0,1,0,0,0,1,0,,,,,0.0,0.0,0,LSS,74.82888524989849,70.53860955502148,34.899171682316855,8.370038529266067,3.2198844691341164,-0.00012710064888352105,0
51.517365,5.848456,35.0,0.0,9.36,715.17,35.3,35.3,17.18,781.85,676017,2020-09-30 09:12:25.518,2020-09-30 11:12:25.518,18,0,0,11.402,51.519566,5.858136,3.2,8.8,-0.1,-15.5,3.9,74.0,0,1,0,60,100,-7482,2216,11402,3061.5,9,WP,1,0,0,0,0,0,0,1601457145517,3813,3815,3804,0,0,0,13,,,,,,,0,0,0,155.0,39.0,740.0,-163.0,0.0,752.0,14,350.0,93.64,7151.7,32.0,88.0,-1.0,0,,,75,75,0,1,0,0,0,1,0,,,,,0.0,0.0,0,LSS,83.7138921710041,73.98777132816133,34.9990223812813,8.570908825381844,3.3272288186237446,0.0963208295248483,0
51.517395,5.848586,35.1,0.0,9.68,705.56,35.3,35.3,17.18,781.85,677167,2020-09-30 09:12:26.668,2020-09-30 11:12:26.668,18,0,0,11.402,51.519566,5.858136,3.0,9.2,0.0,-15.3,3.7,74.0,0,1,0,60,100,-7482,2216,11402,3061.5,9,WP,1,0,0,0,0,0,0,1601457146667,3813,3815,3804,0,0,0,13,,,,,,,0,0,0,153.0,37.0,740.0,-163.0,0.0,752.0,14,351.0,96.77,7055.63,30.0,92.0,0.0,0,,,75,75,0,1,0,0,0,1,0,,,,,0.0,0.0,0,LSS,92.73771825380912,77.32569251940393,35.09885819987283,8.704820525024445,3.2199207553223035,0.09630647519505611,0
51.517427,5.848747,35.1,0.0,9.85,693.8,35.3,35.3,17.18,781.85,678364,2020-09-30 09:12:27.864,2020-09-30 11:12:27.864,18,0,0,11.402,51.519566,5.858136,2.6,9.5,0.0,-15.8,2.9,74.0,0,1,0,60,100,-7482,2216,11402,3061.5,9,WP,1,0,0,0,0,0,0,1601457147864,3813,3815,3804,0,0,0,13,,,,,,,0,0,0,158.0,29.0,740.0,-163.0,0.0,752.0,14,351.0,98.49,6938.04,26.0,95.0,0.0,0,,,75,75,0,1,0,0,0,1,0,,,,,0.0,0.0,0,LSS,103.91337345757402,80.88618970567654,35.09864208631189,10.780579313657304,3.434628360736695,-0.00020847362789688735,0
51.517452,5.848886,35.0,0.0,10.04,683.83,35.3,35.3,17.18,781.85,679190,2020-09-30 09:12:28.691,2020-09-30 11:12:28.691,18,0,0,11.402,51.519566,5.858136,2.6,9.7,0.0,-15.8,2.0,74.2,0,1,0,60,100,-7482,2216,11402,3061.5,9,WP,1,0,0,0,0,0,0,1601457148690,3813,3815,3804,0,0,0,13,,,,,,,0,0,0,158.0,20.0,742.0,-163.0,0.0,751.0,14,350.0,100.42,6838.33,26.0,97.0,0.0,0,,,75,75,0,1,0,0,0,1,0,,,,,0.0,0.0,0,LSS,113.56191265444104,83.66786436465628,34.99844202869334,9.307449109356433,2.6833383581679575,-0.09665783783539708,0
51.517478,5.849034,34.9,0.0,10.36,673.14,35.3,35.3,17.18,781.85,680250,2020-09-30 09:12:29.751,2020-09-30 11:12:29.751,18,0,0,11.613,51.519566,5.858136,2.7,10.0,0.0,-16.2,2.3,74.4,0,1,0,60,100,-6574,2208,11613,3061.5,9,WP,1,0,0,0,0,0,0,1601457149750,3813,3815,3804,0,0,0,13,,,,,,,0,0,0,162.0,23.0,744.0,-163.0,0.0,751.0,14,349.0,103.58,6731.42,27.0,100.0,0.0,0,,,75,75,0,1,0,0,0,1,0,,,,,0.0,0.0,0,LSS,123.83516726869549,86.56083123407161,34.89821260839472,9.91007991558789,2.7906962248627853,-0.09668616250142797,0
51.517506,5.849189,35.0,0.0,10.44,662.01,35.3,35.3,17.18,781.85,681313,2020-09-30 09:12:30.813,2020-09-30 11:12:30.813,18,0,0,11.613,51.519566,5.858136,3.0,10.0,0.0,-14.6,2.6,74.0,0,1,0,60,100,-6574,2208,11613,3061.5,9,WP,1,0,0,0,0,0,0,1601457150813,3813,3815,3804,0,0,0,13,,,,,,,0,0,0,146.0,26.0,740.0,-163.0,0.0,751.0,14,350.0,104.4,6620.12,30.0,100.0,0.0,0,,,75,75,0,1,0,0,0,1,0,,,,,0.0,0.0,0,LSS,134.5943082150321,89.67635201212127,34.997952021849486,10.378789449385001,3.005382524668143,0.09621347812202546,0
51.517532,5.849329,35.0,0.0,9.88,651.87,35.3,35.3,17.18,781.85,682296,2020-09-30 09:12:31.797,2020-09-30 11:12:31.797,18,0,0,11.487,51.519566,5.858136,2.7,9.5,0.0,-16.3,2.6,74.1,0,1,0,60,100,-6734,2203,11487,3061.5,9,WP,1,0,0,0,0,0,0,1601457151796,3813,3815,3804,0,0,0,13,,,,,,,0,0,0,163.0,26.0,741.0,-163.0,0.0,751.0,14,350.0,98.76,6518.68,27.0,95.0,0.0,0,,,75,75,0,1,0,0,0,1,0,,,,,0.0,0.0,0,LSS,144.31222663840234,92.56934699138043,34.99769862913962,9.374375677902155,2.7907233409821828,-0.0002444349039406395,0
51.517557,5.849469,35.0,0.0,9.66,641.79,35.3,35.3,17.18,781.85,683354,2020-09-30 09:12:32.855,2020-09-30 11:12:32.855,18,0,0,11.55,51.519566,5.858136,2.6,9.3,0.0,-15.9,2.2,74.1,0,1,0,60,100,-6950,2212,11550,3061.5,9,WP,1,0,0,0,0,0,0,1601457152854,3813,3815,3804,0,0,0,13,,,,,,,0,0,0,159.0,22.0,741.0,-163.0,0.0,750.0,14,350.0,96.57,6417.88,26.0,93.0,0.0,0,,,75,75,0,1,0,0,0,1,0,,,,,0.0,0.0,0,LSS,154.03013736804402,95.35110179191176,34.997430812458894,9.374368256158254,2.6834156665975315,-0.00025834896616276306,0
51.517582,5.849603,35.0,0.0,9.66,632.11,35.3,35.3,17.18,781.85,684355,2020-09-30 09:12:33.855,2020-09-30 11:12:33.855,18,0,0,11.444,51.519566,5.858136,2.6,9.3,0.0,-16.2,1.6,74.2,0,1,0,60,100,-8664,2197,11444,3061.5,9,WP,1,0,0,0,0,0,0,1601457153855,3789,3791,3780,0,0,0,13,,,,,,,0,0,0,162.0,16.0,742.0,-163.0,0.0,750.0,14,350.0,96.57,6321.14,26.0,93.0,0.0,0,,,75,75,0,1,0,0,0,1,0,,,,,0.0,0.0,0,LSS,163.3315524099644,98.13286178653843,34.99715766503359,8.972596305126396,2.6834206770739395,-0.0002634912610598712,0
51.517609,5.849752,35.1,0.0,9.75,621.38,35.3,35.3,17.18,781.85,685420,2020-09-30 09:12:34.921,2020-09-30 11:12:34.921,18,0,0,11.444,51.519566,5.858136,2.6,9.4,0.0,-15.6,2.2,74.4,0,1,0,60,100,-8664,2197,11444,3061.5,9,WP,1,0,0,0,0,0,0,1601457154920,3789,3791,3780,0,0,0,13,,,,,,,0,0,0,156.0,22.0,744.0,-163.0,0.0,750.0,14,351.0,97.53,6213.81,26.0,94.0,0.0,0,,,75,75,0,1,0,0,0,1,0,,,,,0.0,0.0,0,LSS,173.67416442306043,101.13719345215092,35.0968380315539,9.976985428112021,2.898124111305485,0.09615651858377086,0
51.517633,5.849888,35.0,0.0,9.88,611.55,35.3,35.3,17.18,781.85,686425,2020-09-30 09:12:35.925,2020-09-30 11:12:35.925,17,0,0,11.339,51.519566,5.858136,2.7,9.5,0.1,-15.2,1.4,74.4,0,1,0,59,100,-8252,2195,11339,3061.5,9,WP,1,0,0,0,0,0,0,1601457155925,3789,3791,3780,0,0,0,13,,,,,,,0,0,0,152.0,14.0,744.0,-163.0,0.0,750.0,14,350.0,98.77,6115.5,27.0,95.0,1.0,0,,,100,100,0,1,0,0,0,1,0,,,,,0.0,0.0,0,LSS,183.11438759992507,103.8077340672344,34.996531605445725,9.106497367825916,2.5761330665920816,-0.09676044604207225,0
51.517659,5.850033,35.0,0.0,10.19,601.11,35.3,35.3,17.18,781.85,687591,2020-09-30 09:12:37.092,2020-09-30 11:12:37.092,18,0,0,11.339,51.519566,5.858136,2.8,9.8,0.0,-16.0,1.4,74.5,0,1,0,59,100,-8252,2195,11339,3061.5,9,WP,1,0,0,0,0,0,0,1601457157091,3789,3791,3780,0,0,0,13,,,,,,,0,0,0,160.0,14.0,745.0,-163.0,0.0,750.0,14,350.0,101.92,6011.1,28.0,98.0,0.0,0,,,75,100,0,1,0,0,0,1,0,,,,,0.0,0.0,0,LSS,193.17932165254447,106.70083509850721,34.99618754521788,9.709123792978136,2.7908256439007744,-0.00033189719147013754,0
51.517686,5.850185,35.0,0.0,10.6,590.23,35.3,35.3,17.18,781.85,688493,2020-09-30 09:12:37.994,2020-09-30 11:12:37.994,18,0,0,11.423,51.519566,5.858136,2.9,10.2,0.0,-16.1,1.0,74.5,0,1,0,59,100,-7764,2189,11423,3061.5,9,WP,1,0,0,0,0,0,0,1601457157993,3789,3791,3780,0,0,0,13,,,,,,,0,0,0,161.0,10.0,745.0,-163.0,0.0,750.0,14,350.0,106.04,5902.27,29.0,102.0,0.0,0,,,75,75,0,1,0,0,0,1,0,,,,,0.0,0.0,0,LSS,203.73013790565292,109.70523432271466,34.995808938152294,10.177829341240027,2.8981892816044867,-0.00036522274755524455,0
51.517714,5.850338,35.0,0.0,10.95,579.18,35.3,35.3,17.18,781.85,689532,2020-09-30 09:12:39.033,2020-09-30 11:12:39.033,18,0,0,11.423,51.519566,5.858136,3.1,10.5,-0.1,-15.6,1.6,74.4,0,1,0,59,100,-7764,2189,11423,3061.5,9,WP,1,0,0,0,0,0,0,1601457159032,3789,3791,3780,0,0,0,13,,,,,,,0,0,0,156.0,16.0,744.0,-163.0,0.0,750.0,14,350.0,109.49,5791.83,31.0,105.0,-1.0,0,,,75,75,0,1,0,0,0,1,0,,,,,0.0,0.0,0,LSS,214.35035096185777,112.82091718294649,34.995407201745074,10.244772865020442,3.005538877006183,-0.00038753443285876845,0
51.517744,5.850498,35.1,0.0,11.14,567.64,35.3,35.3,17.18,781.85,690612,2020-09-30 09:12:40.113,2020-09-30 11:12:40.113,18,0,0,11.487,51.519566,5.858136,3.1,10.7,0.0,-15.9,1.4,74.4,0,1,0,59,100,-7242,2187,11487,3061.5,9,WP,1,0,0,0,0,0,0,1601457160112,3789,3791,3780,0,0,0,13,,,,,,,0,0,0,159.0,14.0,744.0,-163.0,0.0,750.0,14,351.0,111.4,5676.36,31.0,107.0,0.0,0,,,75,75,0,1,0,0,0,1,0,,,,,0.0,0.0,0,LSS,225.4564421635828,116.1591631820097,35.09496512192156,10.713474501662606,3.220234080707529,0.09603840089875039,0
51.517773,5.85065,35.1,0.0,10.95,556.6,35.3,35.3,17.18,781.85,691575,2020-09-30 09:12:41.075,2020-09-30 11:12:41.075,18,0,0,11.508,51.519566,5.858136,3.1,10.5,0.0,-16.5,1.7,74.2,0,1,0,59,100,-7236,2185,11508,3061.5,9,WP,1,0,0,0,0,0,0,1601457161075,3789,3791,3780,0,0,0,13,,,,,,,0,0,0,165.0,17.0,742.0,-163.0,0.0,749.0,14,351.0,109.48,5565.98,31.0,105.0,0.0,0,,,75,75,0,1,0,0,0,1,0,,,,,0.0,0.0,0,LSS,236.0072095168133,119.38614709627163,35.094524609463264,10.177782170044862,3.112905274661405,-0.0004249396933549689,0
51.517805,5.850817,35.1,0.0,11.04,544.5,35.3,35.3,17.18,781.85,692659,2020-09-30 09:12:42.159,2020-09-30 11:12:42.159,18,0,0,11.508,51.519566,5.858136,3.1,10.6,0.0,-15.7,3.2,74.1,0,1,0,59,100,-7236,2185,11508,3061.5,9,WP,1,0,0,0,0,0,0,1601457162159,3789,3791,3780,0,0,0,13,,,,,,,0,0,0,157.0,32.0,741.0,-163.0,0.0,749.0,14,351.0,110.44,5445.0,31.0,106.0,0.0,0,,,75,75,0,1,0,0,0,1,0,,,,,0.0,0.0,0,LSS,247.59915481590832,122.94697992854503,35.094018365920924,11.182152940292129,3.4349521411564448,-0.0004883470866550966,0
51.517833,5.850968,35.1,0.0,10.63,533.62,35.3,35.3,17.18,781.85,693773,2020-09-30 09:12:43.273,2020-09-30 11:12:43.274,17,0,0,11.592,51.519566,5.858136,3.0,10.2,0.0,-15.6,3.0,74.2,0,1,0,59,100,-6646,2178,11592,3061.5,9,WP,1,0,0,0,0,0,0,1601457163273,3789,3791,3780,0,0,0,13,,,,,,,0,0,0,156.0,30.0,742.0,-163.0,0.0,749.0,14,351.0,106.32,5336.18,30.0,102.0,0.0,0,,,75,75,0,1,0,0,0,1,0,,,,,0.0,0.0,0,LSS,258.0804858685193,126.0627475452242,35.093542869706596,10.11080054503701,3.0056206371881307,-0.00045868672202598856,0
51.517861,5.851113,35.0,0.0,10.41,523.12,35.3,35.3,17.18,781.85,694664,2020-09-30 09:12:44.164,2020-09-30 11:12:44.165,18,0,0,11.592,51.519566,5.858136,2.9,10.0,0.0,-15.8,3.2,74.3,0,1,0,59,100,-6646,2178,11592,3061.5,9,WP,1,0,0,0,0,0,0,1601457164164,3802,3801,3793,0,0,0,13,,,,,,,0,0,0,158.0,32.0,743.0,-163.0,0.0,749.0,14,350.0,104.12,5231.17,29.0,100.0,0.0,0,,,75,75,0,1,0,0,0,1,0,,,,,0.0,0.0,0,LSS,268.14531736245175,129.17851277583844,34.99306614942884,9.709024859891983,3.0056183354741233,-0.09692472006165487,0
51.517888,5.851264,35.1,0.0,10.38,512.28,35.3,35.3,17.18,781.85,695762,2020-09-30 09:12:45.262,2020-09-30 11:12:45.262,18,0,0,11.508,51.519566,5.858136,2.8,10.0,0.0,-12.4,-0.2,74.5,0,1,0,59,100,-8346,2174,11508,3061.5,9,WP,1,0,0,0,0,0,0,1601457165262,3802,3801,3793,0,0,0,13,,,,,,,0,0,0,124.0,-2.0,745.0,-163.0,0.0,749.0,14,351.0,103.85,5122.79,28.0,100.0,0.0,0,,,75,100,0,1,0,0,0,1,0,,,,,0.0,0.0,0,LSS,278.62663325637857,132.18306604799844,35.09255622050588,10.110785922234683,2.8983378837347673,0.09597295036500875,0
51.517916,5.851413,35.1,0.0,9.9,501.46,35.3,35.3,17.18,781.85,696776,2020-09-30 09:12:46.276,2020-09-30 11:12:46.276,18,0,0,11.508,51.519566,5.858136,2.8,9.5,0.0,-11.0,1.3,74.5,0,1,0,59,100,-8346,2174,11508,3061.5,9,WP,1,0,0,0,0,0,0,1601457166276,3802,3801,3793,0,0,0,13,,,,,,,0,0,0,110.0,13.0,745.0,-163.0,0.0,749.0,14,351.0,99.04,5014.61,28.0,95.0,0.0,0,,,75,75,0,1,0,0,0,1,0,,,,,0.0,0.0,0,LSS,288.96909889176186,135.2988898200739,35.092031604777254,9.976844225067252,3.0056748074083637,-0.0005060697890625059,0
51.517943,5.851554,35.1,0.0,9.68,491.24,35.3,35.3,17.18,781.85,697813,2020-09-30 09:12:47.313,2020-09-30 11:12:47.313,18,0,0,11.381,51.519566,5.858136,2.7,9.3,0.0,-12.3,1.0,74.2,0,1,0,59,100,-6726,2168,11381,3061.5,9,WP,1,0,0,0,0,0,0,1601457167313,3802,3801,3793,0,0,0,13,,,,,,,0,0,0,123.0,10.0,742.0,-163.0,0.0,749.0,14,351.0,96.84,4912.39,27.0,93.0,0.0,0,,,75,75,0,1,0,0,0,1,0,,,,,0.0,0.0,0,LSS,298.75624938348915,138.3034431881459,35.09151712716403,9.441160290559166,2.8983379762561503,-0.0004962900709910437,0
51.517969,5.851687,35.0,0.0,9.74,481.62,35.3,35.3,17.18,781.85,698890,2020-09-30 09:12:48.391,2020-09-30 11:12:48.391,18,0,0,11.381,51.519566,5.858136,2.9,9.3,0.0,-14.7,1.9,74.3,0,1,0,59,100,-6726,2168,11381,3061.5,9,WP,1,0,0,0,0,0,0,1601457168390,3802,3801,3793,0,0,0,13,,,,,,,0,0,0,147.0,19.0,743.0,-163.0,0.0,749.0,14,350.0,97.42,4816.15,29.0,93.0,0.0,0,,,75,75,0,1,0,0,0,1,0,,,,,0.0,0.0,0,LSS,307.9880815410982,141.19672072765218,34.99101549720597,8.905473278376402,2.790995912307923,-0.09694874914803238,0
51.517997,5.851834,35.0,0.0,9.81,471.01,35.3,35.3,17.18,781.85,699911,2020-09-30 09:12:49.412,2020-09-30 11:12:49.412,18,0,0,11.487,51.519566,5.858136,2.8,9.4,0.0,-9.4,1.6,74.5,0,1,0,59,100,-6932,2166,11487,3061.5,9,WP,1,0,0,0,0,0,0,1601457169411,3802,3801,3793,0,0,0,13,,,,,,,0,0,0,94.0,16.0,745.0,-163.0,0.0,749.0,14,350.0,98.08,4710.13,28.0,94.0,0.0,0,,,75,75,0,1,0,0,0,1,0,,,,,0.0,0.0,0,LSS,318.1916835724243,144.31259556649772,34.990445877413194,9.842889654169753,3.0057240688928264,-0.0005494828931908229,0
51.518022,5.851969,35.0,0.0,9.62,461.25,35.3,35.3,17.18,781.85,700959,2020-09-30 09:12:50.460,2020-09-30 11:12:50.460,18,0,0,11.487,51.519566,5.858136,2.8,9.2,0.0,-11.8,0.1,74.5,0,1,0,59,100,-6932,2166,11487,3061.5,9,WP,1,0,0,0,0,0,0,1601457170459,3802,3801,3793,0,0,0,13,,,,,,,0,0,0,118.0,1.0,745.0,-163.0,0.0,748.0,14,350.0,96.17,4612.47,28.0,92.0,0.0,0,,,75,100,0,1,0,0,0,1,0,,,,,0.0,0.0,0,LSS,327.56233259835926,147.09466077779348,34.98990889834623,9.03938276571961,2.6837151038837317,-0.0005179960651646168,0
51.518049,5.852102,35.1,0.0,9.71,451.61,35.3,35.3,17.18,781.85,701940,2020-09-30 09:12:51.441,2020-09-30 11:12:51.441,18,0,0,11.55,51.519566,5.858136,2.8,9.3,-0.1,-14.4,0.4,74.4,0,1,0,59,100,-6396,2160,11550,3061.5,9,WP,1,0,0,0,0,0,0,1601457171440,3802,3801,3793,0,0,0,13,,,,,,,0,0,0,144.0,4.0,744.0,-163.0,0.0,748.0,14,351.0,97.13,4516.08,28.0,93.0,-1.0,0,,,100,100,0,1,0,0,0,1,0,,,,,0.0,0.0,0,LSS,336.79413494595815,150.09925401020678,35.089359050459244,8.90544452219404,2.8983764313341944,0.09593444259522736,0
51.518076,5.852241,35.1,0.0,9.59,441.52,35.3,35.3,17.18,781.85,702962,2020-09-30 09:12:52.462,2020-09-30 11:12:52.463,18,0,0,11.55,51.519566,5.858136,2.7,9.2,0.0,-13.7,0.0,74.4,0,1,0,59,100,-6396,2160,11550,3061.5,9,WP,1,0,0,0,0,0,0,1601457172462,3802,3801,3793,0,0,0,13,,,,,,,0,0,0,137.0,0.0,744.0,-163.0,0.0,748.0,14,351.0,95.88,4415.17,27.0,92.0,0.0,0,,,100,100,0,1,0,0,0,1,0,,,,,0.0,0.0,0,LSS,346.44240179539406,153.10389010665352,35.08877188869933,9.307186389808596,2.898417780060855,-0.0005664047259259032,0
51.518103,5.852383,35.0,0.0,9.62,431.28,35.3,35.3,17.18,781.85,704039,2020-09-30 09:12:53.540,2020-09-30 11:12:53.540,18,0,0,11.508,51.519566,5.858136,2.8,9.2,0.0,-12.6,-0.9,74.5,0,1,0,58,100,-6898,2158,11508,3061.5,9,WP,1,0,0,0,0,0,0,1601457173539,3802,3801,3793,0,0,0,13,,,,,,,0,0,0,126.0,-9.0,745.0,-163.0,0.0,748.0,14,350.0,96.17,4312.79,28.0,92.0,0.0,0,,,100,75,0,1,0,0,0,1,0,,,,,0.0,0.0,0,LSS,356.2988918080762,156.1085566896157,34.98815714205323,9.50804855720618,2.898447188833023,-0.09705786699435244,0
51.51813,5.852522,35.0,0.0,9.62,421.2,35.3,35.3,17.18,781.85,705089,2020-09-30 09:12:54.589,2020-09-30 11:12:54.589,18,0,0,11.508,51.519566,5.858136,2.8,9.2,0.0,-10.8,-1.0,74.5,0,1,0,58,100,-6898,2158,11508,3061.5,9,WP,1,0,0,0,0,0,0,1601457174589,3797,3799,3789,0,0,0,13,,,,,,,0,0,0,108.0,-10.0,745.0,-163.0,0.0,747.0,14,350.0,96.17,4211.97,28.0,92.0,0.0,0,,,75,75,0,1,0,0,0,1,0,,,,,0.0,0.0,0,LSS,365.9471355598056,159.11322980501745,34.98753770463195,9.307164108640077,2.898453490341209,-0.0005975393950740613,0
51.518156,5.852654,35.0,0.0,9.62,411.59,35.3,35.3,17.18,781.85,706064,2020-09-30 09:12:55.565,2020-09-30 11:12:55.565,18,0,0,11.55,51.519566,5.858136,2.8,9.2,0.0,-15.0,0.1,74.7,0,1,0,58,100,-7076,2155,11550,3061.5,9,WP,1,0,0,0,0,0,0,1601457175564,3797,3799,3789,0,0,0,13,,,,,,,0,0,0,150.0,1.0,747.0,-163.0,0.0,747.0,14,350.0,96.17,4115.93,28.0,92.0,0.0,0,,,75,75,0,1,0,0,0,1,0,,,,,0.0,0.0,0,LSS,375.10948301334827,162.00662656847933,34.98693365123897,8.8384449610549,2.791110921520903,-0.000582699214849714,0
51.518182,5.852791,34.8,0.0,9.71,401.69,35.3,35.3,17.18,781.85,707085,2020-09-30 09:12:56.586,2020-09-30 11:12:56.586,18,0,0,11.55,51.519566,5.858136,2.8,9.3,0.0,-13.7,0.0,74.5,0,1,0,58,100,-7076,2155,11550,3061.5,9,WP,1,0,0,0,0,0,0,1601457176585,3797,3799,3789,0,0,0,13,,,,,,,0,0,0,137.0,0.0,745.0,-163.0,0.0,747.0,14,348.0,97.12,4016.86,28.0,93.0,0.0,0,,,75,75,0,1,0,0,0,1,0,,,,,0.0,0.0,0,LSS,384.6188743058313,164.90006095784025,34.78629427185133,9.173220288567883,2.791147217288932,-0.19354648148081113,0
51.518211,5.852933,34.9,0.0,9.33,391.4,35.3,35.3,17.18,781.85,708166,2020-09-30 09:12:57.667,2020-09-30 11:12:57.667,18,0,0,11.444,51.519566,5.858136,2.8,8.9,-0.1,-15.7,1.2,74.4,0,1,0,58,100,-7058,2149,11444,3061.5,9,WP,1,0,0,0,0,0,0,1601457177666,3797,3799,3789,0,0,0,13,,,,,,,0,0,0,157.0,12.0,744.0,-163.0,0.0,747.0,14,349.0,93.31,3914.03,28.0,89.0,-1.0,0,,,75,100,0,1,0,0,0,1,0,,,,,0.0,0.0,0,LSS,394.4753128631064,168.12732417811466,34.885609226665466,9.507998920823686,3.1131747067945104,0.09580402472021161,0
51.518238,5.853061,35.1,0.0,9.33,381.96,35.3,35.3,17.18,781.85,709149,2020-09-30 09:12:58.649,2020-09-30 11:12:58.649,17,0,0,11.444,51.519566,5.858136,2.8,8.9,0.0,-15.4,2.9,74.4,0,1,0,58,100,-7058,2149,11444,3061.5,9,WP,1,0,0,0,0,0,0,1601457178649,3797,3799,3789,0,0,0,13,,,,,,,0,0,0,154.0,29.0,744.0,-163.0,0.0,747.0,14,351.0,93.3,3819.65,28.0,89.0,0.0,0,,,100,100,0,1,0,0,0,1,0,,,,,0.0,0.0,0,LSS,403.3599787501663,171.13201449257832,35.08497472740963,8.570579847392501,2.898470081390925,0.19231763632573534,0
51.518265,5.853195,35.0,0.0,9.3,372.31,35.3,35.3,17.18,781.85,710242,2020-09-30 09:12:59.742,2020-09-30 11:12:59.742,18,0,0,11.55,51.519566,5.858136,2.7,8.9,0.0,-15.8,1.9,74.4,0,1,0,58,100,-7534,2145,11550,3061.5,9,WP,1,0,0,0,0,0,0,1601457179742,3797,3799,3789,0,0,0,13,,,,,,,0,0,0,158.0,19.0,744.0,-163.0,0.0,747.0,14,350.0,93.01,3723.14,27.0,89.0,0.0,0,,,100,100,0,1,0,0,0,1,0,,,,,0.0,0.0,0,LSS,412.66109414912233,174.13674616102415,34.98429958735893,8.972307254982677,2.898509973448848,-0.09711612540305148,0
51.51829,5.853329,35.0,0.0,9.2,362.61,35.3,35.3,17.18,781.85,711268,2020-09-30 09:13:00.768,2020-09-30 11:13:00.768,18,0,0,11.55,51.519566,5.858136,2.7,8.8,0.0,-16.1,1.9,74.2,0,1,0,58,100,-7534,2145,11550,3061.5,9,WP,1,0,0,0,0,0,0,1601457180768,3797,3799,3789,0,0,0,13,,,,,,,0,0,0,161.0,19.0,742.0,-163.0,0.0,747.0,14,350.0,92.05,3626.07,27.0,88.0,0.0,0,,,100,100,0,1,0,0,0,1,0,,,,,0.0,0.0,0,LSS,421.9622233387467,176.91897997039175,34.98361567196589,8.972320558130551,2.6838777417651296,-0.000659737975453577,0
51.518317,5.853461,35.1,0.0,9.23,353.03,35.3,35.3,17.18,781.85,712285,2020-09-30 09:13:01.785,2020-09-30 11:13:01.785,18,0,0,11.487,51.519566,5.858136,2.8,8.8,0.0,-15.8,2.0,74.2,0,1,0,58,100,-8056,2141,11487,3061.5,9,WP,1,0,0,0,0,0,0,1601457181785,3797,3799,3789,0,0,0,13,,,,,,,0,0,0,158.0,20.0,742.0,-163.0,0.0,747.0,14,351.0,92.35,3530.26,28.0,88.0,0.0,0,,,100,100,0,1,0,0,0,1,0,,,,,0.0,0.0,0,LSS,431.1245040848678,179.92373944596164,35.08292009712672,8.838380611839032,2.89853679755008,0.09579386730567294,0
51.518342,5.853588,35.1,0.0,9.27,343.83,35.3,35.3,17.18,781.85,713315,2020-09-30 09:13:02.815,2020-09-30 11:13:02.815,18,0,0,11.487,51.519566,5.858136,2.9,8.8,0.0,-16.1,2.3,74.3,0,1,0,58,100,-8056,2141,11487,3061.5,9,WP,1,0,0,0,0,0,0,1601457182815,3797,3799,3789,0,0,0,13,,,,,,,0,0,0,161.0,23.0,743.0,-163.0,0.0,747.0,14,351.0,92.66,3438.26,29.0,88.0,0.0,0,,,100,100,0,1,0,0,0,1,0,,,,,0.0,0.0,0,LSS,439.9397215758685,182.70596502659416,35.08224025214281,8.503586554536577,2.6838698039279647,-0.0006558114612850071,0
51.518368,5.853715,35.2,0.0,9.27,334.55,35.3,35.3,17.18,781.85,714281,2020-09-30 09:13:03.782,2020-09-30 11:13:03.782,18,0,0,11.571,51.519566,5.858136,2.9,8.8,0.0,-16.0,3.0,74.4,0,1,0,58,100,-7888,2137,11571,3061.5,9,WP,1,0,0,0,0,0,0,1601457183781,3797,3799,3789,0,0,0,13,,,,,,,0,0,0,160.0,30.0,744.0,-163.0,0.0,748.0,14,352.0,92.66,3345.51,29.0,88.0,0.0,0,,,100,100,0,1,0,0,0,1,0,,,,,0.0,0.0,0,LSS,448.75492660603777,185.5994676226725,35.18154379865736,8.503574534213955,2.7912130127983286,0.09579301972083862,0
51.518397,5.853855,35.1,0.0,9.23,324.39,35.3,35.3,17.18,781.85,715388,2020-09-30 09:13:04.889,2020-09-30 11:13:04.889,17,0,0,11.571,51.519566,5.858136,2.8,8.8,0.0,-15.4,2.7,74.1,0,1,0,58,100,-7888,2137,11571,3061.5,9,WP,1,0,0,0,0,0,0,1601457184888,3797,3799,3789,0,0,0,13,,,,,,,0,0,0,154.0,27.0,741.0,-163.0,0.0,748.0,14,351.0,92.35,3243.9,28.0,88.0,0.0,0,,,100,100,0,1,0,0,0,1,0,,,,,0.0,0.0,0,LSS,458.47244566225487,188.82683744100925,35.08075932683742,9.373990428966755,3.1132775364581575,-0.09722159213303573,0
51.518422,5.853981,35.1,0.0,9.11,315.29,35.3,35.3,17.18,781.85,716388,2020-09-30 09:13:05.888,2020-09-30 11:13:05.888,18,0,0,11.487,51.519566,5.858136,2.7,8.7,0.0,-15.7,2.3,74.4,0,1,0,58,100,-8054,2128,11487,3061.5,9,WP,1,0,0,0,0,0,0,1601457185888,3782,3784,3773,0,0,0,13,,,,,,,0,0,0,157.0,23.0,744.0,-163.0,0.0,748.0,14,351.0,91.09,3152.94,27.0,87.0,0.0,0,,,100,100,0,1,0,0,0,1,0,,,,,0.0,0.0,0,LSS,467.218219831098,191.60910412719227,35.080042952174296,8.43659815621241,2.683909456336652,-0.0006910497624821125,0
51.518448,5.854111,35.1,0.0,9.11,305.85,35.3,35.3,17.18,781.85,717436,2020-09-30 09:13:06.936,2020-09-30 11:13:06.936,18,0,0,11.487,51.519566,5.858136,2.7,8.7,0.0,-15.9,2.5,74.2,0,1,0,58,100,-8054,2128,11487,3061.5,9,WP,1,0,0,0,0,0,0,1601457186936,3782,3784,3773,0,0,0,13,,,,,,,0,0,0,159.0,25.0,742.0,-163.0,0.0,748.0,14,351.0,91.09,3058.48,27.0,87.0,0.0,0,,,100,100,0,1,0,0,0,1,0,,,,,0.0,0.0,0,LSS,476.24162543243847,194.50267069539296,35.07928931970919,8.704414908199677,2.791274723411824,-0.0007269904462228943,0
51.518473,5.854244,35.1,0.0,9.3,296.28,35.3,35.3,17.18,781.85,718472,2020-09-30 09:13:07.972,2020-09-30 11:13:07.973,18,0,0,11.423,51.519566,5.858136,2.7,8.9,0.0,-16.0,2.1,74.2,0,1,0,58,100,-7950,2126,11423,3061.5,9,WP,1,0,0,0,0,0,0,1601457187972,3782,3784,3773,0,0,0,13,,,,,,,0,0,0,160.0,21.0,742.0,-163.0,0.0,748.0,14,351.0,93.01,2962.76,27.0,89.0,0.0,0,,,100,100,0,1,0,0,0,1,0,,,,,0.0,0.0,0,LSS,485.47326984415713,197.2850143974871,35.07850926482617,8.905292169580061,2.6839837496217362,-0.0007524787927069099,0
51.518499,5.854376,35.1,0.0,9.4,286.73,35.3,35.3,17.18,781.85,719488,2020-09-30 09:13:08.988,2020-09-30 11:13:08.988,18,0,0,11.423,51.519566,5.858136,2.7,9.0,0.0,-15.7,1.7,74.3,0,1,0,58,100,-7950,2126,11423,3061.5,9,WP,1,0,0,0,0,0,0,1601457188988,3782,3784,3773,0,0,0,13,,,,,,,0,0,0,157.0,17.0,743.0,-163.0,0.0,748.0,14,351.0,93.96,2867.35,27.0,90.0,0.0,0,,,100,100,0,1,0,0,0,1,0,,,,,0.0,0.0,0,LSS,494.6354805299839,200.1786269270672,35.07771653931714,8.838313028279421,2.7913190599887043,-0.0007647014934007659,0
51.518524,5.854512,35.1,0.0,9.59,276.96,35.3,35.3,17.18,781.85,720562,2020-09-30 09:13:10.063,2020-09-30 11:13:10.063,18,0,0,11.465,51.519566,5.858136,2.7,9.2,0.0,-16.3,1.2,74.4,0,1,0,58,100,-7948,2124,11465,3061.5,9,WP,1,0,0,0,0,0,0,1601457190062,3782,3784,3773,0,0,0,13,,,,,,,0,0,0,163.0,12.0,744.0,-163.0,0.0,748.0,14,351.0,95.88,2769.57,27.0,92.0,0.0,0,,,100,100,0,1,0,0,0,1,0,,,,,0.0,0.0,0,LSS,504.0753427842343,202.96102473167682,35.07689101707088,9.106149204358267,2.6840359395335303,-0.0007963388176104543,0
51.518549,5.854647,35.1,0.0,9.78,267.31,35.3,35.3,17.18,781.85,721531,2020-09-30 09:13:11.032,2020-09-30 11:13:11.032,17,0,0,11.55,51.519566,5.858136,2.7,9.4,0.0,-16.3,0.5,74.4,0,1,0,57,100,-7352,2118,11550,3061.5,9,WP,1,0,0,0,0,0,0,1601457191031,3782,3784,3773,0,0,0,13,,,,,,,0,0,0,163.0,5.0,744.0,-163.0,0.0,748.0,14,351.0,97.8,2673.11,27.0,94.0,0.0,0,,,100,100,0,1,0,0,0,1,0,,,,,0.0,0.0,0,LSS,513.445781993915,205.74343307388534,35.076055915017974,9.039180366779375,2.684046104612782,-0.0008055799639639919,0
51.518576,5.854799,35.1,0.0,10.0,256.49,35.3,35.3,17.18,781.85,722644,2020-09-30 09:13:12.145,2020-09-30 11:13:12.145,18,0,0,11.55,51.519566,5.858136,2.8,9.6,0.0,-16.2,0.1,74.5,0,1,0,57,100,-7352,2118,11550,3061.5,9,WP,1,0,0,0,0,0,0,1601457192144,3782,3784,3773,0,0,0,13,,,,,,,0,0,0,162.0,1.0,745.0,-163.0,0.0,748.0,14,351.0,100.0,2564.88,28.0,96.0,0.0,0,,,100,100,0,1,0,0,0,1,0,,,,,0.0,0.0,0,LSS,523.9962033290426,208.74849787478183,35.075101938841684,10.177448384192079,2.898831329176172,-0.0009202517118082565,0
51.518602,5.854939,35.1,0.0,10.12,246.49,35.3,35.3,17.18,781.85,723629,2020-09-30 09:13:13.130,2020-09-30 11:13:13.130,18,0,0,11.423,51.519566,5.858136,2.9,9.7,0.0,-15.8,-0.4,74.6,0,1,0,57,100,-7046,2114,11423,3061.5,9,WP,1,0,0,0,0,0,0,1601457193129,3782,3784,3773,0,0,0,13,,,,,,,0,0,0,158.0,-4.0,746.0,-163.0,0.0,747.0,14,351.0,101.24,2464.9,29.0,97.0,0.0,0,,,100,100,0,1,0,0,0,1,0,,,,,0.0,0.0,0,LSS,533.7136723965394,211.64223822895534,35.07420243912743,9.373942207421461,2.7914423657942407,-0.0008677010730276081,0
51.51863,5.855084,35.1,0.0,9.96,236.06,35.3,35.3,17.18,781.85,724663,2020-09-30 09:13:14.163,2020-09-30 11:13:14.163,17,0,0,11.423,51.519566,5.858136,3.0,9.5,0.0,-15.5,0.0,74.4,0,1,0,57,100,-7046,2114,11423,3061.5,9,WP,1,0,0,0,0,0,0,1601457194163,3782,3784,3773,0,0,0,13,,,,,,,0,0,0,155.0,0.0,744.0,-163.0,0.0,747.0,14,351.0,99.62,2360.64,30.0,95.0,0.0,0,,,100,100,0,1,0,0,0,1,0,,,,,0.0,0.0,0,LSS,543.7781695022421,214.7585519186266,35.073249840337056,9.708702292779204,3.006147405694776,-0.0009189230185175125,0
51.51866,5.855227,35.1,0.0,9.8,225.7,35.3,35.3,17.18,781.85,725767,2020-09-30 09:13:15.267,2020-09-30 11:13:15.267,18,0,0,11.529,51.519566,5.858136,3.1,9.3,0.0,-16.0,1.6,74.2,0,1,0,57,100,-7826,2110,11529,3061.5,9,WP,1,0,0,0,0,0,0,1601457195267,3782,3784,3773,0,0,0,13,,,,,,,0,0,0,160.0,16.0,742.0,-163.0,0.0,747.0,14,351.0,98.03,2257.01,31.0,93.0,0.0,0,,,100,100,0,1,0,0,0,1,0,,,,,0.0,0.0,0,LSS,553.703804931272,218.0973880307569,35.0722842926953,9.574749581130174,3.220803332407541,-0.0009314141089058647,0
51.518689,5.85536,35.2,0.0,9.58,216.0,35.3,35.3,17.18,781.85,726768,2020-09-30 09:13:16.268,2020-09-30 11:13:16.268,17,0,0,11.529,51.519566,5.858136,3.0,9.1,0.0,-15.7,2.2,74.3,0,1,0,57,100,-7826,2110,11529,3061.5,9,WP,1,0,0,0,0,0,0,1601457196268,3782,3784,3773,0,0,0,13,,,,,,,0,0,0,157.0,22.0,743.0,-163.0,0.0,747.0,14,352.0,95.82,2160.02,30.0,91.0,0.0,0,,,100,100,0,1,0,0,0,1,0,,,,,0.0,0.0,0,LSS,562.9353235441544,221.3249112654555,35.17136662060102,8.905170817918135,3.1134255293254336,0.09557962151602191,0
51.518717,5.855496,35.1,0.0,9.43,206.2,35.3,35.3,17.18,781.85,727869,2020-09-30 09:13:17.370,2020-09-30 11:13:17.370,17,0,0,11.444,51.519566,5.858136,2.8,9.0,0.0,-16.1,2.1,74.2,0,1,0,57,100,-8174,2105,11444,3061.5,9,WP,1,0,0,0,0,0,0,1601457197369,3782,3784,3773,0,0,0,13,,,,,,,0,0,0,161.0,21.0,742.0,-163.0,0.0,747.0,14,351.0,94.25,2062.03,28.0,90.0,0.0,0,,,100,100,0,1,0,0,0,1,0,,,,,0.0,0.0,0,LSS,572.3750626908696,224.44120899849503,35.07041925393328,9.106030448856055,3.0061320131534806,-0.0973787284077795,0
51.518742,5.855625,35.1,0.0,9.43,196.94,35.3,35.3,17.18,781.85,728770,2020-09-30 09:13:18.271,2020-09-30 11:13:18.271,18,0,0,11.444,51.519566,5.858136,2.8,9.0,0.0,-15.3,2.1,74.3,0,1,0,57,100,-8174,2105,11444,3061.5,9,WP,1,0,0,0,0,0,0,1601457198270,3776,3778,3767,0,0,0,13,,,,,,,0,0,0,153.0,21.0,743.0,-163.0,0.0,747.0,14,351.0,94.25,1969.42,28.0,90.0,0.0,0,,,100,100,0,1,0,0,0,1,0,,,,,0.0,0.0,0,LSS,581.3289504088208,227.2236957284038,35.06951253890017,8.637354584493224,2.68412172119225,-0.0008746613197265532,0
51.51877,5.855766,35.1,0.0,9.3,186.88,35.3,35.3,17.18,781.85,729900,2020-09-30 09:13:19.401,2020-09-30 11:13:19.401,18,0,0,11.402,51.519566,5.858136,2.7,8.9,0.0,-16.0,2.0,74.4,0,1,0,57,100,-8168,2097,11402,3061.5,9,WP,1,0,0,0,0,0,0,1601457199400,3776,3778,3767,0,0,0,13,,,,,,,0,0,0,160.0,20.0,744.0,-163.0,0.0,747.0,14,351.0,93.01,1868.82,27.0,89.0,0.0,0,,,100,100,0,1,0,0,0,1,0,,,,,0.0,0.0,0,LSS,591.1157379655567,230.34007150611143,35.06850303126322,9.440810185854906,3.0062072988274857,-0.0009738200534520979,0
51.518794,5.855892,35.1,0.0,9.2,177.86,35.3,35.3,17.18,781.85,730862,2020-09-30 09:13:20.363,2020-09-30 11:13:20.363,17,0,0,11.402,51.519566,5.858136,2.7,8.8,0.0,-16.3,1.7,74.4,0,1,0,57,100,-8168,2097,11402,3061.5,9,WP,1,0,0,0,0,0,0,1601457200362,3776,3778,3767,0,0,0,13,,,,,,,0,0,0,163.0,17.0,744.0,-163.0,0.0,747.0,14,351.0,92.05,1778.58,27.0,88.0,0.0,0,,,100,100,0,1,0,0,0,1,0,,,,,0.0,0.0,0,LSS,599.8613811675042,233.01130789448598,35.067591102735875,8.43647181918963,2.576804243271386,-0.0008796905092516836,0
51.518819,5.85602,35.1,0.0,9.3,168.77,35.3,35.3,17.18,781.85,731865,2020-09-30 09:13:21.365,2020-09-30 11:13:21.365,17,0,0,11.508,51.519566,5.858136,2.7,8.9,0.0,-15.5,1.2,74.4,0,1,0,57,100,-7930,2095,11508,3061.5,9,WP,1,0,0,0,0,0,0,1601457201365,3776,3778,3767,0,0,0,13,,,,,,,0,0,0,155.0,12.0,744.0,-163.0,0.0,748.0,14,351.0,93.01,1687.73,27.0,89.0,0.0,0,,,100,100,0,1,0,0,0,1,0,,,,,0.0,0.0,0,LSS,608.7458264336489,235.79383478487227,35.06664875089898,8.570367025751935,2.6841604619376636,-0.0009090383099527753,0
51.518845,5.856151,35.1,0.0,9.2,159.46,35.3,35.3,17.18,781.85,732971,2020-09-30 09:13:22.472,2020-09-30 11:13:22.472,16,0,0,11.508,51.519566,5.858136,2.7,8.8,0.0,-15.6,1.2,74.4,0,1,0,57,100,-7930,2095,11508,3061.5,9,WP,1,0,0,0,0,0,0,1601457202471,3776,3778,3767,0,0,0,13,,,,,,,0,0,0,156.0,12.0,744.0,-163.0,0.0,747.0,14,351.0,92.05,1594.58,27.0,88.0,0.0,0,,,100,100,0,1,0,0,0,1,0,,,,,0.0,0.0,0,LSS,617.8384852066976,238.68766134827067,35.06566854716203,8.77121987817328,2.791525527395913,-0.0009455520895193474,0
51.518869,5.856278,35.1,0.0,9.33,150.49,35.3,35.3,17.18,781.85,733932,2020-09-30 09:13:23.433,2020-09-30 11:13:23.433,16,0,0,11.423,51.519566,5.858136,2.8,8.9,0.0,-16.1,0.9,74.4,0,1,0,57,100,-7594,2093,11423,3061.5,9,WP,1,0,0,0,0,0,0,1601457203432,3776,3778,3767,0,0,0,13,,,,,,,0,0,0,161.0,9.0,744.0,-163.0,0.0,747.0,14,351.0,93.3,1504.94,28.0,89.0,0.0,0,,,100,100,0,1,0,0,0,1,0,,,,,0.0,0.0,0,LSS,626.6535122072281,241.35895233285777,35.06470974870565,8.50340279818546,2.576856909427319,-0.0009249035171864722,0
51.518896,5.856414,35.1,0.0,9.36,140.91,35.3,35.3,17.18,781.85,734959,2020-09-30 09:13:24.459,2020-09-30 11:13:24.459,18,0,0,11.423,51.519566,5.858136,2.9,8.9,0.0,-16.1,1.3,74.4,0,1,0,57,100,-7594,2093,11423,3061.5,9,WP,1,0,0,0,0,0,0,1601457204459,3776,3778,3767,0,0,0,13,,,,,,,0,0,0,161.0,13.0,744.0,-163.0,0.0,747.0,14,351.0,93.61,1409.08,29.0,89.0,0.0,0,,,100,100,0,1,0,0,0,1,0,,,,,0.0,0.0,0,LSS,636.0931977839978,244.36411321510855,35.063662745913874,9.105978772686987,2.898924013912911,-0.001009989699269906,0
51.518924,5.856547,35.1,0.0,9.36,131.44,35.3,35.3,17.18,781.85,736005,2020-09-30 09:13:25.506,2020-09-30 11:13:25.506,18,0,0,11.318,51.519566,5.858136,2.9,8.9,0.0,-15.8,2.1,74.2,0,1,0,57,100,-8202,2087,11318,3061.5,9,WP,1,0,0,0,0,0,0,1601457205505,3771,3774,3763,0,0,0,13,,,,,,,0,0,0,158.0,21.0,742.0,-163.0,0.0,747.0,14,351.0,93.61,1314.4,29.0,89.0,0.0,0,,,100,100,0,1,0,0,0,1,0,,,,,0.0,0.0,0,LSS,645.3246216525873,247.48052400267977,35.06261709524914,8.905079422975765,3.006241071040794,-0.001008685371911394,0
51.518951,5.856677,35.1,0.0,9.46,122.29,35.3,35.3,17.18,781.85,737034,2020-09-30 09:13:26.534,2020-09-30 11:13:26.535,18,0,0,11.318,51.519566,5.858136,2.9,9.0,0.0,-15.8,2.3,74.3,0,1,0,57,100,-8202,2087,11318,3061.5,9,WP,1,0,0,0,0,0,0,1601457206534,3771,3774,3763,0,0,0,13,,,,,,,0,0,0,158.0,23.0,743.0,-163.0,0.0,748.0,14,351.0,94.56,1222.93,29.0,90.0,0.0,0,,,100,100,0,1,0,0,0,1,0,,,,,0.0,0.0,0,LSS,654.3478122495826,250.48566594846244,35.06158228603971,8.704207504575113,2.898905746876871,-0.0009982271780355314,0
51.51898,5.856818,35.1,0.0,9.55,112.35,35.3,35.3,17.18,781.85,738108,2020-09-30 09:13:27.608,2020-09-30 11:13:27.608,18,0,0,11.254,51.519566,5.858136,2.9,9.1,0.0,-15.9,2.3,74.3,0,1,0,57,100,-8060,2083,11254,3061.5,9,WP,1,0,0,0,0,0,0,1601457207608,3771,3774,3763,0,0,0,13,,,,,,,0,0,0,159.0,23.0,743.0,-163.0,0.0,748.0,14,351.0,95.51,1123.45,29.0,91.0,0.0,0,,,100,100,0,1,0,0,0,1,0,,,,,0.0,0.0,0,LSS,664.134495661389,253.7134412993194,35.06044517215254,9.44070972260219,3.1136687328058374,-0.0010969152345669106,0
51.519007,5.85695,35.2,0.0,9.65,103.23,35.3,35.3,17.18,781.85,739097,2020-09-30 09:13:28.598,2020-09-30 11:13:28.598,17,0,0,11.254,51.519566,5.858136,2.9,9.2,0.0,-15.8,2.3,74.3,0,1,0,57,100,-8060,2083,11254,3061.5,9,WP,1,0,0,0,0,0,0,1601457208597,3771,3774,3763,0,0,0,13,,,,,,,0,0,0,158.0,23.0,743.0,-163.0,0.0,748.0,14,352.0,96.46,1032.25,29.0,92.0,0.0,0,,,100,100,0,1,0,0,0,1,0,,,,,0.0,0.0,0,LSS,673.2964986136575,256.7186391020458,35.15936624461902,8.83811263840873,2.8989596291952804,0.09542406669433424,0
51.519032,5.857084,35.1,0.0,9.81,94.17,35.3,35.3,17.18,781.85,740105,2020-09-30 09:13:29.606,2020-09-30 11:13:29.606,18,0,0,11.318,51.519566,5.858136,2.8,9.4,0.0,-15.9,2.1,74.3,0,1,0,56,100,-7672,2076,11318,3061.5,9,WP,1,0,0,0,0,0,0,1601457209605,3771,3774,3763,0,0,0,13,,,,,,,0,0,0,159.0,21.0,743.0,-163.0,0.0,748.0,14,351.0,98.08,941.67,28.0,94.0,0.0,0,,,100,100,0,1,0,0,0,1,0,,,,,0.0,0.0,0,LSS,682.5973234898055,259.5013464215432,35.058267001407714,8.97202700258429,2.6843345126136247,-0.09752523589158939,0
51.519057,5.857222,35.1,0.0,9.66,85.07,35.3,35.3,17.18,781.85,741145,2020-09-30 09:13:30.646,2020-09-30 11:13:30.646,18,0,0,11.318,51.519566,5.858136,2.6,9.3,0.0,-16.0,0.8,74.2,0,1,0,56,100,-7672,2076,11318,3061.5,9,WP,1,0,0,0,0,0,0,1601457210645,3771,3774,3763,0,0,0,13,,,,,,,0,0,0,160.0,8.0,742.0,-163.0,0.0,748.0,14,351.0,96.57,850.71,26.0,93.0,0.0,0,,,100,100,0,1,0,0,0,1,0,,,,,0.0,0.0,0,LSS,692.175796441319,262.2841126246081,35.05712294349533,9.23985980908979,2.6843913145602207,-0.001103613778252631,0
51.519083,5.857365,35.1,0.0,9.88,75.88,35.3,35.3,17.18,781.85,742203,2020-09-30 09:13:31.703,2020-09-30 11:13:31.704,18,0,0,11.465,51.519566,5.858136,2.7,9.5,0.0,-16.0,0.9,74.3,0,1,0,56,100,-8112,2072,11465,3061.5,9,WP,1,0,0,0,0,0,0,1601457211703,3771,3774,3763,0,0,0,13,,,,,,,0,0,0,160.0,9.0,743.0,-163.0,0.0,747.0,14,351.0,98.76,758.84,27.0,95.0,0.0,0,,,100,100,0,1,0,0,0,1,0,,,,,0.0,0.0,0,LSS,702.1013029958835,265.17820365772303,35.05592057202843,9.574625262567247,2.7917806477180105,-0.001159865862634743,0
51.519109,5.857508,35.2,0.0,10.0,66.99,35.3,35.3,17.18,781.85,743240,2020-09-30 09:13:32.740,2020-09-30 11:13:32.740,18,0,0,11.465,51.519566,5.858136,2.8,9.6,0.0,-15.5,0.7,74.4,0,1,0,56,100,-8112,2072,11465,3061.5,9,WP,1,0,0,0,0,0,0,1601457212740,3771,3774,3763,0,0,0,13,,,,,,,0,0,0,155.0,7.0,744.0,-163.0,0.0,747.0,14,352.0,100.0,669.9,28.0,96.0,0.0,0,,,100,100,0,1,0,0,0,1,0,,,,,0.0,0.0,0,LSS,712.0268093831137,268.0723182979858,35.15470147322874,9.574625101148358,2.7918034203183772,0.0952888506891102,0
51.519134,5.857648,35.1,0.0,10.19,58.79,35.3,35.3,17.18,781.85,744243,2020-09-30 09:13:33.743,2020-09-30 11:13:33.743,18,0,0,11.275,51.519566,5.858136,2.8,9.8,0.0,-16.0,0.4,74.2,0,1,0,56,100,-8210,2066,11275,3061.5,9,WP,1,0,0,0,0,0,0,1601457213743,3771,3774,3763,0,0,0,13,,,,,,,0,0,0,160.0,4.0,742.0,-163.0,0.0,747.0,14,351.0,101.92,587.89,28.0,98.0,0.0,0,,,100,100,0,1,0,0,0,1,0,,,,,0.0,0.0,0,LSS,721.7440625460868,270.85515553646417,35.053493894365616,9.37373393544096,2.684459838767054,-0.09762974171837185,0
51.519161,5.857796,35.2,0.0,10.19,50.94,35.3,35.3,17.18,781.85,745312,2020-09-30 09:13:34.812,2020-09-30 11:13:34.812,18,0,0,11.275,51.519566,5.858136,2.8,9.8,0.0,-15.8,-0.3,74.5,0,1,0,56,100,-8210,2066,11275,3061.5,9,WP,1,0,0,0,0,0,0,1601457214812,3771,3774,3763,0,0,0,13,,,,,,,0,0,0,158.0,-3.0,745.0,-163.0,0.0,747.0,14,352.0,101.92,509.37,28.0,98.0,0.0,0,,,100,100,0,1,0,0,0,1,0,,,,,0.0,0.0,0,LSS,732.0165898133102,273.8606174711694,35.15219719601686,9.90937828134697,2.8992144237192004,0.09521399439851878,0
51.519189,5.857946,35.1,0.0,10.22,44.01,35.3,35.3,17.18,781.85,746335,2020-09-30 09:13:35.835,2020-09-30 11:13:35.835,18,0,0,11.339,51.519566,5.858136,2.9,9.8,0.0,-16.0,-0.1,74.6,0,1,0,56,100,-8686,2064,11339,3061.5,9,WP,1,0,0,0,0,0,0,1601457215835,3771,3774,3763,0,0,0,13,,,,,,,0,0,0,160.0,-1.0,746.0,-163.0,0.0,747.0,14,351.0,102.2,440.06,29.0,98.0,0.0,0,,,100,100,0,1,0,0,0,1,0,,,,,0.0,0.0,0,LSS,742.4278892274572,276.97737069537624,35.05086161229299,10.043244628255254,3.0065714020364034,-0.09775322141854102,0
51.519216,5.858089,35.0,0.0,10.51,39.12,35.3,35.3,17.18,781.85,747340,2020-09-30 09:13:36.841,2020-09-30 11:13:36.841,17,0,0,11.339,51.519566,5.858136,2.9,10.1,0.0,-16.0,-0.6,74.8,0,1,0,56,100,-8686,2064,11339,3061.5,9,WP,1,0,0,0,0,0,0,1601457216840,3763,3766,3755,0,0,0,13,,,,,,,0,0,0,160.0,-6.0,748.0,-163.0,0.0,747.0,14,350.0,105.08,391.17,29.0,101.0,0.0,0,,,100,100,0,1,0,0,0,1,0,,,,,0.0,0.0,0,LSS,752.3533102029185,279.9828143857861,34.94956965161742,9.574542708811478,2.899196824386595,-0.0977111405093222,0
51.519245,5.858243,35.0,0.0,10.85,36.55,35.3,35.3,17.18,781.85,748386,2020-09-30 09:13:37.886,2020-09-30 11:13:37.886,18,0,0,11.508,51.519566,5.858136,3.1,10.4,0.0,-16.0,-0.9,74.7,0,1,0,56,100,-8570,2060,11508,3061.5,9,WP,1,0,0,0,0,0,0,1601457217886,3763,3766,3755,0,0,0,13,,,,,,,0,0,0,160.0,-9.0,747.0,-163.0,0.0,747.0,14,350.0,108.52,365.5,31.0,104.0,0.0,0,,,100,100,0,1,0,0,0,1,0,,,,,0.0,0.0,0,LSS,763.0422257620309,283.2109140619275,34.948159863998185,10.311046633147432,3.1139815927132077,-0.0013599495481470985,0
51.519275,5.858407,35.0,0.0,11.39,37.44,35.3,35.3,17.18,781.85,749438,2020-09-30 09:13:38.939,2020-09-30 11:13:38.939,18,0,0,11.508,51.519566,5.858136,3.3,10.9,0.0,-14.0,-2.2,74.6,0,1,0,56,100,-8570,2060,11508,3061.5,9,WP,1,0,0,0,0,0,0,1601457218938,3763,3766,3755,0,0,0,13,,,,,,,0,0,0,140.0,-22.0,746.0,-163.0,0.0,747.0,14,350.0,113.89,374.43,33.0,109.0,0.0,0,,,100,100,0,1,0,0,0,1,0,,,,,0.0,0.0,0,LSS,774.4252267895814,286.5504008101931,34.94664149643283,10.980595156837923,3.221430967596091,-0.0014646910330644602,0
51.519306,5.858567,35.0,0.0,10.79,41.61,35.3,35.3,17.18,781.85,750486,2020-09-30 09:13:39.987,2020-09-30 11:13:39.987,18,0,0,11.487,51.519566,5.858136,3.2,10.3,0.0,-3.3,-0.8,74.7,0,1,0,56,100,-6932,2053,11487,3061.5,9,WP,1,0,0,0,0,0,0,1601457219986,3763,3766,3755,0,0,0,13,,,,,,,0,0,0,33.0,-8.0,747.0,-163.0,0.0,746.0,14,350.0,107.86,416.11,32.0,103.0,0.0,0,,,100,100,0,1,0,0,0,1,0,,,,,0.0,0.0,0,LSS,785.5305494339048,290.00112895426423,34.94513018208461,10.712733113898304,3.3287398160329884,-0.00145788715755802,0
51.519337,5.858709,35.0,0.0,10.18,47.27,35.3,35.3,17.18,781.85,751467,2020-09-30 09:13:40.967,2020-09-30 11:13:40.967,18,0,0,11.297,51.519566,5.858136,3.1,9.7,0.0,-9.7,1.1,74.4,0,1,0,56,100,-6160,2049,11297,3061.5,9,WP,1,0,0,0,0,0,0,1601457220967,3763,3766,3755,0,0,0,13,,,,,,,0,0,0,97.0,11.0,744.0,-163.0,0.0,746.0,14,350.0,101.83,472.71,31.0,97.0,0.0,0,,,100,100,0,1,0,0,0,1,0,,,,,0.0,0.0,0,LSS,795.3864498970229,293.45168563611253,34.94375332093074,9.507479849088583,3.3285744152525374,-0.0013281870818825068,0
51.519366,5.858847,35.0,0.0,9.81,54.13,35.3,35.3,17.18,781.85,752517,2020-09-30 09:13:42.017,2020-09-30 11:13:42.017,18,0,0,11.297,51.519566,5.858136,2.8,9.4,0.0,-13.1,1.7,74.7,0,1,0,56,100,-6160,2049,11297,3061.5,9,WP,1,0,0,0,0,0,0,1601457222017,3763,3766,3755,0,0,0,13,,,,,,,0,0,0,131.0,17.0,747.0,-163.0,0.0,746.0,14,350.0,98.08,541.35,28.0,94.0,0.0,0,,,100,100,0,1,0,0,0,1,0,,,,,0.0,0.0,0,LSS,804.9647263966584,296.679699832698,34.94240472600117,9.239670302075378,3.1138991349856706,-0.00130092011028544,0
51.519394,5.85899,34.9,0.0,9.27,62.27,35.3,35.3,17.18,781.85,753569,2020-09-30 09:13:43.069,2020-09-30 11:13:43.069,18,0,0,11.339,51.519566,5.858136,2.6,8.9,0.0,-15.5,1.5,74.5,0,1,0,56,100,-7364,2047,11339,3061.5,9,WP,1,0,0,0,0,0,0,1601457223069,3763,3766,3755,0,0,0,13,,,,,,,0,0,0,155.0,15.0,745.0,-163.0,0.0,746.0,14,349.0,92.72,622.74,26.0,89.0,0.0,0,,,100,100,0,1,0,0,0,1,0,,,,,0.0,0.0,0,LSS,814.8900529059275,299.79652424150913,34.84100113177044,9.574451582138469,3.00664007015996,-0.09781882765370625,0
51.51942,5.859119,34.9,0.0,9.4,70.11,35.3,35.3,17.18,781.85,754570,2020-09-30 09:13:44.070,2020-09-30 11:13:44.071,18,0,0,11.339,51.519566,5.858136,2.7,9.0,0.0,-16.0,2.4,74.6,0,1,0,56,100,-7364,2047,11339,3061.5,9,WP,1,0,0,0,0,0,0,1601457224070,3763,3766,3755,0,0,0,13,,,,,,,0,0,0,160.0,24.0,746.0,-163.0,0.0,747.0,14,349.0,93.96,701.14,27.0,90.0,0.0,0,,,100,100,0,1,0,0,0,1,0,,,,,0.0,0.0,0,LSS,823.8436566671078,302.6906974154165,34.839716508924,8.637080666012887,2.791859884712296,-0.0012392095346257235,0
51.519445,5.859254,34.9,0.0,9.2,78.75,35.3,35.3,17.18,781.85,755618,2020-09-30 09:13:45.118,2020-09-30 11:13:45.118,18,0,0,11.318,51.519566,5.858136,2.7,8.8,0.0,-15.2,2.4,74.6,0,1,0,55,100,-7960,2041,11318,3061.5,9,WP,1,0,0,0,0,0,0,1601457225118,3763,3766,3755,0,0,0,13,,,,,,,0,0,0,152.0,24.0,746.0,-163.0,0.0,747.0,14,349.0,92.05,787.47,27.0,88.0,0.0,0,,,100,100,0,1,0,0,0,1,0,,,,,0.0,0.0,0,LSS,833.2137365047744,305.4736958540687,34.838369074215194,9.038833699095829,2.68461534027708,-0.0012998009050380118,0
51.51947,5.859388,35.0,0.0,9.18,87.54,35.3,35.3,17.18,781.85,756686,2020-09-30 09:13:46.187,2020-09-30 11:13:46.187,18,0,0,11.318,51.519566,5.858136,2.6,8.8,-0.1,-17.1,0.7,74.3,0,1,0,55,100,-7960,2041,11318,3061.5,9,WP,1,0,0,0,0,0,0,1601457226186,3763,3766,3755,0,0,0,13,,,,,,,0,0,0,171.0,7.0,743.0,-163.0,0.0,747.0,14,350.0,91.77,875.42,26.0,88.0,-1.0,0,,,100,100,0,1,0,0,0,1,0,,,,,0.0,0.0,0,LSS,842.5144079574112,308.2567049102815,34.93701583920057,8.971879002820472,2.6846255824912344,0.09515945638715498,0
51.519498,5.859532,35.0,0.0,9.2,97.19,35.3,35.3,17.18,781.85,757817,2020-09-30 09:13:47.318,2020-09-30 11:13:47.318,17,0,0,11.487,51.519566,5.858136,2.7,8.8,0.0,-16.0,0.9,74.6,0,1,0,55,100,-7376,2037,11487,3061.5,9,WP,1,0,0,0,0,0,0,1601457227317,3773,3775,3763,0,0,0,13,,,,,,,0,0,0,160.0,9.0,746.0,-163.0,0.0,747.0,14,350.0,92.05,971.93,27.0,88.0,0.0,0,,,100,100,0,1,0,0,0,1,0,,,,,0.0,0.0,0,LSS,852.5091128231692,311.373619081077,34.93553901647627,9.641377311426133,3.006726658925841,-0.0014246148634005683,0
51.519523,5.859659,35.0,0.0,9.23,105.83,35.3,35.3,17.18,781.85,758816,2020-09-30 09:13:48.317,2020-09-30 11:13:48.317,18,0,0,11.487,51.519566,5.858136,2.8,8.8,0.0,-16.1,1.4,74.4,0,1,0,55,100,-7376,2037,11487,3061.5,9,WP,1,0,0,0,0,0,0,1601457228316,3773,3775,3763,0,0,0,13,,,,,,,0,0,0,161.0,14.0,744.0,-163.0,0.0,747.0,14,350.0,92.35,1058.35,28.0,88.0,0.0,0,,,100,100,0,1,0,0,0,1,0,,,,,0.0,0.0,0,LSS,861.3238713122339,314.15657629669056,34.934220628527726,8.503143778995867,2.6845755745336435,-0.001271780990582027,0
51.519549,5.859787,35.1,0.0,9.23,114.58,35.3,35.3,17.18,781.85,759816,2020-09-30 09:13:49.317,2020-09-30 11:13:49.317,18,0,0,11.36,51.519566,5.858136,2.8,8.8,0.0,-15.8,1.0,74.5,0,1,0,55,100,-7560,2033,11360,3061.5,9,WP,1,0,0,0,0,0,0,1601457229316,3773,3775,3763,0,0,0,13,,,,,,,0,0,0,158.0,10.0,745.0,-163.0,0.0,747.0,14,351.0,92.35,1145.76,28.0,88.0,0.0,0,,,100,100,0,1,0,0,0,1,0,,,,,0.0,0.0,0,LSS,870.2080258865071,317.050824495518,35.03287388936397,8.570086610266777,2.7919322573908247,0.09516572260011731,0
51.519577,5.859926,35.0,0.0,9.23,124.26,35.3,35.3,17.18,781.85,760917,2020-09-30 09:13:50.418,2020-09-30 11:13:50.418,18,0,0,11.36,51.519566,5.858136,2.8,8.8,0.0,-16.4,1.4,74.3,0,1,0,55,100,-7560,2033,11360,3061.5,9,WP,1,0,0,0,0,0,0,1601457230417,3773,3775,3763,0,0,0,13,,,,,,,0,0,0,164.0,14.0,743.0,-163.0,0.0,747.0,14,350.0,92.35,1242.62,28.0,88.0,0.0,0,,,100,100,0,1,0,0,0,1,0,,,,,0.0,0.0,0,LSS,879.855627144943,320.1677280991672,34.93139725051776,9.306544328431842,3.0067164653437803,-0.09788929003432009,0
51.519603,5.860054,35.1,0.0,9.17,133.15,35.3,35.3,17.18,781.85,761926,2020-09-30 09:13:51.427,2020-09-30 11:13:51.427,18,0,0,11.402,51.519566,5.858136,2.9,8.7,0.0,-15.7,1.7,74.3,0,1,0,55,100,-7458,2030,11402,3061.5,9,WP,1,0,0,0,0,0,0,1601457231426,3773,3775,3763,0,0,0,13,,,,,,,0,0,0,157.0,17.0,743.0,-163.0,0.0,747.0,14,351.0,91.71,1331.52,29.0,87.0,0.0,0,,,100,100,0,1,0,0,0,1,0,,,,,0.0,0.0,0,LSS,888.739760940129,323.06200882484325,35.030022023272466,8.570066565750942,2.791963634367365,0.09513824161426582,0
51.519631,5.860186,35.0,0.0,9.23,142.43,35.3,35.3,17.18,781.85,762968,2020-09-30 09:13:52.468,2020-09-30 11:13:52.469,16,0,0,11.402,51.519566,5.858136,2.8,8.8,0.0,-15.9,2.5,74.2,0,1,0,55,100,-7458,2030,11402,3061.5,9,WP,1,0,0,0,0,0,0,1601457232468,3773,3775,3763,0,0,0,13,,,,,,,0,0,0,159.0,25.0,742.0,-163.0,0.0,747.0,14,350.0,92.35,1424.31,28.0,88.0,0.0,0,,,100,100,0,1,0,0,0,1,0,,,,,0.0,0.0,0,LSS,897.9014617178979,326.1788616596755,34.92858275734375,8.837821146223186,3.0066674912793165,-0.0978532383045706,0
51.519658,5.860322,35.0,0.0,9.36,152.04,35.3,35.3,17.18,781.85,764023,2020-09-30 09:13:53.523,2020-09-30 11:13:53.523,17,0,0,11.275,51.519566,5.858136,2.9,8.9,0.0,-15.8,3.0,74.2,0,1,0,55,100,-7964,2024,11275,3061.5,9,WP,1,0,0,0,0,0,0,1601457233523,3773,3775,3763,0,0,0,13,,,,,,,0,0,0,158.0,30.0,742.0,-163.0,0.0,747.0,14,350.0,93.61,1520.4,29.0,89.0,0.0,0,,,100,100,0,1,0,0,0,1,0,,,,,0.0,0.0,0,LSS,907.3408290920564,329.1845268579234,34.927095164140724,9.1056718190074,2.8994105015959386,-0.0014350045898204567,0
51.519686,5.860456,34.9,0.0,9.55,161.6,35.3,35.3,17.18,781.85,765070,2020-09-30 09:13:54.570,2020-09-30 11:13:54.570,18,0,0,11.275,51.519566,5.858136,2.9,9.1,0.0,-15.6,2.9,74.2,0,1,0,55,100,-7964,2024,11275,3061.5,9,WP,1,0,0,0,0,0,0,1601457234570,3773,3775,3763,0,0,0,13,,,,,,,0,0,0,156.0,29.0,742.0,-163.0,0.0,748.0,14,349.0,95.51,1616.01,29.0,91.0,0.0,0,,,100,100,0,1,0,0,0,1,0,,,,,0.0,0.0,0,LSS,916.6413289288564,332.30143816506575,34.8256063324184,8.971713453856506,3.0067238965070513,-0.09790105187428413,0
51.519711,5.86059,35.0,0.0,9.71,171.07,35.3,35.3,17.18,781.85,766063,2020-09-30 09:13:55.563,2020-09-30 11:13:55.563,18,0,0,11.487,51.519566,5.858136,2.8,9.3,0.0,-15.8,2.4,74.3,0,1,0,55,100,-7918,2022,11487,3061.5,9,WP,1,0,0,0,0,0,0,1601457235563,3773,3775,3763,0,0,0,13,,,,,,,0,0,0,158.0,24.0,743.0,-163.0,0.0,748.0,14,350.0,97.12,1710.72,28.0,93.0,0.0,0,,,100,100,0,1,0,0,0,1,0,,,,,0.0,0.0,0,LSS,925.9419068723869,335.08460048302686,34.92411998517824,8.971788799398897,2.684773426210768,0.09503104987506282,0
51.519736,5.860726,35.0,0.0,10.0,180.79,35.3,35.3,17.18,781.85,767064,2020-09-30 09:13:56.565,2020-09-30 11:13:56.565,18,0,0,11.487,51.519566,5.858136,2.8,9.6,0.0,-16.1,1.7,74.3,0,1,0,55,100,-7918,2022,11487,3061.5,9,WP,1,0,0,0,0,0,0,1601457236564,3773,3775,3763,0,0,0,13,,,,,,,0,0,0,161.0,17.0,743.0,-163.0,0.0,748.0,14,350.0,100.0,1807.89,28.0,96.0,0.0,0,,,100,100,0,1,0,0,0,1,0,,,,,0.0,0.0,0,LSS,935.3812820804162,337.86780018262215,34.922598572930184,9.105679375939285,2.6848094863490526,-0.0014676280817413365,0
51.519765,5.860881,35.0,0.0,10.0,191.79,35.3,35.3,17.18,781.85,768171,2020-09-30 09:13:57.672,2020-09-30 11:13:57.672,18,0,0,11.339,51.519566,5.858136,2.8,9.6,0.0,-15.5,1.7,74.3,0,1,0,55,100,-7316,2014,11339,3061.5,9,WP,1,0,0,0,0,0,0,1601457237671,3769,3770,3759,0,0,0,13,,,,,,,0,0,0,155.0,17.0,743.0,-163.0,0.0,748.0,14,350.0,100.0,1917.9,28.0,96.0,0.0,0,,,100,75,0,1,0,0,0,1,0,,,,,0.0,0.0,0,LSS,946.1393704076715,341.09629814039715,34.92084311363425,10.377774041940347,3.114365794503823,-0.0016934012213759163,0
51.519793,5.861029,35.0,0.0,9.71,202.39,35.3,35.3,17.18,781.85,769288,2020-09-30 09:13:58.788,2020-09-30 11:13:58.788,18,0,0,11.339,51.519566,5.858136,2.8,9.3,0.0,-15.8,1.6,74.2,0,1,0,55,100,-7316,2014,11339,3061.5,9,WP,1,0,0,0,0,0,0,1601457238788,3769,3770,3759,0,0,0,13,,,,,,,0,0,0,158.0,16.0,742.0,-163.0,0.0,748.0,14,350.0,97.12,2023.94,28.0,93.0,0.0,0,,,100,75,0,1,0,0,0,1,0,,,,,0.0,0.0,0,LSS,956.4115903376319,344.21346858413153,34.91914664887571,9.909081808909232,3.0069738722384574,-0.001636492227863719,0
51.519822,5.861169,34.9,0.0,9.65,212.41,35.3,35.3,17.18,781.85,770294,2020-09-30 09:13:59.794,2020-09-30 11:13:59.794,17,0,0,11.297,51.519566,5.858136,2.9,9.2,0.0,-15.6,2.3,74.3,0,1,0,55,100,-7822,2010,11297,3061.5,9,WP,1,0,0,0,0,0,0,1601457239794,3769,3770,3759,0,0,0,13,,,,,,,0,0,0,156.0,23.0,743.0,-163.0,0.0,748.0,14,349.0,96.46,2124.08,29.0,92.0,0.0,0,,,100,100,0,1,0,0,0,1,0,,,,,0.0,0.0,0,LSS,966.1284752361697,347.4418075551615,34.817510060694644,9.373378689696532,3.114212428174667,-0.09804358492434327,0
51.51985,5.861308,34.9,0.0,9.46,222.44,35.3,35.3,17.18,781.85,771409,2020-09-30 09:14:00.909,2020-09-30 11:14:00.909,17,0,0,11.297,51.519566,5.858136,2.9,9.0,0.0,-15.6,3.1,74.3,0,1,0,55,100,-7822,2010,11297,3061.5,9,WP,1,0,0,0,0,0,0,1601457240909,3769,3770,3759,0,0,0,13,,,,,,,0,0,0,156.0,31.0,743.0,-163.0,0.0,748.0,14,349.0,94.56,2224.42,29.0,90.0,0.0,0,,,100,100,0,1,0,0,0,1,0,,,,,0.0,0.0,0,LSS,975.775973397197,350.5588983766977,34.81587377883844,9.306444875668697,3.006897064802368,-0.0015784368798706149,0
51.519879,5.861446,34.9,0.0,9.33,232.33,35.3,35.3,17.18,781.85,772400,2020-09-30 09:14:01.900,2020-09-30 11:14:01.900,17,0,0,11.318,51.519566,5.858136,2.8,8.9,0.0,-15.5,3.0,74.2,0,1,0,55,100,-8370,2008,11318,3061.5,9,WP,1,0,0,0,0,0,0,1601457241900,3769,3770,3759,0,0,0,13,,,,,,,0,0,0,155.0,30.0,742.0,-163.0,0.0,748.0,14,349.0,93.3,2323.35,28.0,89.0,0.0,0,,,100,100,0,1,0,0,0,1,0,,,,,0.0,0.0,0,LSS,985.3540274591569,353.7872528908313,34.81422594234533,9.239455727899513,3.114227421806678,-0.0015895830433176091,0
51.519907,5.861584,35.0,0.0,9.33,242.3,35.3,35.3,17.18,781.85,773499,2020-09-30 09:14:03.000,2020-09-30 11:14:03.000,17,0,0,11.444,51.519566,5.858136,2.8,8.9,0.0,-15.6,3.2,74.1,0,1,0,54,100,-8056,2007,11444,3061.5,9,WP,1,0,0,0,0,0,0,1601457242999,3769,3770,3759,0,0,0,13,,,,,,,0,0,0,156.0,32.0,741.0,-163.0,0.0,748.0,14,350.0,93.3,2423.01,28.0,89.0,0.0,0,,,100,100,0,1,0,0,0,1,0,,,,,0.0,0.0,0,LSS,994.9321067043469,356.90437225426626,34.912568341587445,9.239480020865344,3.006924597702919,0.09486585042170935,0
51.519932,5.861713,35.0,0.0,9.4,251.55,35.3,35.3,17.18,781.85,774533,2020-09-30 09:14:04.033,2020-09-30 11:14:04.033,18,0,0,11.444,51.519566,5.858136,2.7,9.0,0.0,-15.9,2.4,74.3,0,1,0,54,100,-8056,2007,11444,3061.5,9,WP,1,0,0,0,0,0,0,1601457244033,3769,3770,3759,0,0,0,13,,,,,,,0,0,0,159.0,24.0,743.0,-163.0,0.0,748.0,14,350.0,93.96,2515.49,27.0,90.0,0.0,0,,,100,100,0,1,0,0,0,1,0,,,,,0.0,0.0,0,LSS,1003.885529376159,359.6876041967581,34.91101185686895,8.636905978420874,2.684840589411682,-0.0015014606886354772,0
51.519958,5.861857,35.0,0.0,9.46,261.89,35.3,35.3,17.18,781.85,775585,2020-09-30 09:14:05.085,2020-09-30 11:14:05.085,18,0,0,11.402,51.519566,5.858136,2.6,9.1,0.0,-15.9,2.1,74.3,0,1,0,54,100,-7776,2007,11402,3061.5,9,WP,1,0,0,0,0,0,0,1601457245085,3769,3770,3759,0,0,0,13,,,,,,,0,0,0,159.0,21.0,743.0,-163.0,0.0,748.0,14,350.0,94.64,2618.9,26.0,91.0,0.0,0,,,100,100,0,1,0,0,0,1,0,,,,,0.0,0.0,0,LSS,1013.8800784632208,362.5823184251017,34.90927020044688,9.641227039736613,2.7923818120763957,-0.001680086299453509,0
51.519982,5.86199,34.9,0.0,9.68,271.5,35.3,35.3,17.18,781.85,776591,2020-09-30 09:14:06.091,2020-09-30 11:14:06.092,17,0,0,11.402,51.519566,5.858136,2.7,9.3,0.0,-15.4,1.1,74.3,0,1,0,54,100,-7776,2007,11402,3061.5,9,WP,1,0,0,0,0,0,0,1601457246091,3769,3770,3759,0,0,0,13,,,,,,,0,0,0,154.0,11.0,743.0,-163.0,0.0,748.0,14,349.0,96.84,2714.97,27.0,93.0,0.0,0,,,100,100,0,1,0,0,0,1,0,,,,,0.0,0.0,0,LSS,1023.1111292364473,365.25437513648063,34.807646626921155,8.904719517083883,2.5775955666480073,-0.0980310303562623,0
51.520009,5.86213,35.0,0.0,9.71,281.57,35.3,35.3,17.18,781.85,777648,2020-09-30 09:14:07.149,2020-09-30 11:14:07.149,17,0,0,11.381,51.519566,5.858136,2.8,9.3,0.0,-15.9,1.5,74.2,0,1,0,54,100,-7696,2007,11381,3061.5,9,WP,1,0,0,0,0,0,0,1601457247148,3769,3770,3759,0,0,0,13,,,,,,,0,0,0,159.0,15.0,742.0,-163.0,0.0,748.0,14,350.0,97.12,2815.74,28.0,93.0,0.0,0,,,100,100,0,1,0,0,0,1,0,,,,,0.0,0.0,0,LSS,1032.8280078691769,368.26033531399423,34.90591083123965,9.373372645393868,2.899695052909621,0.09479041980394164,0
51.520036,5.862274,34.9,0.0,9.9,291.91,35.3,35.3,17.18,781.85,778709,2020-09-30 09:14:08.209,2020-09-30 11:14:08.210,17,0,0,11.381,51.519566,5.858136,2.8,9.5,0.0,-15.6,1.2,74.3,0,1,0,54,100,-7696,2007,11381,3061.5,9,WP,1,0,0,0,0,0,0,1601457248209,3758,3760,3750,0,0,0,13,,,,,,,0,0,0,156.0,12.0,743.0,-163.0,0.0,748.0,14,349.0,99.04,2919.12,28.0,95.0,0.0,0,,,100,100,0,1,0,0,0,1,0,,,,,0.0,0.0,0,LSS,1042.8224844463318,371.2663595176994,34.804113552926765,9.641157093161851,2.899756815680922,-0.0981985944230648,0
51.520061,5.862413,35.0,0.0,10.19,301.91,35.3,35.3,17.18,781.85,779686,2020-09-30 09:14:09.187,2020-09-30 11:14:09.187,17,0,0,11.508,51.519566,5.858136,2.8,9.8,0.0,-16.1,0.5,74.4,0,1,0,54,100,-7850,2003,11508,3061.5,9,WP,1,0,0,0,0,0,0,1601457249186,3758,3760,3750,0,0,0,13,,,,,,,0,0,0,161.0,5.0,744.0,-163.0,0.0,748.0,14,350.0,101.92,3019.08,28.0,98.0,0.0,0,,,100,100,0,1,0,0,0,1,0,,,,,0.0,0.0,0,LSS,1052.4699759244593,374.0498254881852,34.90236943952732,9.306438429019183,2.6850663441709592,0.09478239612959351,0
51.520088,5.862561,35.0,0.0,10.38,312.57,35.3,35.3,17.18,781.85,780735,2020-09-30 09:14:10.236,2020-09-30 11:14:10.236,17,0,0,11.508,51.519566,5.858136,2.8,10.0,0.0,-15.8,-0.4,74.5,0,1,0,54,100,-7850,2003,11508,3061.5,9,WP,1,0,0,0,0,0,0,1601457250235,3758,3760,3750,0,0,0,13,,,,,,,0,0,0,158.0,-4.0,745.0,-163.0,0.0,748.0,14,350.0,103.85,3125.74,28.0,100.0,0.0,0,,,100,100,0,1,0,0,0,1,0,,,,,0.0,0.0,0,LSS,1062.742087256964,377.05595225216734,34.900492551506034,9.908977050533753,2.899855750300862,-0.0018105372622368554,0
51.520115,5.862706,34.9,0.0,10.54,323.05,35.3,35.3,17.18,781.85,781750,2020-09-30 09:14:11.251,2020-09-30 11:14:11.251,17,0,0,11.381,51.519566,5.858136,3.0,10.1,0.0,-15.7,0.0,74.5,0,1,0,54,100,-7276,1997,11381,3061.5,9,WP,1,0,0,0,0,0,0,1601457251250,3758,3760,3750,0,0,0,13,,,,,,,0,0,0,157.0,0.0,745.0,-163.0,0.0,747.0,14,349.0,105.36,3230.46,30.0,101.0,0.0,0,,,100,100,0,1,0,0,0,1,0,,,,,0.0,0.0,0,LSS,1072.8059386833484,380.0620498623806,34.79863269552854,9.7080794391769,2.8998276271607013,-0.09825895987495681,0
51.520146,5.862868,34.9,0.0,10.57,334.71,35.3,35.3,17.18,781.85,782838,2020-09-30 09:14:12.338,2020-09-30 11:14:12.338,18,0,0,11.381,51.519566,5.858136,3.1,10.1,0.0,-14.9,1.3,74.3,0,1,0,54,100,-7276,1997,11381,3061.5,9,WP,1,0,0,0,0,0,0,1601457252338,3758,3760,3750,0,0,0,13,,,,,,,0,0,0,149.0,13.0,743.0,-163.0,0.0,747.0,14,349.0,105.65,3347.1,31.0,101.0,0.0,0,,,100,100,0,1,0,0,0,1,0,,,,,0.0,0.0,0,LSS,1084.04967461194,383.51346027715726,34.79652878745836,10.846253284475432,3.329397967463042,-0.0020295318176607557,0
51.520175,5.863013,34.9,0.0,10.35,345.19,35.3,35.3,17.18,781.85,783834,2020-09-30 09:14:13.335,2020-09-30 11:14:13.335,18,0,0,11.339,51.519566,5.858136,3.0,9.9,-0.1,-13.9,1.1,74.4,0,1,0,54,100,-7762,1993,11339,3061.5,9,WP,1,0,0,0,0,0,0,1601457253334,3758,3760,3750,0,0,0,13,,,,,,,0,0,0,139.0,11.0,744.0,-163.0,0.0,747.0,14,349.0,103.45,3451.92,30.0,99.0,-1.0,0,,,100,100,0,1,0,0,0,1,0,,,,,0.0,0.0,0,LSS,1094.11346934344,386.74212369021495,34.794618847562845,9.708024748540378,3.1145254006982976,-0.0018424207039735077,0
51.520205,5.863159,35.1,0.0,10.12,355.81,35.3,35.3,17.18,781.85,784887,2020-09-30 09:14:14.387,2020-09-30 11:14:14.387,18,0,0,11.339,51.519566,5.858136,2.9,9.7,0.0,-11.0,2.2,74.4,0,1,0,54,100,-7762,1993,11339,3061.5,9,WP,1,0,0,0,0,0,0,1601457254387,3758,3760,3750,0,0,0,13,,,,,,,0,0,0,110.0,22.0,744.0,-163.0,0.0,747.0,14,351.0,101.24,3558.13,29.0,97.0,0.0,0,,,100,100,0,1,0,0,0,1,0,,,,,0.0,0.0,0,LSS,1104.2466718395137,390.0820932041572,34.99267262785156,9.774978846293516,3.2218966667942555,0.19105228712253736,0
51.520232,5.863298,35.0,0.0,9.88,365.89,35.3,35.3,17.18,781.85,785921,2020-09-30 09:14:15.422,2020-09-30 11:14:15.422,18,0,0,11.423,51.519566,5.858136,2.7,9.5,0.0,-14.4,0.9,74.3,0,1,0,54,100,-7392,1988,11423,3061.5,9,WP,1,0,0,0,0,0,0,1601457255421,3758,3760,3750,0,0,0,13,,,,,,,0,0,0,144.0,9.0,743.0,-163.0,0.0,747.0,14,350.0,98.76,3658.88,27.0,95.0,0.0,0,,,75,100,0,1,0,0,0,1,0,,,,,0.0,0.0,0,LSS,1113.8940115507246,393.0881816074892,34.89081388168117,9.306292027286878,2.8998187457562703,-0.09825788930117293,0
51.520259,5.863438,34.9,0.0,9.71,375.97,35.3,35.3,17.18,781.85,786935,2020-09-30 09:14:16.435,2020-09-30 11:14:16.435,18,0,0,11.423,51.519566,5.858136,2.8,9.3,0.0,-15.3,1.4,74.4,0,1,0,54,100,-7392,1988,11423,3061.5,9,WP,1,0,0,0,0,0,0,1601457256435,3758,3760,3750,0,0,0,13,,,,,,,0,0,0,153.0,14.0,744.0,-163.0,0.0,747.0,14,349.0,97.12,3759.67,28.0,93.0,0.0,0,,,100,100,0,1,0,0,0,1,0,,,,,0.0,0.0,0,LSS,1123.6107496444358,396.0943035988942,34.78892695309494,9.373237074637006,2.899851146441359,-0.09828507542705005,0
