Unnamed: 0,time(millisecond),datetime(utc),lat,lon,height_above_takeoff(feet),height_above_ground_at_drone_location(feet),ground_elevation_at_drone_location(feet),altitude_above_seaLevel(feet),height_sonar(feet),speed(mph),distance(feet),satellites,gpslevel,voltage(v),max_altitude(feet),max_ascent(feet),max_speed(mph),max_distance(feet), xSpeed(mph), ySpeed(mph), zSpeed(mph), compass_heading(degrees), pitch(degrees), roll(degrees),isPhoto,isVideo,rc_elevator,rc_aileron,rc_throttle,rc_rudder,gimbal_heading(degrees),gimbal_pitch(degrees),battery_percent,voltageCell1,voltageCell2,voltageCell3,voltageCell4,voltageCell5,voltageCell6,current(A),battery_temperature(f),altitude(feet),ascent(feet),flycStateRaw,flycState,message,time,alt,Planename,uav_category,x,y,z,vel_x,vel_y,vel_z,track_id
853,128498,29/09/2020 12:00,51.52429843,5.872468168,158.5728397,149.1240205,91.86352,257.1150027,0,22.15304316,3591.50274,16,0,0,275.3138221,176.7716592,35.24880574,3788.517182,-0.447388,-2.23694,0.223694,249.7,7.6,-5.5,0,0,1024,1024,1024,1024,0,0,81,,,,,,,0,32,257.1150027,158.5728397,6,P-GPS,,2020-09-29 14:00:00,78.36865281,Parrot,Fixed-Wing,2237.482768755214,1337.410829101893,77.83670913026333,-12.338266923391588,-3.310377729836519,-0.516393425542385,0
864,130313,29/09/2020 12:00,51.52425103,5.872184458,155.8431808,146.263128,91.9947536,254.3853438,0,23.52321365,3526.509299,16,0,0,275.3138221,176.7716592,35.24880574,3788.517182,-0.671082,-2.23694,0.0,253.3,8.7,-7.4,0,0,1024,1024,1024,1024,0,0,81,,,,,,,0,32,254.3853438,155.8431808,6,P-GPS,,2020-09-29 14:00:00,77.53665278,Parrot,Fixed-Wing,2217.794053341813,1332.1283137017726,77.01267741981462,-12.338266923391588,-3.310377729836519,-0.516393425542385,0
868,130918,29/09/2020 12:00,51.52422463,5.872037585,155.4068291,145.4986923,92.3228376,253.9489921,0,23.60799368,3492.585414,16,0,0,275.3138221,176.7716592,35.24880574,3788.517182,-0.671082,-2.23694,0.0,252.8,8.6,-6.5,0,0,1024,1024,1024,1024,0,0,81,,,,,,,0,32,253.9489921,155.4068291,6,P-GPS,,2020-09-29 14:00:00,77.40365278,Parrot,Fixed-Wing,2207.6016386326655,1329.1865918091607,76.88382010492558,-6.387249276292231,-1.8434798392548521,-0.08075061845073295,0
881,133128,29/09/2020 12:00,51.5241623,5.87174292,155.3838632,145.935044,91.86352,253.9260262,0,22.82685423,3422.93318,16,0,0,275.3138221,176.7716592,35.24880574,3788.517182,-0.894776,-2.013246,-0.223694,251.8,8.0,-6.8,0,0,1024,1024,1024,1024,0,0,81,,,,,,,0,32,253.9260262,155.3838632,6,P-GPS,,2020-09-29 14:00:00,77.39665278,Parrot,Fixed-Wing,2187.15353742549,1322.242931778756,76.88529431059658,-12.814148890533549,-4.351362142301504,0.0009238359479979134,0
894,135138,29/09/2020 12:00,51.52408523,5.871478364,156.4304512,145.4068288,93.4383232,254.9726141,0,23.10714281,3356.725829,16,0,0,275.3138221,176.7716592,35.24880574,3788.517182,-1.11847,-2.013246,-0.223694,246.1,7.5,-6.9,0,0,1024,1024,1024,1024,0,0,81,,,,,,,0,32,254.9726141,156.4304512,6,P-GPS,,2020-09-29 14:00:00,77.71565279,Parrot,Fixed-Wing,2168.795897800437,1313.6603460164652,77.21232449874208,-11.504125740126735,-5.3784227058292675,0.20493900534515547,0
900,136146,29/09/2020 12:00,51.5240393,5.871350613,159.12074,147.9002672,93.6351736,257.6629029,0,22.48393133,3323.228453,16,0,0,275.3138221,176.7716592,35.24880574,3788.517182,-1.11847,-2.013246,-0.223694,245.1,5.3,-5.3,0,0,1024,1024,1024,1024,0,0,81,,,,,,,0,32,257.6629029,159.12074,6,P-GPS,,2020-09-29 14:00:00,78.53565281,Parrot,Fixed-Wing,2159.9318226487294,1308.5465818534776,78.03637807589428,-5.55482279846126,-3.204626909446337,0.5164071286824197,0
910,137822,29/09/2020 12:00,51.52399217,5.871228698,161.1876692,150.5249392,93.0774308,259.7298321,0,22.22281332,3290.715328,16,0,0,275.3138221,176.7716592,35.24880574,3788.517182,-1.11847,-1.789552,-0.223694,242.5,5.0,-1.8,0,0,1024,1024,1024,1024,0,0,81,,,,,,,0,32,259.7298321,161.1876692,6,P-GPS,,2020-09-29 14:00:00,79.16565283,Parrot,Fixed-Wing,2151.4727669570966,1303.2994529568332,78.67030618433103,-5.301010495187689,-3.28820217819677,0.3972617841187236,0
917,138884,29/09/2020 12:00,51.52394437,5.871109503,162.6968556,152.6246768,92.4868796,261.2390185,0,21.17359898,3258.61559,16,0,0,275.3138221,176.7716592,35.24880574,3788.517182,-1.11847,-1.789552,-0.223694,237.9,3.5,-1.9,0,0,1024,1024,1024,1024,0,0,81,,,,,,,0,32,261.2390185,162.6968556,6,P-GPS,,2020-09-29 14:00:00,79.62565285,Parrot,Fixed-Wing,2143.2024481033895,1297.9778381909723,79.13417064225757,-5.182735359623515,-3.3348800094882924,0.29068851766107057,0
932,141008,29/09/2020 12:00,51.52379743,5.870765442,165.3608977,159.1929185,88.58268,263.9030606,0,20.99453194,3164.422673,16,0,0,275.3138221,176.7716592,35.24880574,3788.517182,-1.11847,-1.789552,-0.223694,241.6,5.7,-0.8,0,0,1024,1024,1024,1024,0,0,81,,,,,,,0,32,263.9030606,165.3608977,6,P-GPS,,2020-09-29 14:00:00,80.43765287,Parrot,Fixed-Wing,2119.3299924483013,1281.6194883029507,79.95744106395193,-14.96007859348886,-10.251236970354656,0.5159163510527756,0
940,142170,29/09/2020 12:00,51.52374894,5.870655977,165.7414751,159.5734959,88.58268,264.2836381,0,20.63085023,3134.160205,16,0,0,275.3138221,176.7716592,35.24880574,3788.517182,-1.11847,-1.565858,0.0,237.7,2.6,-1.7,0,0,1024,1024,1024,1024,0,0,81,,,,,,,0,32,264.2836381,165.7414751,6,P-GPS,,2020-09-29 14:00:00,80.55365288,Parrot,Fixed-Wing,2111.7348323460487,1276.2213660163502,80.07703807238204,-4.759635694856143,-3.382824742941526,0.07494749059379527,0
953,144182,29/09/2020 12:00,51.52365565,5.870450888,163.7926562,158.8713962,87.3359608,262.3348191,0,18.57096403,3077.057185,16,0,0,275.3138221,176.7716592,35.24880574,3788.517182,-1.11847,-1.565858,0.0,238.7,5.9,-0.6,0,0,1024,1024,1024,1024,0,0,81,,,,,,,0,32,262.3348191,163.7926562,6,P-GPS,,2020-09-29 14:00:00,79.95965286,Parrot,Fixed-Wing,2097.5046628929626,1265.8359357860204,79.48979460475266,-8.917576662099993,-6.50820572117445,-0.36800606339699715,0
960,145279,29/09/2020 12:00,51.52360991,5.870353671,163.0643097,159.2913437,86.1876668,261.6064726,0,18.62997451,3049.73763,16,0,0,275.3138221,176.7716592,35.24880574,3788.517182,-1.11847,-1.565858,0.0,237.3,5.6,0.6,0,0,1024,1024,1024,1024,0,0,81,,,,,,,0,32,261.6064726,163.0643097,6,P-GPS,,2020-09-29 14:00:00,79.73765285,Parrot,Fixed-Wing,2090.759298159748,1260.7440933844541,79.27101376824112,-4.227097036375823,-3.190889266427624,-0.13710271604439156,0
970,147000,29/09/2020 12:00,51.52351689,5.870159826,163.5925249,163.1988241,82.8084016,262.1346879,0,19.06029466,2994.973849,16,0,0,275.3138221,176.7716592,35.24880574,3788.517182,-1.11847,-1.565858,0.0,234.9,6.0,0.4,0,0,1024,1024,1024,1024,0,0,81,,,,,,,0,32,262.1346879,163.5925249,6,P-GPS,,2020-09-29 14:00:00,79.89865286,Parrot,Fixed-Wing,2077.309676135013,1250.3892321507478,79.43843882951171,-8.428433398298951,-6.489049141783574,0.10491974982866416,0
976,147809,29/09/2020 12:00,51.52351689,5.870159826,164.0190341,163.6253333,82.8084016,262.5611971,0,19.19379524,2994.973849,15,0,0,275.3138221,176.7716592,35.24880574,3788.517182,-1.11847,-1.565858,0.0,234.5,5.2,0.8,0,0,1024,1024,1024,1024,0,0,81,,,,,,,0,32,262.5611971,164.0190341,6,P-GPS,,2020-09-29 14:00:00,80.02865286,Parrot,Fixed-Wing,2077.3097183875584,1250.3892576504145,79.56843882018836,2.647827309824804e-05,1.5979797926643562e-05,0.08146669558315843,0
992,150021,29/09/2020 12:01,51.52336835,5.869867797,163.8713963,165.5774331,80.708664,262.4135593,0,20.0453983,2911.112298,16,0,0,275.3138221,176.7716592,35.24880574,3788.517182,-1.342164,-1.565858,0.223694,236.3,4.2,3.3,0,0,1024,1024,1024,1024,0,0,81,,,,,,,0,32,262.4135593,163.8713963,6,P-GPS,,2020-09-29 14:01:00,79.98365286,Parrot,Fixed-Wing,2057.047939086676,1233.8544910398423,79.53321399472065,-12.697387112771603,-10.361791496989621,-0.022074233378103183,0
995,150605,29/09/2020 12:01,51.52336835,5.869867797,163.7204777,165.4265145,80.708664,262.2626406,0,20.26231437,2911.112298,16,0,0,275.3138221,176.7716592,35.24880574,3788.517182,-1.11847,-1.565858,0.0,236.4,5.8,1.7,0,0,1024,1024,1024,1024,0,0,81,,,,,,,0,32,262.2626406,163.7204777,6,P-GPS,,2020-09-29 14:01:00,79.93765286,Parrot,Fixed-Wing,2057.0479242816346,1233.8544821365138,79.48721399814372,-9.277829806216275e-06,-5.579421595738743e-06,-0.02882667682093019,0
1013,153040,29/09/2020 12:01,51.52321796,5.869555054,163.2185092,158.9206088,86.7126012,261.7606721,0,20.23166829,2822.864264,16,0,0,275.3138221,176.7716592,35.24880574,3788.517182,-1.342164,-1.565858,0.0,236.5,6.0,4.6,0,0,1024,1024,1024,1024,0,0,81,,,,,,,0,32,261.7606721,163.2185092,6,P-GPS,,2020-09-29 14:01:00,79.78465285,Parrot,Fixed-Wing,2035.3483839416572,1217.113369937654,79.34437945880893,-13.598384415029837,-10.491101454155434,-0.08950968284059686,0
1017,153814,29/09/2020 12:01,51.52321796,5.869555054,163.2513176,158.9534172,86.7126012,261.7934805,0,20.06190691,2822.864264,16,0,0,275.3138221,176.7716592,35.24880574,3788.517182,-1.11847,-1.565858,0.0,237.1,5.9,3.3,0,0,1024,1024,1024,1024,0,0,81,,,,,,,0,32,261.7934805,163.2513176,6,P-GPS,,2020-09-29 14:01:00,79.79465285,Parrot,Fixed-Wing,2035.3483871261947,1217.1133718464152,79.35437945848139,1.995644345582371e-06,1.1961575951142718e-06,0.006266669135186549,0
1034,156069,29/09/2020 12:01,51.52307732,5.869245238,164.2585354,154.9409498,91.7322864,262.8006984,0,19.02506285,2736.906256,16,0,0,275.3138221,176.7716592,35.24880574,3788.517182,-1.11847,-1.565858,0.0,238.7,4.0,3.1,0,0,1024,1024,1024,1024,0,0,81,,,,,,,0,32,262.8006984,164.2585354,6,P-GPS,,2020-09-29 14:01:00,80.10165286,Parrot,Fixed-Wing,2013.8515718696137,1201.4573023692205,79.67115904854347,-13.471343308563862,-9.8111410584622,0.19851529447209773,0
1040,157067,29/09/2020 12:01,51.52303326,5.869143164,164.6883255,155.2395063,91.86352,263.2304884,0,19.22750592,2708.976465,16,0,0,275.3138221,176.7716592,35.24880574,3788.517182,-1.11847,-1.565858,0.0,239.7,3.6,4.3,0,0,1024,1024,1024,1024,0,0,81,,,,,,,0,32,263.2304884,164.6883255,6,P-GPS,,2020-09-29 14:01:00,80.23265287,Parrot,Fixed-Wing,2006.7689707572058,1196.5524229749199,79.80530935351089,-4.438431924173256,-3.0737257318847373,0.08406756031507573,0
1044,157667,29/09/2020 12:01,51.52303326,5.869143164,165.0984305,155.6496113,91.86352,263.6405934,0,19.2322035,2708.976465,15,0,0,275.3138221,176.7716592,35.24880574,3788.517182,-1.11847,-1.565858,0.0,240.9,4.0,2.6,0,0,1024,1024,1024,1024,0,0,81,,,,,,,0,32,263.6405934,165.0984305,6,P-GPS,,2020-09-29 14:01:00,80.35765287,Parrot,Fixed-Wing,2006.7690100050302,1196.552446437954,79.93030934518879,2.4595313760324292e-05,1.470350760529597e-05,0.07833336154038248,0
1060,160222,29/09/2020 12:01,51.52291229,5.868837322,166.0465932,156.597774,91.86352,264.5887562,0,18.99725769,2627.122787,16,0,0,275.3138221,176.7716592,35.24880574,3788.517182,-1.11847,-1.565858,0.0,240.7,2.9,3.3,0,0,1024,1024,1024,1024,0,0,81,,,,,,,0,32,264.5887562,166.0465932,6,P-GPS,,2020-09-29 14:01:00,80.64665288,Parrot,Fixed-Wing,1985.5469771040646,1183.0850781204786,80.22845112698144,-13.299146292240852,-8.439554413161101,0.18683559630658256,0
1070,161902,29/09/2020 12:01,51.52286956,5.868728812,166.9652284,157.5164092,91.86352,265.5073914,0,18.5022005,2598.123443,16,0,0,275.3138221,176.7716592,35.24880574,3788.517182,-0.894776,-1.565858,0.0,240.8,3.3,4.6,0,0,1024,1024,1024,1024,0,0,81,,,,,,,0,32,265.5073914,166.9652284,6,P-GPS,,2020-09-29 14:01:00,80.92665289,Parrot,Fixed-Wing,1978.0176092871757,1178.3280664907143,80.51166688874935,-4.718405845103542,-2.9810618932386976,0.17748195310018766,0
1086,164333,29/09/2020 12:01,51.52274619,5.868417286,170.4954123,160.2919999,92.6181132,269.0375752,0,18.99298513,2514.760579,16,0,0,275.3138221,176.7716592,35.24880574,3788.517182,-1.11847,-1.565858,-0.223694,239.8,0.3,5.2,0,0,1024,1024,1024,1024,0,0,80,,,,,,,0,32,269.0375752,170.4954123,6,P-GPS,,2020-09-29 14:01:00,82.00265292,Parrot,Fixed-Wing,1956.4012562109253,1164.593785241485,81.59684425265561,-13.546253707518458,-8.606819921760193,0.6800447715336975,0
1090,164937,29/09/2020 12:01,51.52274619,5.868417286,172.0275646,161.8241522,92.6181132,270.5697275,0,19.20582997,2514.760579,16,0,0,275.3138221,176.7716592,35.24880574,3788.517182,-1.11847,-1.565858,-0.223694,238.2,-1.1,1.9,0,0,1024,1024,1024,1024,0,0,80,,,,,,,0,32,270.5697275,172.0275646,6,P-GPS,,2020-09-29 14:01:00,82.46965294,Parrot,Fixed-Wing,1956.401399160441,1164.5938705571002,82.06384424300563,8.958173475702506e-05,5.3464475035846686e-05,0.2926534521514844,0
1097,165943,29/09/2020 12:01,51.52270525,5.868312397,171.7815016,160.6922624,93.50394,270.3236645,0,19.37603874,2486.79798,16,0,0,275.3138221,176.7716592,35.24880574,3788.517182,-1.11847,-1.565858,0.223694,242.7,-1.1,6.2,0,0,1024,1024,1024,1024,0,0,80,,,,,,,0,32,270.3236645,171.7815016,6,P-GPS,,2020-09-29 14:01:00,82.39465294,Parrot,Fixed-Wing,1949.123110908457,1160.0360867600389,81.99189902246985,-4.561062583963419,-2.8562123981424006,-0.04508569077231756,0
1113,168168,29/09/2020 12:01,51.52257696,5.867993325,170.459323,159.1732334,93.7007904,269.001486,0,19.06065257,2401.154932,16,0,0,275.3138221,176.7716592,35.24880574,3788.517182,-1.11847,-1.565858,0.0,242.4,2.2,4.2,0,0,1024,1024,1024,1024,0,0,80,,,,,,,0,32,269.001486,170.459323,6,P-GPS,,2020-09-29 14:01:00,81.99165292,Parrot,Fixed-Wing,1926.982607819482,1145.7540602989682,81.59819563086376,-13.874721188972064,-8.950073734302432,-0.24672089734073602,0
1119,169173,29/09/2020 12:01,51.5225361,5.86789335,171.0400317,160.4101101,93.0446224,269.5821947,0,18.34574891,2374.222517,16,0,0,275.3138221,176.7716592,35.24880574,3788.517182,-1.11847,-1.565858,0.0,242.0,0.1,4.8,0,0,1024,1024,1024,1024,0,0,80,,,,,,,0,32,269.5821947,171.0400317,6,P-GPS,,2020-09-29 14:01:00,82.16865293,Parrot,Fixed-Wing,1920.0454061082976,1141.205394112461,81.7780993749052,-4.347314927196558,-2.85049869309066,0.1127397277015859,0
1130,170581,29/09/2020 12:01,51.52249573,5.867792454,169.7867508,160.1738896,92.027562,268.3289138,0,19.01602562,2347.185114,16,0,0,275.3138221,176.7716592,35.24880574,3788.517182,-1.11847,-1.565858,0.0,241.0,1.0,4.1,0,0,1024,1024,1024,1024,0,0,79,,,,,,,0,32,268.3289138,169.7867508,6,P-GPS,,2020-09-29 14:01:00,81.78665292,Parrot,Fixed-Wing,1913.0440796942423,1136.7111306772176,81.3990017816584,-4.387499758141191,-2.8164062877524736,-0.23756792646364155,0
1138,171782,29/09/2020 12:01,51.52245487,5.867689657,169.78347,161.1876692,91.0105016,268.3256329,0,18.15091144,2319.685114,16,0,0,275.3138221,176.7716592,35.24880574,3788.517182,-0.894776,-1.565858,0.0,241.6,0.9,4.3,0,0,1024,1024,1024,1024,0,0,79,,,,,,,0,32,268.3256329,169.78347,6,P-GPS,,2020-09-29 14:01:00,81.78565292,Parrot,Fixed-Wing,1905.910932589917,1132.1623783859518,81.40094237047185,-4.47010742595643,-2.850552652095717,0.0012161028419685545,0
1155,174199,29/09/2020 12:01,51.52233534,5.867390481,169.2027613,161.6240209,89.9934412,267.7449243,0,18.31040526,2239.586686,16,0,0,275.3138221,176.7716592,35.24880574,3788.517182,-0.894776,-1.565858,0.0,241.6,1.5,3.7,0,0,1024,1024,1024,1024,0,0,79,,,,,,,0,32,267.7449243,169.2027613,6,P-GPS,,2020-09-29 14:01:00,81.60865291,Parrot,Fixed-Wing,1885.1508270584015,1118.855730559195,81.23244874093723,-13.009671683876213,-8.33883619600432,-0.10558938622650207,0
1160,175171,29/09/2020 12:01,51.52233534,5.867390481,169.4258584,161.847118,89.9934412,267.9680214,0,18.56177021,2239.586686,16,0,0,275.3138221,176.7716592,35.24880574,3788.517182,-0.894776,-1.565858,0.0,243.7,-0.2,5.1,0,0,1024,1024,1024,1024,0,0,79,,,,,,,0,32,267.9680214,169.4258584,6,P-GPS,,2020-09-29 14:01:00,81.67665291,Parrot,Fixed-Wing,1885.1508471152656,1118.8557424942956,81.30044873723648,1.2568973506633976e-05,7.479332821647755e-06,0.042613349195892124,0
1170,176412,29/09/2020 12:01,51.5222567,5.867183844,169.78347,161.1548608,91.04331,268.3256329,0,18.32031491,2184.898364,16,0,0,275.3138221,176.7716592,35.24880574,3788.517182,-0.894776,-1.565858,0.0,241.1,0.6,3.5,0,0,1024,1024,1024,1024,0,0,79,,,,,,,0,32,268.3256329,169.78347,6,P-GPS,,2020-09-29 14:01:00,81.78565292,Parrot,Fixed-Wing,1870.811954456247,1110.1009991639435,81.41519255494961,-8.985709900221282,-5.486308161178789,0.07190615644685705,0
1183,178221,29/09/2020 12:01,51.52217666,5.866980844,169.7670658,159.7933122,92.3884544,268.3092287,0,18.51902229,2130.757942,15,0,0,275.3138221,176.7716592,35.24880574,3788.517182,-0.894776,-1.565858,0.0,241.6,0.4,4.7,0,0,1024,1024,1024,1024,0,0,79,,,,,,,0,32,268.3092287,169.7670658,6,P-GPS,,2020-09-29 14:01:00,81.78065292,Parrot,Fixed-Wing,1856.7254714568614,1101.1906051265105,81.41584573114045,-8.827533112695678,-5.5838493125670405,0.00040932392090317247,0
1190,179231,29/09/2020 12:01,51.5221373,5.866880304,169.4521052,158.9862256,92.8805804,267.9942681,0,18.39865254,2103.992849,16,0,0,275.3138221,176.7716592,35.24880574,3788.517182,-0.894776,-1.565858,0.0,243.4,0.6,4.5,0,0,1024,1024,1024,1024,0,0,79,,,,,,,0,32,267.9942681,169.4521052,6,P-GPS,,2020-09-29 14:01:00,81.68465291,Parrot,Fixed-Wing,1849.7487890725877,1096.8088623607616,81.32262409060479,-4.372056159555525,-2.7458933047837673,-0.05841891966108589,0
1200,180841,29/09/2020 12:01,51.52209773,5.866776782,169.4816327,158.5564355,93.339898,268.0237957,0,18.77177414,2076.591274,16,0,0,275.3138221,176.7716592,35.24880574,3788.517182,-0.894776,-1.565858,0.0,242.8,0.5,3.8,0,0,1024,1024,1024,1024,0,0,79,,,,,,,0,32,268.0237957,169.4816327,6,P-GPS,,2020-09-29 14:01:00,81.69365291,Parrot,Fixed-Wing,1842.5651595210575,1092.4037077322585,81.33445551508049,-4.501743106369319,-2.760564745036277,0.007414362501567685,0
1207,182045,29/09/2020 12:01,51.52205909,5.866672044,168.9370133,157.5524985,93.7992156,267.4791762,0,19.10823228,2049.084711,16,0,0,275.3138221,176.7716592,35.24880574,3788.517182,-0.894776,-1.565858,0.0,244.5,1.3,4.1,0,0,1024,1024,1024,1024,0,0,79,,,,,,,0,32,267.4791762,168.9370133,6,P-GPS,,2020-09-29 14:01:00,81.52765291,Parrot,Fixed-Wing,1835.2970298834575,1088.1019744115333,81.17128242489241,-4.554696516233143,-2.695754031176137,-0.10225518014674125,0
1220,184059,29/09/2020 12:01,51.52198144,5.8664644,169.373365,159.4652282,92.3228376,267.9155279,0,18.83367027,1994.402951,16,0,0,275.3138221,176.7716592,35.24880574,3788.517182,-0.894776,-1.565858,0.0,241.9,-0.7,5.6,0,0,1024,1024,1024,1024,0,0,78,,,,,,,0,32,267.9155279,169.373365,6,P-GPS,,2020-09-29 14:01:00,81.66065291,Parrot,Fixed-Wing,1820.8880374609782,1079.4574979559065,81.30987345294562,-9.029639104066371,-5.417207556868002,0.08685041463619038,0
1227,185069,29/09/2020 12:01,51.5219422,5.866360148,169.0944936,159.94095,91.5682444,267.6366565,0,19.7262317,1966.919354,16,0,0,275.3138221,176.7716592,35.24880574,3788.517182,-1.11847,-1.789552,0.0,242.6,0.5,5.1,0,0,1024,1024,1024,1024,0,0,78,,,,,,,0,32,267.6366565,169.0944936,6,P-GPS,,2020-09-29 14:01:00,81.57565291,Parrot,Fixed-Wing,1813.6536506660423,1075.0890659928184,81.22766865322717,-4.533550992474965,-2.737551864890698,-0.051515029803310596,0
1241,187279,29/09/2020 12:01,51.52182306,5.866038114,169.3044674,159.3963306,92.3228376,267.8466303,0,18.82449881,1882.358984,16,0,0,275.3138221,176.7716592,35.24880574,3788.517182,-0.894776,-1.565858,0.0,242.9,-1.0,4.5,0,0,1024,1024,1024,1024,0,0,78,,,,,,,0,32,267.8466303,169.3044674,6,P-GPS,,2020-09-29 14:01:00,81.63965291,Parrot,Fixed-Wing,1791.306592408289,1061.8256701093947,81.30019401336392,-14.004162483301432,-8.311731633284383,0.045449245077375355,0
1250,188288,29/09/2020 12:01,51.52178277,5.865930695,168.7664096,156.66011,94.5210004,267.3085725,0,19.22804279,1854.081424,16,0,0,275.3138221,176.7716592,35.24880574,3788.517182,-0.894776,-1.565858,0.0,242.8,1.1,3.9,0,0,1024,1024,1024,1024,0,0,77,,,,,,,0,32,267.3085725,168.7664096,6,P-GPS,,2020-09-29 14:01:00,81.47565291,Parrot,Fixed-Wing,1783.8523584066322,1057.3403676983726,81.13902439480842,-4.671321967468896,-2.8107907101778706,-0.10099967072130912,0
1260,189899,29/09/2020 12:01,51.52174425,5.865824577,169.1765146,154.9704774,96.620738,267.7186775,0,18.9596771,1826.341922,16,0,0,275.3138221,176.7716592,35.24880574,3788.517182,-0.894776,-1.565858,0.0,245.3,-0.8,5.6,0,0,1024,1024,1024,1024,0,0,77,,,,,,,0,32,267.7186775,169.1765146,6,P-GPS,,2020-09-29 14:01:00,81.60065291,Parrot,Fixed-Wing,1776.4884233409796,1053.0520853959306,81.26678529927705,-4.614734610095755,-2.687324722788859,0.08006353429411615,0
1264,190505,29/09/2020 12:01,51.52170454,5.865719397,168.779533,153.4908186,97.7034152,267.3216959,0,19.2030338,1798.628666,16,0,0,275.3138221,176.7716592,35.24880574,3788.517182,-0.894776,-1.565858,0.0,242.1,1.0,1.9,0,0,1024,1024,1024,1024,0,0,77,,,,,,,0,32,267.3216959,168.779533,6,P-GPS,,2020-09-29 14:01:00,81.47965291,Parrot,Fixed-Wing,1769.1895586530436,1048.631396829338,81.14853859225434,-4.573957155994931,-2.770299350392429,-0.07410130135078448,0
1280,192916,29/09/2020 12:01,51.52162408,5.865504462,168.5564358,152.4475114,98.5236252,267.0985988,0,19.76669794,1742.112917,16,0,0,275.3138221,176.7716592,35.24880574,3788.517182,-0.894776,-1.789552,0.0,243.7,0.5,4.2,0,0,1024,1024,1024,1024,0,0,77,,,,,,,0,32,267.0985988,168.5564358,6,P-GPS,,2020-09-29 14:01:00,81.41165291,Parrot,Fixed-Wing,1754.274335710785,1039.674260426485,81.08611701794524,-9.346877031816287,-5.613141207394756,-0.03911753659051737,0
1287,193920,29/09/2020 12:01,51.52158431,5.865394022,168.4842574,151.555123,99.3438352,267.0264203,0,20.19938924,1713.313703,16,0,0,275.3138221,176.7716592,35.24880574,3788.517182,-1.11847,-1.789552,0.0,244.3,0.3,5.4,0,0,1024,1024,1024,1024,0,0,76,,,,,,,0,32,267.0264203,168.4842574,6,P-GPS,,2020-09-29 14:01:00,81.3896529,Parrot,Fixed-Wing,1746.6103732856252,1035.2468192220942,81.06693654161342,-4.802751835607562,-2.774531005218123,-0.012019770296379594,0
1300,195725,29/09/2020 12:01,51.52150137,5.865164026,168.3595854,151.0367502,99.737536,266.9017484,0,20.6576264,1653.34651,16,0,0,275.3138221,176.7716592,35.24880574,3788.517182,-1.11847,-1.789552,0.0,244.8,0.5,4.6,0,0,1024,1024,1024,1024,0,0,76,,,,,,,0,32,266.9017484,168.3595854,6,P-GPS,,2020-09-29 14:01:00,81.3516529,Parrot,Fixed-Wing,1730.6498092251516,1026.0134742436608,81.03477107284107,-10.001957745398787,-5.786231988610629,-0.020157035697673343,0
1305,196530,29/09/2020 12:01,51.52145999,5.865048854,168.8713965,152.0078789,99.2782184,267.4135594,0,20.11780804,1623.349789,16,0,0,275.3138221,176.7716592,35.24880574,3788.517182,-0.894776,-1.789552,0.0,245.1,0.5,2.9,0,0,1024,1024,1024,1024,0,0,76,,,,,,,0,32,267.4135594,168.8713965,6,P-GPS,,2020-09-29 14:01:00,81.50765291,Parrot,Fixed-Wing,1722.657472150516,1021.4068579588024,81.19367003616622,-5.008533370412511,-2.8868141035518975,0.099576726169835,0
1322,199150,29/09/2020 12:01,51.52138155,5.864828086,170.3608978,156.5813698,96.1942288,268.9030608,0,19.63892393,1565.994145,16,0,0,275.3138221,176.7716592,35.24880574,3788.517182,-0.894776,-1.789552,0.0,246.8,-1.0,2.1,0,0,1024,1024,1024,1024,0,0,75,,,,,,,0,32,268.9030608,170.3608978,6,P-GPS,,2020-09-29 14:01:00,81.96165292,Parrot,Fixed-Wing,1707.3372894294853,1012.6745501410339,81.6531741317039,-9.60065193479075,-5.472248567294325,0.2879560227315169,0
1330,200353,29/09/2020 12:01,51.52130382,5.864600995,170.295281,160.5511862,92.1587956,268.837444,0,20.66677549,1507.447555,16,0,0,275.3138221,176.7716592,35.24880574,3788.517182,-0.894776,-1.789552,0.0,245.7,-0.2,3.9,0,0,1024,1024,1024,1024,0,0,75,,,,,,,0,32,268.837444,170.295281,6,P-GPS,,2020-09-29 14:01:00,81.94165292,Parrot,Fixed-Wing,1691.5780268227154,1004.0210609620867,81.63873332191218,-9.875808780587537,-5.4228555325586125,-0.009049577997299147,0
1342,201962,29/09/2020 12:01,51.521264,5.864483667,170.8956748,162.6607664,90.6496092,269.4378377,0,20.2307064,1477.257265,16,0,0,275.3138221,176.7716592,35.24880574,3788.517182,-0.894776,-1.789552,-0.223694,245.9,-1.0,3.3,0,0,1024,1024,1024,1024,0,0,74,,,,,,,0,32,269.4378377,170.8956748,6,P-GPS,,2020-09-29 14:01:00,82.12465293,Parrot,Fixed-Wing,1683.43592162239,999.5880250571795,81.82457976607225,-5.102388102556194,-2.778037019037658,0.11646382136487,0
1350,203373,29/09/2020 12:01,51.52118463,5.864259614,171.5485619,166.6929187,87.270344,270.0907249,0,19.74397063,1419.15687,16,0,0,275.3138221,176.7716592,35.24880574,3788.517182,-0.894776,-1.789552,0.0,242.6,-1.9,2.4,0,0,1024,1024,1024,1024,0,0,74,,,,,,,0,32,270.0907249,171.5485619,6,P-GPS,,2020-09-29 14:01:00,82.32365293,Parrot,Fixed-Wing,1667.88755957707,990.7522474154302,82.02903556765972,-9.743644372355396,-5.537089684654459,0.12812569032844323,0
1360,205066,29/09/2020 12:01,51.52114295,5.864144934,170.521659,167.2736274,85.6627324,269.0638219,0,20.94934575,1389.281541,16,0,0,275.3138221,176.7716592,35.24880574,3788.517182,-1.11847,-1.789552,0.0,244.2,0.8,4.0,0,0,1024,1024,1024,1024,0,0,74,,,,,,,0,32,269.0638219,170.521659,6,P-GPS,,2020-09-29 14:01:00,82.01065292,Parrot,Fixed-Wing,1659.9291458095684,986.1122892495739,81.7188268713839,-4.9872747555383095,-2.907708357892207,-0.19439753260912912,0
1366,205790,29/09/2020 12:01,51.52110186,5.864029185,170.5577482,167.4081418,85.5643072,269.0999112,0,20.64261654,1359.278259,16,0,0,275.3138221,176.7716592,35.24880574,3788.517182,-1.11847,-1.789552,0.0,244.9,-0.2,3.3,0,0,1024,1024,1024,1024,0,0,74,,,,,,,0,32,269.0999112,170.5577482,6,P-GPS,,2020-09-29 14:01:00,82.02165292,Parrot,Fixed-Wing,1651.8965821076456,981.5380129988288,81.73261396297414,-5.033742067601541,-2.866547673527288,0.00863991441625059,0
1383,208271,29/09/2020 12:01,51.52101983,5.86379297,170.439638,163.1889816,89.6653572,268.9818009,0,21.85468011,1298.333375,16,0,0,275.3138221,176.7716592,35.24880574,3788.517182,-1.11847,-2.013246,0.0,246.8,-0.4,3.1,0,0,1024,1024,1024,1024,0,0,73,,,,,,,0,32,268.9818009,170.439638,6,P-GPS,,2020-09-29 14:01:00,81.98565292,Parrot,Fixed-Wing,1635.5039866094512,972.4060733391188,81.70222928175156,-10.272697561886114,-5.72268462843033,-0.01904107502367901,0
1390,209344,29/09/2020 12:02,51.52097793,5.86366731,170.9087981,160.6725773,92.6509216,269.4509611,0,21.47726359,1266.16802,16,0,0,275.3138221,176.7716592,35.24880574,3788.517182,-1.11847,-1.789552,0.0,242.7,-0.6,3.0,0,0,1024,1024,1024,1024,0,0,73,,,,,,,0,32,269.4509611,170.9087981,6,P-GPS,,2020-09-29 14:02:00,82.12865293,Parrot,Fixed-Wing,1626.7835239730753,967.7415151982834,81.84816469298187,-5.464825583787839,-2.9231243487899214,0.09145289672423128,0
1403,211427,29/09/2020 12:02,51.52085406,5.863315166,171.3451498,156.023627,97.7362236,269.8873128,0,20.07289029,1175.226416,16,0,0,275.3138221,176.7716592,35.24880574,3788.517182,-0.894776,-1.789552,0.0,249.0,-3.2,4.9,0,0,1024,1024,1024,1024,0,0,72,,,,,,,0,32,269.8873128,171.3451498,6,P-GPS,,2020-09-29 14:02:00,82.26165293,Parrot,Fixed-Wing,1602.3457588576823,953.9520337950759,81.98941656356828,-15.314339339764366,-8.641412033012537,0.08851787666844799,0
1410,212429,29/09/2020 12:02,51.52081416,5.863195993,172.0570921,157.3261205,97.1456724,270.5992551,0,21.28077078,1144.747412,16,0,0,275.3138221,176.7716592,35.24880574,3788.517182,-1.11847,-1.789552,-0.223694,246.6,0.9,2.9,0,0,1024,1024,1024,1024,0,0,72,,,,,,,0,32,270.5992551,172.0570921,6,P-GPS,,2020-09-29 14:02:00,82.47865294,Parrot,Fixed-Wing,1594.0754428044504,949.5102036783778,82.2091478044461,-5.182733604658334,-2.783548060777946,0.13769830303470998,0
1420,213632,29/09/2020 12:02,51.52077513,5.86308148,172.7296643,158.3923935,96.7519716,271.2718273,0,20.0070124,1115.380613,16,0,0,275.3138221,176.7716592,35.24880574,3788.517182,-0.894776,-1.789552,0.0,245.8,-2.1,4.3,0,0,1024,1024,1024,1024,0,0,72,,,,,,,0,32,271.2718273,172.7296643,6,P-GPS,,2020-09-29 14:02:00,82.68365295,Parrot,Fixed-Wing,1586.128528353468,945.1652818488083,82.41677062902062,-4.9800685141115215,-2.7228188415996284,0.13011035891378203,0
1428,214839,29/09/2020 12:02,51.52073476,5.862967905,171.9750711,156.9160155,97.4737564,270.5172341,0,20.65579211,1086.059746,16,0,0,275.3138221,176.7716592,35.24880574,3788.517182,-0.894776,-1.789552,0.0,244.5,-1.3,2.3,0,0,1024,1024,1024,1024,0,0,72,,,,,,,0,32,270.5172341,171.9750711,6,P-GPS,,2020-09-29 14:02:00,82.45365294,Parrot,Fixed-Wing,1578.2466451787104,940.6712402761636,82.18938652008711,-4.939315563622739,-2.8162672537979896,-0.1424941023958144,0
1440,216799,29/09/2020 12:02,51.52065403,5.862733591,172.0111604,155.3773016,99.0485596,270.5533233,0,20.45064235,1025.951476,16,0,0,275.3138221,176.7716592,35.24880574,3788.517182,-0.894776,-1.789552,0.0,244.5,-0.9,3.5,0,0,1024,1024,1024,1024,0,0,72,,,,,,,0,32,270.5533233,172.0111604,6,P-GPS,,2020-09-29 14:02:00,82.46465294,Parrot,Fixed-Wing,1561.9857001475175,931.6842234141739,82.20570104796445,-10.190196567364772,-5.631866303109889,0.010223775165277973,0
1446,217644,29/09/2020 12:02,51.52061432,5.862618036,171.7027614,155.265753,98.8517092,270.2449243,0,21.4801045,996.3517379,16,0,0,275.3138221,176.7716592,35.24880574,3788.517182,-1.11847,-1.789552,0.0,243.1,-0.7,4.8,0,0,1024,1024,1024,1024,0,0,72,,,,,,,0,32,270.2449243,171.7027614,6,P-GPS,,2020-09-29 14:02:00,82.37065294,Parrot,Fixed-Wing,1553.9663544918806,927.2636291452898,82.11430042012961,-5.025458755061542,-2.770240257136538,-0.05727775121500931,0
1465,220462,29/09/2020 12:02,51.52048146,5.862248319,174.5505305,160.7053857,96.2598456,273.0926935,0,20.80622633,901.1319186,16,0,0,275.3138221,176.7716592,35.24880574,3788.517182,-1.11847,-1.789552,0.0,244.2,-3.4,4.0,0,0,1024,1024,1024,1024,0,0,70,,,,,,,0,32,273.0926935,174.5505305,6,P-GPS,,2020-09-29 14:02:00,83.23865296,Parrot,Fixed-Wing,1528.3089246035063,912.4740112974994,82.99062136209142,-16.07866292361073,-9.26816447236549,0.5491613579382456,0
1470,221263,29/09/2020 12:02,51.52048146,5.862248319,174.5767772,160.7316324,96.2598456,273.1189402,0,20.73574035,901.1319186,16,0,0,275.3138221,176.7716592,35.24880574,3788.517182,-1.11847,-1.789552,0.0,243.5,-4.8,-0.2,0,0,1024,1024,1024,1024,0,0,70,,,,,,,0,32,273.1189402,174.5767772,6,P-GPS,,2020-09-29 14:02:00,83.24665296,Parrot,Fixed-Wing,1528.308926516443,912.4740124427935,82.99862136168315,1.1987742367408984e-06,7.177179820240966e-07,0.005013335216508363,0
1481,223198,29/09/2020 12:02,51.52039243,5.862008703,175.8858324,162.6968556,95.6036776,274.4279953,0,21.81676397,839.3044888,16,0,0,275.3138221,176.7716592,35.24880574,3788.517182,-1.11847,-2.013246,-0.223694,246.4,-2.8,4.1,0,0,1024,1024,1024,1024,0,0,70,,,,,,,0,32,274.4279953,175.8858324,6,P-GPS,,2020-09-29 14:02:00,83.64565298,Parrot,Fixed-Wing,1511.6801533307225,902.5636447933075,83.40298692752418,-10.42070230921786,-6.210499710157791,0.2534025293787932,0
1489,224293,29/09/2020 12:02,51.52035008,5.861885303,177.16536,164.9606352,94.6194256,275.7075229,0,21.41861102,807.9330967,16,0,0,275.7075229,177.16536,35.24880574,3788.517182,-1.11847,-1.789552,0.0,246.1,-5.8,2.3,0,0,1024,1024,1024,1024,0,0,69,,,,,,,0,32,275.7075229,177.16536,6,P-GPS,,2020-09-29 14:02:00,84.03565299,Parrot,Fixed-Wing,1503.1163926579702,897.8493112382771,83.79567245174405,-5.366625644685064,-2.9543169549942894,0.24608303350654692,0
1502,226407,29/09/2020 12:02,51.52026503,5.861637975,178.6351763,169.0223151,92.027562,277.1773393,0,21.0018691,745.2001551,15,0,0,277.223271,178.6811081,35.24880574,3788.517182,-1.11847,-1.789552,-0.223694,242.8,-4.1,0.2,0,0,1024,1024,1024,1024,0,0,69,,,,,,,0,32,277.1773393,178.6351763,6,P-GPS,,2020-09-29 14:02:00,84.483653,Parrot,Fixed-Wing,1485.9521058769812,888.3816879242098,84.24901256833931,-10.756290972103896,-5.933046474915326,0.2840932609461523,0
1510,227477,29/09/2020 12:02,51.52022317,5.861518901,180.9022368,170.7972496,92.519688,279.4443997,0,19.3890801,715.0000229,16,0,0,279.4443997,180.9022368,35.24880574,3788.517182,-0.894776,-1.565858,0.0,243.2,-4.9,3.8,0,0,1024,1024,1024,1024,0,0,68,,,,,,,0,32,279.4443997,180.9022368,6,P-GPS,,2020-09-29 14:02:00,85.17465303,Parrot,Fixed-Wing,1477.688619133646,883.7220426495196,84.94257616250758,-5.17845390196379,-2.920045618025326,0.43463337112235273,0
1520,228555,29/09/2020 12:02,51.52014348,5.861303788,179.3668036,168.3103728,93.4711316,277.9089666,0,19.09349085,660.2624883,16,0,0,279.4443997,180.9022368,35.24880574,3788.517182,-0.894776,-1.565858,0.223694,242.9,-6.3,2.0,0,0,1024,1024,1024,1024,0,0,68,,,,,,,0,32,277.9089666,179.3668036,6,P-GPS,,2020-09-29 14:02:00,84.70665301,Parrot,Fixed-Wing,1462.7599210470985,874.8513723469208,84.47923379225193,-9.355321459173561,-5.558955761449703,-0.29036134258104407,0
1525,229521,29/09/2020 12:02,51.52010324,5.8612001,179.0780897,167.5623413,93.9304492,277.6202527,0,18.99607211,633.8517263,16,0,0,279.4443997,180.9022368,35.24880574,3788.517182,-1.11847,-1.565858,0.0,243.7,-3.9,2.6,0,0,1024,1024,1024,1024,0,0,68,,,,,,,0,32,277.6202527,179.0780897,6,P-GPS,,2020-09-29 14:02:00,84.61865301,Parrot,Fixed-Wing,1455.5641150784732,870.372203455084,84.39348974874667,-4.509373664337974,-2.8069470365151434,-0.053732956856023334,0
1542,231941,29/09/2020 12:02,51.52001797,5.86098266,177.6443626,165.1115538,94.9475096,276.1865256,0,18.66936702,578.802512,15,0,0,279.4443997,180.9022368,35.24880574,3788.517182,-0.894776,-1.565858,0.223694,243.2,-3.9,4.4,0,0,1024,1024,1024,1024,0,0,68,,,,,,,0,32,276.1865256,177.6443626,6,P-GPS,,2020-09-29 14:02:00,84.18165299,Parrot,Fixed-Wing,1440.4740056792302,860.8807294773758,83.96119737432923,-9.456472591620535,-5.947992897174115,-0.27090333688702145,0
1545,232541,29/09/2020 12:02,51.51997988,5.86087645,176.9685096,164.206042,95.1771684,275.5106725,0,19.13688748,552.4081542,15,0,0,279.4443997,180.9022368,35.24880574,3788.517182,-0.894776,-1.565858,0.223694,244.3,-3.1,3.8,0,0,1024,1024,1024,1024,0,0,68,,,,,,,0,32,275.5106725,176.9685096,6,P-GPS,,2020-09-29 14:02:00,83.97565299,Parrot,Fixed-Wing,1433.103012531278,856.6407358751076,83.75742556823064,-4.619157676890702,-2.657063791101965,-0.1276970529725236,0
1557,234558,29/09/2020 12:02,51.51990293,5.86064112,176.2040739,163.4744147,95.14436,274.7462368,0,20.30595707,494.9048715,16,0,0,279.4443997,180.9022368,35.24880574,3788.517182,-0.894776,-1.789552,-0.223694,245.8,-0.4,2.9,0,0,1024,1024,1024,1024,0,0,68,,,,,,,0,32,274.7462368,176.2040739,6,P-GPS,,2020-09-29 14:02:00,83.74265298,Parrot,Fixed-Wing,1416.7708444514249,848.0746918480049,83.52921213249141,-10.23482969690194,-5.368056547355111,-0.14301381408248134,0
1570,236771,29/09/2020 12:02,51.51982727,5.860416338,176.5682471,166.5288767,92.4540712,275.1104101,0,20.81134892,440.6004078,17,0,0,279.4443997,180.9022368,35.24880574,3788.517182,-0.894776,-1.789552,0.0,239.7,-3.2,0.7,0,0,1024,1024,1024,1024,0,0,68,,,,,,,0,32,275.1104101,176.5682471,6,P-GPS,,2020-09-29 14:02:00,83.85365298,Parrot,Fixed-Wing,1401.1708085548566,839.6524731938213,83.64476606972522,-9.776026666287459,-5.277925941870166,0.07241383156309068,0
1575,237579,29/09/2020 12:02,51.51978928,5.860299375,175.8759899,168.4940999,89.7965908,274.4181528,0,20.02186569,412.7854463,17,0,0,279.4443997,180.9022368,35.24880574,3788.517182,-0.894776,-1.789552,0.223694,247.7,-1.4,5.0,0,0,1024,1024,1024,1024,0,0,68,,,,,,,0,32,274.4181528,175.8759899,6,P-GPS,,2020-09-29 14:02:00,83.64265298,Parrot,Fixed-Wing,1393.0533691266567,835.4234582643046,83.43609611618109,-5.0869308787625,-2.6501838199088734,-0.13076656001472114,0
1591,240197,29/09/2020 12:02,51.51971091,5.860067747,172.7296643,169.0551235,86.0892416,271.2718273,0,20.03821772,358.7007989,17,0,0,279.4443997,180.9022368,35.24880574,3788.517182,-0.894776,-1.789552,0.0,245.9,-0.2,2.1,0,0,1024,1024,1024,1024,0,0,68,,,,,,,0,32,271.2718273,172.7296643,6,P-GPS,,2020-09-29 14:02:00,82.68365295,Parrot,Fixed-Wing,1376.977915232864,826.6995312414342,82.48171696079993,-10.073955404997703,-5.466996600250657,-0.5980778592187478,0
1595,240604,29/09/2020 12:02,51.51967134,5.85995411,172.5360948,170.1082732,84.8425224,271.0782577,0,20.07208499,332.8969923,17,0,0,279.4443997,180.9022368,35.24880574,3788.517182,-0.894776,-1.789552,0.0,246.0,-0.3,2.4,0,0,1024,1024,1024,1024,0,0,68,,,,,,,0,32,271.0782577,172.5360948,6,P-GPS,,2020-09-29 14:02:00,82.62465294,Parrot,Fixed-Wing,1369.0913798582715,822.2948478266253,82.42498088792951,-4.942230943429861,-2.760269450995219,-0.03555462083543576,0
1611,243212,29/09/2020 12:02,51.51958977,5.859718875,169.5505304,168.4022364,83.5629948,268.0926933,0,20.76777333,281.820219,17,0,0,279.4443997,180.9022368,35.24880574,3788.517182,-0.894776,-1.789552,0.0,245.1,1.0,2.5,0,0,1024,1024,1024,1024,0,0,68,,,,,,,0,32,268.0926933,169.5505304,6,P-GPS,,2020-09-29 14:02:00,81.71465291,Parrot,Fixed-Wing,1352.7655868823986,813.2149089342079,81.51962191807593,-10.23083463003646,-5.690097467023175,-0.567358529847883,0
1626,245435,29/09/2020 12:02,51.51950898,5.859484235,168.1397692,166.6633912,83.8910788,266.6819321,0,19.80935639,235.6358343,17,0,0,279.4443997,180.9022368,35.24880574,3788.517182,-0.894776,-1.789552,0.0,247.5,1.3,3.1,0,0,1024,1024,1024,1024,0,0,68,,,,,,,0,32,266.6819321,168.1397692,6,P-GPS,,2020-09-29 14:02:00,81.2846529,Parrot,Fixed-Wing,1336.4811177207994,804.2218791318218,81.09418874255095,-10.204938362042526,-5.6356344140326415,-0.2666049037470749,0
1631,245836,29/09/2020 12:02,51.5194698,5.859369443,167.7066983,165.4101103,84.7112888,266.2488612,0,19.83702733,215.6686421,17,0,0,279.4443997,180.9022368,35.24880574,3788.517182,-0.894776,-1.789552,0.0,247.6,1.3,0.7,0,0,1024,1024,1024,1024,0,0,68,,,,,,,0,32,266.2488612,167.7066983,6,P-GPS,,2020-09-29 14:02:00,81.1526529,Parrot,Fixed-Wing,1328.5143172812536,799.860621029866,80.9643984125189,-4.992530405594977,-2.7330562433295946,-0.08133530818981698,0
1640,247455,29/09/2020 12:02,51.51943105,5.859255265,167.0833387,163.7696903,85.7283492,265.6255016,0,19.6135794,198.2093239,17,0,0,279.4443997,180.9022368,35.24880574,3788.517182,-0.894776,-1.789552,0.0,246.4,1.6,1.1,0,0,1024,1024,1024,1024,0,0,68,,,,,,,0,32,265.6255016,167.0833387,6,P-GPS,,2020-09-29 14:02:00,80.96265289,Parrot,Fixed-Wing,1320.5900979534547,795.5472211017096,80.77658038572298,-4.965846230848392,-2.70306510828579,-0.11769934701050026,0
1650,248864,29/09/2020 12:02,51.51935451,5.85903411,166.6994804,160.6299264,88.4842548,265.2416433,0,19.59816688,174.3084045,17,0,0,279.4443997,180.9022368,35.24880574,3788.517182,-0.894776,-1.789552,0.0,244.9,1.7,2.8,0,0,1024,1024,1024,1024,0,0,68,,,,,,,0,32,265.2416433,166.6994804,6,P-GPS,,2020-09-29 14:02:00,80.84565289,Parrot,Fixed-Wing,1305.2414822252597,787.0274292476329,80.66379086604258,-9.61846996021605,-5.339071839892077,-0.07068146249047763,0
1660,250676,29/09/2020 12:02,51.51927662,5.858807845,165.4232336,157.1883252,90.6496092,263.9653966,0,20.01502065,167.5095198,17,0,0,279.4443997,180.9022368,35.24880574,3788.517182,-0.894776,-1.789552,0.223694,245.9,2.2,2.3,0,0,1024,1024,1024,1024,0,0,68,,,,,,,0,32,263.9653966,165.4232336,6,P-GPS,,2020-09-29 14:02:00,80.45665287,Parrot,Fixed-Wing,1289.538103043128,778.3573604698906,80.27904301326748,-9.840788486205547,-5.433245418903185,-0.24110875727879424,0
1669,252085,29/09/2020 12:02,51.51923679,5.858694861,165.6069607,157.0767767,90.9448848,264.1491236,0,19.7309069,172.0229714,17,0,0,279.4443997,180.9022368,35.24880574,3788.517182,-0.894776,-1.789552,0.0,245.4,2.3,2.9,0,0,1024,1024,1024,1024,0,0,68,,,,,,,0,32,264.1491236,165.6069607,6,P-GPS,,2020-09-29 14:02:00,80.51265288,Parrot,Fixed-Wing,1281.6967768468658,773.9239129885034,80.33716009178494,-4.913899846255003,-2.778294940408516,0.03642005141016037,0
1680,253900,29/09/2020 12:02,51.51915527,5.858468029,164.6063045,155.0262517,91.9947536,263.1484674,0,20.15608209,195.2893763,17,0,0,279.4443997,180.9022368,35.24880574,3788.517182,-1.11847,-1.789552,0.0,244.5,2.7,2.7,0,0,1024,1024,1024,1024,0,0,68,,,,,,,0,32,263.1484674,164.6063045,6,P-GPS,,2020-09-29 14:02:00,80.20765287,Parrot,Fixed-Wing,1265.954079747791,764.850046353695,80.03639282966304,-9.865427724669372,-5.686292183964585,-0.18848089801490364,0
1687,254904,29/09/2020 12:02,51.51911402,5.858356156,166.1384568,156.066278,92.4868796,264.6806197,0,19.87100645,212.4097837,17,0,0,279.4443997,180.9022368,35.24880574,3788.517182,-1.11847,-1.789552,0.0,244.3,1.0,5.3,0,0,1024,1024,1024,1024,0,0,68,,,,,,,0,32,264.6806197,166.1384568,6,P-GPS,,2020-09-29 14:02:00,80.67465288,Parrot,Fixed-Wing,1258.1899493533153,760.2587149025758,80.50547522686514,-4.8655237898282016,-2.8772356036552424,0.2939584276689123,0
1700,256718,29/09/2020 12:02,51.51903367,5.858137272,167.0505303,156.0269079,93.4383232,265.5926932,0,19.6548062,252.4927902,17,0,0,279.4443997,180.9022368,35.24880574,3788.517182,-0.894776,-1.789552,0.0,245.0,0.5,2.7,0,0,1024,1024,1024,1024,0,0,68,,,,,,,0,32,265.5926932,167.0505303,6,P-GPS,,2020-09-29 14:02:00,80.95265289,Parrot,Fixed-Wing,1242.9989403966865,751.3152990868093,80.78750800415173,-9.51970300789401,-5.6045429691519795,0.17674061584225792,0
1710,258586,29/09/2020 12:02,51.51899348,5.858026673,167.0899004,155.574152,93.9304492,265.6320633,0,18.86811914,275.000665,17,0,0,279.4443997,180.9022368,35.24880574,3788.517182,-0.894776,-1.565858,-0.223694,243.3,1.8,2.3,0,0,1024,1024,1024,1024,0,0,68,,,,,,,0,32,265.6320633,167.0899004,6,P-GPS,,2020-09-29 14:02:00,80.96465289,Parrot,Fixed-Wing,1235.3230809306226,746.8419046646861,80.80152186958532,-4.810207317755173,-2.8033283672839704,0.008782026085376383,0
1723,260065,29/09/2020 12:02,51.51891516,5.85781594,168.7073545,156.2729709,94.8490844,267.2495174,0,19.08590762,321.3812439,17,0,0,279.4443997,180.9022368,35.24880574,3788.517182,-0.894776,-1.565858,0.0,244.6,-2.2,4.5,0,0,1024,1024,1024,1024,0,0,67,,,,,,,0,32,267.2495174,168.7073545,6,P-GPS,,2020-09-29 14:02:00,81.45765291,Parrot,Fixed-Wing,1220.6977592149922,738.124574205945,81.29834729765906,-9.165205518949426,-5.4628627516325405,0.31134406776635115,0
1730,260936,29/09/2020 12:02,51.51887437,5.857707011,169.4192968,155.902236,95.9317616,267.9614597,0,19.96099855,346.5321633,17,0,0,279.4443997,180.9022368,35.24880574,3788.517182,-1.11847,-1.789552,0.0,246.8,2.4,4.1,0,0,1024,1024,1024,1024,0,0,67,,,,,,,0,32,267.9614597,169.4192968,6,P-GPS,,2020-09-29 14:02:00,81.67465291,Parrot,Fixed-Wing,1213.1378336077462,733.5845086850636,81.5173107966678,-4.737555401897789,-2.8451089403321577,0.13721718459147395,0
1740,262714,29/09/2020 12:02,51.51883419,5.857598467,170.2329451,155.7972491,96.8503968,268.775108,0,19.5281954,371.9882009,17,0,0,279.4443997,180.9022368,35.24880574,3788.517182,-0.894776,-1.789552,0.0,242.3,0.3,4.3,0,0,1024,1024,1024,1024,0,0,67,,,,,,,0,32,268.775108,170.2329451,6,P-GPS,,2020-09-29 14:02:00,81.92265292,Parrot,Fixed-Wing,1205.6046076358432,729.1123323886292,81.76724932859491,-4.720823623277289,-2.8025650081933198,0.1566282135023626,0
1746,263762,29/09/2020 12:02,51.51875631,5.857384994,170.4265146,155.9908186,96.8503968,268.9686776,0,18.55720685,422.919961,17,0,0,279.4443997,180.9022368,35.24880574,3788.517182,-0.894776,-1.565858,0.0,240.5,1.3,1.9,0,0,1024,1024,1024,1024,0,0,67,,,,,,,0,32,268.9686776,170.4265146,6,P-GPS,,2020-09-29 14:02:00,81.98165292,Parrot,Fixed-Wing,1190.7888957063503,720.4439456379964,81.83001242096196,-9.284516770542682,-5.432191348131497,0.03933155466481432,0
1760,265575,29/09/2020 12:02,51.51871659,5.857280946,167.7788768,153.8024984,96.3910792,266.3210397,0,19.76969544,448.7073634,17,0,0,279.4443997,180.9022368,35.24880574,3788.517182,-1.11847,-1.789552,0.0,243.8,3.0,4.2,0,0,1024,1024,1024,1024,0,0,67,,,,,,,0,32,266.3210397,167.7788768,6,P-GPS,,2020-09-29 14:02:00,81.1746529,Parrot,Fixed-Wing,1183.5675027218688,716.0229354538221,81.02485185143803,-4.5254082011159396,-2.770500897496273,-0.5045675055171347,0
1767,266577,29/09/2020 12:02,51.51867487,5.857172869,167.1850447,153.8320259,95.7677196,265.7272077,0,19.73728218,475.8530336,17,0,0,279.4443997,180.9022368,35.24880574,3788.517182,-1.11847,-1.789552,0.0,242.4,0.9,3.2,0,0,1024,1024,1024,1024,0,0,67,,,,,,,0,32,265.7272077,167.1850447,6,P-GPS,,2020-09-29 14:02:00,80.99365289,Parrot,Fixed-Wing,1176.06660071572,711.3794226207401,80.84575635473038,-4.700567262761986,-2.909935950304067,-0.11223322582296778,0
1783,269118,29/09/2020 12:03,51.51855256,5.856852407,167.4212652,155.3805824,94.4553836,265.9634281,0,19.55266752,556.9882068,17,0,0,279.4443997,180.9022368,35.24880574,3788.517182,-1.11847,-1.565858,0.0,243.0,0.2,3.7,0,0,1024,1024,1024,1024,0,0,67,,,,,,,0,32,265.9634281,167.4212652,6,P-GPS,,2020-09-29 14:03:00,81.06565289,Parrot,Fixed-Wing,1153.8254723092537,697.766168888822,80.92331485689908,-13.937779748171549,-8.530975978551773,0.048603348763147036,0
1787,269768,29/09/2020 12:03,51.51855256,5.856852407,167.6476432,155.6069604,94.4553836,266.1898061,0,20.17646061,556.9882068,17,0,0,279.4443997,180.9022368,35.24880574,3788.517182,-1.11847,-1.789552,0.0,246.9,0.0,4.3,0,0,1024,1024,1024,1024,0,0,66,,,,,,,0,32,266.1898061,167.6476432,6,P-GPS,,2020-09-29 14:03:00,81.1346529,Parrot,Fixed-Wing,1153.8254847658368,697.7661764418001,80.99231486501589,7.806128762285745e-06,4.733201631518597e-06,0.043240023535606145,0
1804,272328,29/09/2020 12:03,51.51843005,5.856518218,168.6253335,158.6515799,92.3884544,267.1674964,0,19.02206535,641.4468709,17,0,0,279.4443997,180.9022368,35.24880574,3788.517182,-0.894776,-1.565858,0.0,241.1,0.4,3.6,0,0,1024,1024,1024,1024,0,0,66,,,,,,,0,32,267.1674964,168.6253335,6,P-GPS,,2020-09-29 14:03:00,81.43265291,Parrot,Fixed-Wing,1130.6314438228922,684.1305801116321,81.29593795477365,-14.534938525819078,-8.544977346095632,0.19027055076363367,0
1807,272805,29/09/2020 12:03,51.51839109,5.85640843,168.6942311,159.2126035,91.8963284,267.2363941,0,19.34447552,669.0617012,17,0,0,279.4443997,180.9022368,35.24880574,3788.517182,-0.894776,-1.789552,0.0,240.4,-0.8,4.0,0,0,1024,1024,1024,1024,0,0,66,,,,,,,0,32,267.2363941,168.6942311,6,P-GPS,,2020-09-29 14:03:00,81.45365291,Parrot,Fixed-Wing,1123.0116487405219,679.7942181554711,81.31874526008522,-4.775073622316784,-2.7174546519748777,0.014292584093422002,0
1825,275410,29/09/2020 12:03,51.51831281,5.85618201,169.8753335,160.4265143,91.86352,268.4174965,0,20.39805189,725.7513356,17,0,0,279.4443997,180.9022368,35.24880574,3788.517182,-1.11847,-1.789552,0.0,248.7,0.4,0.5,0,0,1024,1024,1024,1024,0,0,65,,,,,,,0,32,268.4174965,169.8753335,6,P-GPS,,2020-09-29 14:03:00,81.81365292,Parrot,Fixed-Wing,1107.2970167816904,671.081404987367,81.68241032339591,-9.847840229279528,-5.460031914958821,0.22789687024403102,0
1830,276211,29/09/2020 12:03,51.5182723,5.856067289,170.3805829,161.4566981,91.3385856,268.9227458,0,19.74204686,754.8162971,17,0,0,279.4443997,180.9022368,35.24880574,3788.517182,-0.894776,-1.789552,0.0,242.6,-1.1,-0.1,0,0,1024,1024,1024,1024,0,0,65,,,,,,,0,32,268.9227458,170.3805829,6,P-GPS,,2020-09-29 14:03:00,81.96765292,Parrot,Fixed-Wing,1099.334824438024,666.5725652270568,81.83825787566792,-4.989642664278482,-2.8255407886918276,0.09766450776064789,0
1840,277669,29/09/2020 12:03,51.51823154,5.85595646,171.5420002,163.9304514,90.0262496,270.0841632,0,19.04825992,783.3563243,16,0,0,279.4443997,180.9022368,35.24880574,3788.517182,-0.894776,-1.565858,0.0,243.0,-0.6,2.0,0,0,1024,1024,1024,1024,0,0,64,,,,,,,0,32,270.0841632,171.5420002,6,P-GPS,,2020-09-29 14:03:00,82.32165293,Parrot,Fixed-Wing,1091.6428158177912,662.0360016596751,82.19404907135134,-4.820327458685638,-2.8429143818693206,0.22296257775897838,0
1847,278825,29/09/2020 12:03,51.51815376,5.855750326,172.1358323,166.3287455,88.2217876,270.6779952,0,17.43781971,837.0472709,17,0,0,279.4443997,180.9022368,35.24880574,3788.517182,-0.894776,-1.565858,0.0,243.7,-2.0,2.3,0,0,1024,1024,1024,1024,0,0,64,,,,,,,0,32,270.6779952,172.1358323,6,P-GPS,,2020-09-29 14:03:00,82.50265294,Parrot,Fixed-Wing,1077.336158036547,653.3791933953115,82.37836981569762,-8.965509368197036,-5.4249354936403185,0.11550771574029431,0
1860,280832,29/09/2020 12:03,51.51808141,5.855565406,173.7959373,167.9232337,88.2874044,272.3381003,0,17.11990579,885.9416294,17,0,0,279.4443997,180.9022368,35.24880574,3788.517182,-0.894776,-1.342164,0.0,242.0,-2.8,2.4,0,0,1024,1024,1024,1024,0,0,63,,,,,,,0,32,272.3381003,173.7959373,6,P-GPS,,2020-09-29 14:03:00,83.00865296,Parrot,Fixed-Wing,1064.5019255355103,645.3269059613797,82.88734055990517,-8.042789132239692,-5.046102278267591,0.3189551357909195,0
1865,281637,29/09/2020 12:03,51.51808141,5.855565406,173.5433126,167.670609,88.2874044,272.0854756,0,18.23314135,885.9416294,17,0,0,279.4443997,180.9022368,35.24880574,3788.517182,-0.894776,-1.565858,0.0,241.9,-1.7,2.9,0,0,1024,1024,1024,1024,0,0,63,,,,,,,0,32,272.0854756,173.5433126,6,P-GPS,,2020-09-29 14:03:00,82.93165295,Parrot,Fixed-Wing,1064.5019127109108,645.3268981663809,82.81034055147853,-8.036752436577906e-06,-4.884867959493469e-06,-0.04825335920212585,0
1882,284070,29/09/2020 12:03,51.51796099,5.855256208,171.8077483,163.3103727,90.9120764,270.3499112,0,19.66382107,967.7231281,17,0,0,279.4443997,180.9022368,35.24880574,3788.517182,-0.894776,-1.789552,0.0,244.2,0.7,3.8,0,0,1024,1024,1024,1024,0,0,63,,,,,,,0,32,270.3499112,171.8077483,6,P-GPS,,2020-09-29 14:03:00,82.40265294,Parrot,Fixed-Wing,1043.0419275472848,631.924510836498,82.28622141142739,-13.448263107131229,-8.398832976895362,-0.32844813456991917,0
1890,285255,29/09/2020 12:03,51.5179222,5.855146557,170.3674595,161.7060419,91.0761184,268.9096225,0,19.42335002,995.8432077,17,0,0,279.4443997,180.9022368,35.24880574,3788.517182,-0.894776,-1.789552,0.0,243.7,0.7,2.0,0,0,1024,1024,1024,1024,0,0,63,,,,,,,0,32,268.9096225,170.3674595,6,P-GPS,,2020-09-29 14:03:00,81.96365292,Parrot,Fixed-Wing,1035.4314093130483,627.6071505317688,81.84888537714176,-4.769260128339164,-2.705546945330377,-0.2740640317529853,0
1900,287071,29/09/2020 12:03,51.51784576,5.854929263,169.0813702,161.108929,90.387142,267.6235332,0,19.252157,1051.545309,17,0,0,279.4443997,180.9022368,35.24880574,3788.517182,-0.894776,-1.789552,0.223694,245.5,0.3,1.8,0,0,1024,1024,1024,1024,0,0,63,,,,,,,0,32,267.6235332,169.0813702,6,P-GPS,,2020-09-29 14:03:00,81.57165291,Parrot,Fixed-Wing,1020.349773151981,619.0993771062736,81.46014280660063,-9.451162693431595,-5.331540288100849,-0.24361211481360798,0
1904,287678,29/09/2020 12:03,51.51784576,5.854929263,167.8510552,159.878614,90.387142,266.3932182,0,19.68500489,1051.545309,17,0,0,279.4443997,180.9022368,35.24880574,3788.517182,-0.894776,-1.789552,0.0,246.7,1.1,3.4,0,0,1024,1024,1024,1024,0,0,63,,,,,,,0,32,266.3932182,167.8510552,6,P-GPS,,2020-09-29 14:03:00,81.1966529,Parrot,Fixed-Wing,1020.3497132848607,619.0993406871191,81.08514280411458,-3.751674471917923e-05,-2.2822679835998124e-05,-0.23500010182463285,0
1920,289896,29/09/2020 12:03,51.51773259,5.854592798,167.6640474,162.545937,87.5328112,266.2062103,0,19.51636199,1136.797937,17,0,0,279.4443997,180.9022368,35.24880574,3788.517182,-0.894776,-1.789552,0.0,245.0,0.7,2.1,0,0,1024,1024,1024,1024,0,0,63,,,,,,,0,32,266.2062103,167.6640474,6,P-GPS,,2020-09-29 14:03:00,81.1396529,Parrot,Fixed-Wing,996.9967018509141,606.5034512980833,81.03303919070743,-14.634560076018882,-7.893427384991481,-0.03265161166650483,0
1933,292117,29/09/2020 12:03,51.51765555,5.854363707,166.9586668,164.2027612,85.1706064,265.5008297,0,19.72956474,1194.96723,17,0,0,279.4443997,180.9022368,35.24880574,3788.517182,-0.894776,-1.789552,0.0,244.7,2.0,0.6,0,0,1024,1024,1024,1024,0,0,63,,,,,,,0,32,265.5008297,166.9586668,6,P-GPS,,2020-09-29 14:03:00,80.92465289,Parrot,Fixed-Wing,981.0960995155054,597.928897298779,80.821309797494,-9.964381714992268,-5.373389465543515,-0.13268380969217597,0
1940,293119,29/09/2020 12:03,51.51761736,5.854250876,168.0118164,166.6010552,83.825462,266.5539793,0,19.68010599,1223.707388,17,0,0,279.4443997,180.9022368,35.24880574,3788.517182,-0.894776,-1.789552,0.0,245.2,0.0,2.3,0,0,1024,1024,1024,1024,0,0,63,,,,,,,0,32,266.5539793,168.0118164,6,P-GPS,,2020-09-29 14:03:00,81.2456529,Parrot,Fixed-Wing,973.2648481997652,593.6784175793039,81.14390440799991,-4.907586251767355,-2.6636350940220686,0.20215937550504123,0
1950,294525,29/09/2020 12:03,51.51757971,5.854140812,167.7887193,167.2309765,82.9724436,266.3308822,0,20.05973708,1251.850434,17,0,0,279.4443997,180.9022368,35.24880574,3788.517182,-0.894776,-1.789552,0.0,244.8,0.6,2.3,0,0,1024,1024,1024,1024,0,0,63,,,,,,,0,32,266.3308822,167.7887193,6,P-GPS,,2020-09-29 14:03:00,81.1776529,Parrot,Fixed-Wing,965.6255832292464,589.48803023338,81.07745201427073,-4.787274757428981,-2.6259771905292513,-0.04164351783818645,0
1962,295939,29/09/2020 12:03,51.51750154,5.853917526,167.6082731,167.9691655,82.0538084,266.150436,0,19.61820986,1309.393087,17,0,0,279.4443997,180.9022368,35.24880574,3788.517182,-0.894776,-1.789552,0.0,244.9,1.2,1.6,0,0,1024,1024,1024,1024,0,0,63,,,,,,,0,32,266.150436,167.6082731,6,P-GPS,,2020-09-29 14:03:00,81.1226529,Parrot,Fixed-Wing,950.1278758169376,580.7879417373175,81.02557325584576,-9.71190078879121,-5.452057783743789,-0.032510702484218314,0
1970,297142,29/09/2020 12:03,51.51746208,5.853804528,168.3038112,167.1227088,83.5958032,266.8459741,0,20.05832781,1338.507261,17,0,0,279.4443997,180.9022368,35.24880574,3788.517182,-0.894776,-1.789552,0.0,246.2,0.9,0.4,0,0,1024,1024,1024,1024,0,0,63,,,,,,,0,32,266.8459741,168.3038112,6,P-GPS,,2020-09-29 14:03:00,81.3346529,Parrot,Fixed-Wing,942.2849882253334,576.3961971851452,81.23913297100626,-4.914878321086686,-2.7521610936167247,0.1338308119350596,0
1980,298758,29/09/2020 12:03,51.51742392,5.853690675,168.2316327,164.7539423,85.8923912,266.7737956,0,20.31582197,1367.509886,17,0,0,279.4443997,180.9022368,35.24880574,3788.517182,-0.894776,-1.789552,0.0,243.1,0.7,1.5,0,0,1024,1024,1024,1024,0,0,63,,,,,,,0,32,266.7737956,168.2316327,6,P-GPS,,2020-09-29 14:03:00,81.3126529,Parrot,Fixed-Wing,934.3826759871888,572.1490700214279,81.21867574191978,-4.952117782140898,-2.6615341581840966,-0.012819869030668219,0
1986,299768,29/09/2020 12:03,51.51738283,5.853574833,167.6968558,161.6273018,88.4842548,266.2390187,0,20.72891768,1397.526291,17,0,0,279.4443997,180.9022368,35.24880574,3788.517182,-1.11847,-1.789552,0.0,243.3,1.0,1.4,0,0,1024,1024,1024,1024,0,0,63,,,,,,,0,32,266.2390187,167.6968558,6,P-GPS,,2020-09-29 14:03:00,81.1496529,Parrot,Fixed-Wing,926.342323208464,567.5759269050327,81.0572549566914,-5.038623224480123,-2.8658375756983316,-0.10115706857013836,0
2000,301776,29/09/2020 12:03,51.51729835,5.853340856,167.0210027,156.1614223,93.2742812,265.5631657,0,20.90984139,1458.513826,17,0,0,279.4443997,180.9022368,35.24880574,3788.517182,-1.11847,-1.789552,0.0,245.2,1.2,2.6,0,0,1024,1024,1024,1024,0,0,63,,,,,,,0,32,265.5631657,167.0210027,6,P-GPS,,2020-09-29 14:03:00,80.94365289,Parrot,Fixed-Wing,910.102469561986,558.1737646153506,80.85441826203635,-10.176979293970692,-5.892024215464454,-0.12711104955121105,0
2007,302792,29/09/2020 12:03,51.51725713,5.853225909,166.9357009,155.9776953,93.3727064,265.4778638,0,21.39906017,1488.428525,17,0,0,279.4443997,180.9022368,35.24880574,3788.517182,-1.11847,-1.789552,0.0,247.2,1.4,2.4,0,0,1024,1024,1024,1024,0,0,63,,,,,,,0,32,265.4778638,166.9357009,6,P-GPS,,2020-09-29 14:03:00,80.91765289,Parrot,Fixed-Wing,902.124222369618,553.5862198210608,80.82994939435946,-4.99970370709088,-2.8748626310296537,-0.015333830286617016,0
2024,305199,29/09/2020 12:03,51.51713253,5.85287191,168.3858322,158.937013,91.86352,266.9279951,0,19.96880547,1580.091914,17,0,0,279.4443997,180.9022368,35.24880574,3788.517182,-0.894776,-1.789552,0.0,243.2,0.2,1.3,0,0,1024,1024,1024,1024,0,0,63,,,,,,,0,32,266.9279951,168.3858322,6,P-GPS,,2020-09-29 14:03:00,81.3596529,Parrot,Fixed-Wing,877.5537783950504,539.7190112196374,81.27655940652178,-15.397484793655899,-8.690121098010323,0.2798757270353667,0
2030,306005,29/09/2020 12:03,51.51709253,5.852761337,168.7664096,159.5144408,91.6666696,267.3085725,0,20.14362233,1608.969868,17,0,0,279.4443997,180.9022368,35.24880574,3788.517182,-1.11847,-1.789552,0.0,244.5,-1.1,3.7,0,0,1024,1024,1024,1024,0,0,62,,,,,,,0,32,267.3085725,168.7664096,6,P-GPS,,2020-09-29 14:03:00,81.47565291,Parrot,Fixed-Wing,869.8790915856953,535.2673180170333,81.39398392392081,-4.8094724525707635,-2.7897289305829336,0.07358606230011207,0
2040,307612,29/09/2020 12:03,51.51705077,5.852646276,169.1404254,161.233601,90.3215252,267.6825883,0,20.69822686,1639.058451,17,0,0,279.4443997,180.9022368,35.24880574,3788.517182,-1.11847,-1.789552,0.0,243.9,0.0,0.5,0,0,1024,1024,1024,1024,0,0,62,,,,,,,0,32,267.6825883,169.1404254,6,P-GPS,,2020-09-29 14:03:00,81.58965291,Parrot,Fixed-Wing,861.892887305383,530.6197663898188,81.50945442935316,-5.00469015099679,-2.912466929040317,0.07236154761186098,0
2049,309025,29/09/2020 12:03,51.51696658,5.852414807,169.2126038,163.0446246,88.58268,267.7547668,0,20.51177792,1699.642443,17,0,0,279.4443997,180.9022368,35.24880574,3788.517182,-1.11847,-1.789552,0.0,246.6,-1.1,3.3,0,0,1024,1024,1024,1024,0,0,62,,,,,,,0,32,267.7547668,169.2126038,6,P-GPS,,2020-09-29 14:03:00,81.61165291,Parrot,Fixed-Wing,845.8269163687388,521.2501240638403,81.53437381237651,-10.068012749315836,-5.871645029515057,0.015616153357530648,0
2065,311226,29/09/2020 12:03,51.51688686,5.85218767,170.5118165,163.6548609,89.2716564,269.0539794,0,19.95654704,1758.497432,17,0,0,279.4443997,180.9022368,35.24880574,3788.517182,-0.894776,-1.789552,0.223694,246.3,-1.8,1.9,0,0,1024,1024,1024,1024,0,0,61,,,,,,,0,32,269.0539794,170.5118165,6,P-GPS,,2020-09-29 14:03:00,82.00765292,Parrot,Fixed-Wing,830.0615623827199,512.3779420989933,81.93316005279067,-9.87962604654563,-5.5599030701960706,0.24990615061949395,0
2070,312033,29/09/2020 12:03,51.51684685,5.852074164,169.557092,162.2408188,89.730974,268.099255,0,20.42429119,1787.952813,17,0,0,279.4443997,180.9022368,35.24880574,3788.517182,-1.11847,-1.789552,0.0,246.4,0.4,1.9,0,0,1024,1024,1024,1024,0,0,61,,,,,,,0,32,268.099255,169.557092,6,P-GPS,,2020-09-29 14:03:00,81.71665291,Parrot,Fixed-Wing,822.1831422915005,507.9251418919588,81.64353472465464,-4.937145363679493,-2.790422653655321,-0.18149861640465256,0
2080,313643,29/09/2020 12:03,51.51680669,5.851960394,169.0682469,161.2926561,90.1902916,267.6104098,0,19.07805596,1817.493496,17,0,0,279.4443997,180.9022368,35.24880574,3788.517182,-0.894776,-1.565858,0.0,246.7,-0.2,1.7,0,0,1024,1024,1024,1024,0,0,61,,,,,,,0,32,267.6104098,169.0682469,6,P-GPS,,2020-09-29 14:03:00,81.56765291,Parrot,Fixed-Wing,814.2864040881375,503.45567368138563,81.49590023458458,-4.948624718854053,-2.800867940329498,-0.09251765325143696,0
2091,315048,29/09/2020 12:03,51.51672915,5.851744744,167.9822888,159.2552544,91.1417352,266.5244518,0,19.6285669,1873.802553,17,0,0,279.4443997,180.9022368,35.24880574,3788.517182,-0.894776,-1.789552,0.223694,246.7,1.0,2.7,0,0,1024,1024,1024,1024,0,0,61,,,,,,,0,32,266.5244518,167.9822888,6,P-GPS,,2020-09-29 14:03:00,81.2366529,Parrot,Fixed-Wing,799.318190274706,494.8262036034229,81.16746540216252,-9.380084658586512,-5.407803556186147,-0.2058192494673717,0
2100,316101,29/09/2020 12:03,51.51669126,5.851637307,167.1719214,158.0511862,91.535436,265.7140843,0,19.46681376,1901.702817,16,0,0,279.4443997,180.9022368,35.24880574,3788.517182,-0.894776,-1.789552,0.0,245.9,2.1,2.2,0,0,1024,1024,1024,1024,0,0,61,,,,,,,0,32,265.7140843,167.1719214,6,P-GPS,,2020-09-29 14:03:00,80.98965289,Parrot,Fixed-Wing,791.8609729436965,490.60939182148445,80.92171958729469,-4.673191521327652,-2.6425365108303556,-0.15400077635750553,0
2116,318475,29/09/2020 12:03,51.51661238,5.851418363,167.0669345,157.0275641,92.4540712,265.6090974,0,20.31904317,1958.927228,17,0,0,279.4443997,180.9022368,35.24880574,3788.517182,-1.11847,-1.789552,0.0,245.3,0.1,2.0,0,0,1024,1024,1024,1024,0,0,61,,,,,,,0,32,265.6090974,167.0669345,6,P-GPS,,2020-09-29 14:03:00,80.95765289,Parrot,Fixed-Wing,776.6640880630072,481.8308892609093,80.89225391874177,-9.523385255209712,-5.501197285137926,-0.018465160171629167,0
2120,319282,29/09/2020 12:03,51.51657016,5.851299933,167.2736274,156.3156218,93.3727064,265.8157903,0,20.52446137,1989.79009,17,0,0,279.4443997,180.9022368,35.24880574,3788.517182,-0.894776,-1.789552,0.0,243.6,1.6,1.2,0,0,1024,1024,1024,1024,0,0,61,,,,,,,0,32,265.8157903,167.2736274,6,P-GPS,,2020-09-29 14:03:00,81.02065289,Parrot,Fixed-Wing,768.4438518910869,477.1322653577448,80.95660095316978,-5.151350198979476,-2.9444722356245756,0.04032415877986091,0
