time,field.header.seq,field.header.stamp,field.header.frame_id,field.status.status,field.status.service,lat,lon,alt,field.position_covariance0,field.position_covariance1,field.position_covariance2,field.position_covariance3,field.position_covariance4,field.position_covariance5,field.position_covariance6,field.position_covariance7,field.position_covariance8,field.position_covariance_type,x,y,z,vel_x,vel_y,vel_z,track_id,uav_category
1970-01-01 00:00:00.000000000,8253,1532135124999929072,base_link,0,1,40.5903959,-79.8953161,376.556950333,0.302500013113,0.0,0.0,0.0,0.302500013113,0.0,0.0,0.0,1.21000005245,1,506.5817344098582,55.54349459659318,376.53662005914913,20.723230022382452,12.900380316395875,3.2456753205409417,0,Fixed-Wing
1970-01-01 00:00:00.415352192,8255,1532135125413599824,base_link,0,1,40.5904424,-79.8952181,377.857031266,0.302500013113,0.0,0.0,0.0,0.302500013113,0.0,0.0,0.0,1.21000005245,1,514.8780515937888,60.708019952078786,377.83599047129917,20.723230022382452,12.900380316395875,3.2456753205409417,0,Fixed-Wing
1970-01-01 00:00:00.815080544,8257,1532135125815007568,base_link,0,1,40.5904886,-79.8951329,380.717099177,0.302500013113,0.0,0.0,0.0,0.302500013113,0.0,0.0,0.0,1.21000005245,1,522.0908580521713,65.83918108045532,380.695421895571,18.016746952913625,12.817040379219943,7.142525270512751,0,Fixed-Wing
1970-01-01 00:00:01.197798048,8259,1532135126197702448,base_link,0,1,40.5905315,-79.8950593,384.047156577,0.302500013113,0.0,0.0,0.0,0.302500013113,0.0,0.0,0.0,1.21000005245,1,528.3216839714394,70.60381549826434,384.0249159041392,15.563874414603907,11.901499523676236,8.316686629502115,0,Fixed-Wing
1970-01-01 00:00:01.570456448,8261,1532135126570376464,base_link,0,1,40.5905728,-79.8949953,387.087204795,0.302500013113,0.0,0.0,0.0,0.302500013113,0.0,0.0,0.0,1.21000005245,1,533.7397725657866,75.1907140682811,387.0644611509646,13.533751631360378,11.457536163143628,7.592428533880924,0,Fixed-Wing
1970-01-01 00:00:01.995847136,8263,1532135126996014864,base_link,0,1,40.5906134,-79.8949387,389.447245707,0.302500013113,0.0,0.0,0.0,0.302500013113,0.0,0.0,0.0,1.21000005245,1,538.5313330197029,79.69983022482694,389.42404501294254,11.968757612713985,11.263244791403894,5.8939645200142055,0,Fixed-Wing
1970-01-01 00:00:02.406084704,8265,1532135127406168720,base_link,0,1,40.5906542,-79.894887,390.837281501,0.302500013113,0.0,0.0,0.0,0.302500013113,0.0,0.0,0.0,1.21000005245,1,542.9079793071544,84.23112034438438,390.8136519500831,10.93235055153641,11.318632757631507,3.4710756062751074,0,Fixed-Wing
1970-01-01 00:00:02.802838208,8267,1532135127802849072,base_link,0,1,40.5906959,-79.894839,391.147313112,0.302500013113,0.0,0.0,0.0,0.302500013113,0.0,0.0,0.0,1.21000005245,1,546.9712851816374,88.86232453811132,391.12327391955813,10.149662846944802,11.568206429368471,0.77339946763872,0,Fixed-Wing
1970-01-01 00:00:03.244443392,8269,1532135128244603120,base_link,0,1,40.590739,-79.8947947,390.497340329,0.302500013113,0.0,0.0,0.0,0.302500013113,0.0,0.0,0.0,1.21000005245,1,550.7212552003151,93.64896812856432,390.4729102722863,9.366986525613758,11.956475862838735,-1.6245323270324181,0,Fixed-Wing
1970-01-01 00:00:03.617317344,8271,1532135128617489520,base_link,0,1,40.5907855,-79.8947546,389.107361784,0.324899991846,0.0,0.0,0.0,0.324899991846,0.0,0.0,0.0,1.29959996738,1,554.1155614419064,98.81315429071955,389.08256007033424,8.478580007421876,12.89953305112725,-3.4729321948450194,0,Fixed-Wing
1970-01-01 00:00:04.003689408,8273,1532135129003717808,base_link,0,1,40.5908375,-79.8947211,387.297374116,0.324899991846,0.0,0.0,0.0,0.324899991846,0.0,0.0,0.0,1.29959996738,1,556.9510333766696,104.58808137297757,387.272233488337,7.082677267923378,14.425092439802311,-4.521984073490794,0,Fixed-Wing
1970-01-01 00:00:04.398815424,8275,1532135129398987312,base_link,0,1,40.5908954,-79.8946962,385.297375102,0.302500013113,0.0,0.0,0.0,0.302500013113,0.0,0.0,0.0,1.21000005245,1,559.0583716176963,111.01815949892057,385.2719414297558,5.263884460486477,16.061583123160617,-4.996495616418038,0,Fixed-Wing
1970-01-01 00:00:04.797812384,8277,1532135129797617520,base_link,0,1,40.5909588,-79.894682,383.277362755,0.302500013113,0.0,0.0,0.0,0.302500013113,0.0,0.0,0.0,1.21000005245,1,560.2598139250513,118.05895558768773,383.2516970669004,3.0010623680306523,17.58708516723868,-5.046334138955754,0,Fixed-Wing
1970-01-01 00:00:05.203617376,8279,1532135130203647536,base_link,0,1,40.591026,-79.8946799,381.397336365,0.302500013113,0.0,0.0,0.0,0.302500013113,0.0,0.0,0.0,1.21000005245,1,560.4368702649467,125.52167328605614,381.37151229493577,0.4422660292787954,18.640996001809487,-4.6964816617033325,0,Fixed-Wing
1970-01-01 00:00:05.613648992,8281,1532135130613317520,base_link,0,1,40.5910947,-79.8946915,379.827295267,0.302500013113,0.0,0.0,0.0,0.302500013113,0.0,0.0,0.0,1.21000005245,1,559.4541258170843,133.15088498233325,379.80140226126537,-2.4547806930186353,19.056878536133404,-3.921951230508152,0,Fixed-Wing
1970-01-01 00:00:06.002748576,8283,1532135131002431216,base_link,0,1,40.5911623,-79.8947168,378.65724057,0.302500013113,0.0,0.0,0.0,0.302500013113,0.0,0.0,0.0,1.21000005245,1,557.311614356511,140.6578573043056,378.63137333004113,-5.351743049199203,18.75153887573367,-2.9225954284349953,0,Fixed-Wing
1970-01-01 00:00:06.396004576,8285,1532135131396160336,base_link,0,1,40.5912263,-79.8947555,377.837173645,0.302500013113,0.0,0.0,0.0,0.302500013113,0.0,0.0,0.0,1.21000005245,1,554.0347531643985,147.7649619322478,377.8114303858469,-8.185216009713033,17.752716142924353,-2.048121577448673,0,Fixed-Wing
1970-01-01 00:00:06.805118272,8287,1532135131805231952,base_link,0,1,40.5912847,-79.8948059,377.217097088,0.302500013113,0.0,0.0,0.0,0.302500013113,0.0,0.0,0.0,1.21000005245,1,549.7674665118507,154.25010344770686,377.1915686203424,-10.659182973799194,16.19912503018461,-1.5483421937519986,0,Fixed-Wing
1970-01-01 00:00:07.190617056,8289,1532135132190292112,base_link,0,1,40.5913358,-79.8948659,376.667013776,0.302500013113,0.0,0.0,0.0,0.302500013113,0.0,0.0,0.0,1.21000005245,1,544.687539643347,159.9245046350143,376.64178041565214,-12.689063190205456,14.173990511310262,-1.373306634353104,0,Fixed-Wing
1970-01-01 00:00:07.600751840,8291,1532135132600535952,base_link,0,1,40.5913779,-79.8949334,376.136926585,0.33639998064,0.0,0.0,0.0,0.33639998064,0.0,0.0,0.0,1.34559992256,1,538.9727632403329,164.5993896998669,376.1120587672532,-14.27484307802655,11.677316136705613,-1.323182723639084,0,Fixed-Wing
1970-01-01 00:00:08.000789536,8293,1532135133000930448,base_link,0,1,40.5914109,-79.8950061,375.476837917,0.33639998064,0.0,0.0,0.0,0.33639998064,0.0,0.0,0.0,1.34559992256,1,532.8178370075691,168.26366506269005,375.45239062812016,-15.374285874630855,9.152931297783033,-1.6477738594866653,0,Fixed-Wing
1970-01-01 00:00:08.420355584,8295,1532135133420386896,base_link,0,1,40.5914344,-79.8950834,374.906748552,0.33639998064,0.0,0.0,0.0,0.33639998064,0.0,0.0,0.0,1.34559992256,1,526.2735753844665,170.87292035583155,374.88277426023296,-16.346800144633814,6.517614554518799,-1.4228350669987002,0,Fixed-Wing
1970-01-01 00:00:08.804590432,8297,1532135133804786928,base_link,0,1,40.5914484,-79.8951617,374.146662185,0.33639998064,0.0,0.0,0.0,0.33639998064,0.0,0.0,0.0,1.34559992256,1,519.6447200956438,172.4271706367893,374.1231886757645,-16.55810522787614,3.882335423123267,-1.8973559520018835,0,Fixed-Wing
1970-01-01 00:00:09.199905344,8299,1532135134200071568,base_link,0,1,40.5914537,-79.8952393,373.176580222,0.33639998064,0.0,0.0,0.0,0.33639998064,0.0,0.0,0.0,1.34559992256,1,513.0751790127979,173.01526774790864,373.1536218163177,-16.40994527849134,1.468997802161016,-2.4218646183529113,0,Fixed-Wing
1970-01-01 00:00:09.601691232,8301,1532135134601839600,base_link,0,1,40.5914501,-79.8953146,372.126504387,0.302500013113,0.0,0.0,0.0,0.302500013113,0.0,0.0,0.0,1.21000005245,1,506.70041397417106,172.61501414283842,372.10406571282647,-15.923417500235633,-0.9997866934528462,-2.6216683947635055,0,Fixed-Wing
1970-01-01 00:00:10.009851104,8303,1532135135010001616,base_link,0,1,40.591437,-79.8953852,371.056437396,0.302500013113,0.0,0.0,0.0,0.302500013113,0.0,0.0,0.0,1.21000005245,1,500.7236097532118,171.1597935890493,371.0345093514411,-14.929357921559609,-3.634970746764948,-2.6716266998353055,0,Fixed-Wing
1970-01-01 00:00:10.396488384,8305,1532135135396577072,base_link,0,1,40.5914138,-79.8954482,370.026382477,0.302500013113,0.0,0.0,0.0,0.302500013113,0.0,0.0,0.0,1.21000005245,1,495.3902797200801,168.5829920986656,370.0049390770239,-13.322034658456177,-6.4365487508928005,-2.5717461311968366,0,Fixed-Wing
1970-01-01 00:00:10.800618496,8307,1532135135800662352,base_link,0,1,40.591383,-79.8955019,369.106340322,0.302500013113,0.0,0.0,0.0,0.302500013113,0.0,0.0,0.0,1.21000005245,1,490.84432661710525,165.16225123727668,369.0853375765798,-11.355259175286102,-8.544610595992236,-2.2970569953067685,0,Fixed-Wing
1970-01-01 00:00:11.238382592,8309,1532135136238533680,base_link,0,1,40.5913475,-79.8955467,368.506309297,0.302500013113,0.0,0.0,0.0,0.302500013113,0.0,0.0,0.0,1.21000005245,1,487.0518813541012,161.2196249669205,368.48569796880247,-9.473084718211382,-9.848219310025218,-1.4978296088497638,0,Fixed-Wing
1970-01-01 00:00:11.597113696,8311,1532135136597078000,base_link,0,1,40.5913093,-79.8955842,368.256286913,0.302500013113,0.0,0.0,0.0,0.302500013113,0.0,0.0,0.0,1.21000005245,1,483.8774792316987,156.97720853301385,368.23602292231556,-7.929285236768119,-10.597060076351895,-0.6236590651595616,0,Fixed-Wing
1970-01-01 00:00:11.999979840,8313,1532135136999863056,base_link,0,1,40.5912709,-79.895617,368.146269447,0.302500013113,0.0,0.0,0.0,0.302500013113,0.0,0.0,0.0,1.21000005245,1,481.10097668204486,152.7126123524411,368.126318963725,-6.935378640736615,-10.652462489472018,-0.2740276580362086,0,Fixed-Wing
1970-01-01 00:00:12.414426560,8315,1532135137414352816,base_link,0,1,40.5912333,-79.8956476,368.136253909,0.33639998064,0.0,0.0,0.0,0.33639998064,0.0,0.0,0.0,1.34559992256,1,478.51071977806487,148.5368736191304,368.1165968451012,-6.470158800366668,-10.430506978612398,-0.024284715263346822,0,Fixed-Wing
1970-01-01 00:00:12.804927840,8317,1532135137805050480,base_link,0,1,40.5911969,-79.8956781,368.006237972,0.33639998064,0.0,0.0,0.0,0.33639998064,0.0,0.0,0.0,1.34559992256,1,475.9289083070737,144.49439656774229,367.98686688172984,-6.449063096503638,-10.097634882907032,-0.32405027581960905,0,Fixed-Wing
1970-01-01 00:00:13.212633792,8319,1532135138212754032,base_link,0,1,40.5911615,-79.8957096,367.646220591,0.36000002861,0.0,0.0,0.0,0.36000002861,0.0,0.0,0.0,1.44000011444,1,473.2624122593453,140.56296258105812,367.62713568469667,-6.660595264834056,-9.820262294415906,-0.8985664575101857,0,Fixed-Wing
1970-01-01 00:00:13.617536480,8321,1532135138617578384,base_link,0,1,40.5911273,-79.8957437,367.146200038,0.36000002861,0.0,0.0,0.0,0.36000002861,0.0,0.0,0.0,1.44000011444,1,470.37578464033476,136.76477602324678,367.12741112501084,-7.210458184215226,-9.487425801161852,-1.2482535043696232,0,Fixed-Wing
1970-01-01 00:00:14.002096896,8323,1532135139002282064,base_link,0,1,40.5910938,-79.8957806,366.566176319,0.36000002861,0.0,0.0,0.0,0.36000002861,0.0,0.0,0.0,1.44000011444,1,467.25210180630427,133.04431135876496,366.54769554770496,-7.802594386333806,-9.293285601657155,-1.4480617109646479,0,Fixed-Wing
1970-01-01 00:00:14.397965728,8325,1532135139397803696,base_link,0,1,40.5910609,-79.8958198,365.996149989,0.36000002861,0.0,0.0,0.0,0.36000002861,0.0,0.0,0.0,1.44000011444,1,463.93369985404735,129.3904682256828,365.9779864474062,-8.288979970117625,-9.12687280800059,-1.4230667017172456,0,Fixed-Wing
1970-01-01 00:00:14.840760704,8327,1532135139840259664,base_link,0,1,40.5910283,-79.8958609,365.486121586,0.36000002861,0.0,0.0,0.0,0.36000002861,0.0,0.0,0.0,1.44000011444,1,460.4544474536243,125.7699342101354,365.4682823908463,-8.690765577230886,-9.043670528095953,-1.2731811204001688,0,Fixed-Wing
1970-01-01 00:00:15.242661408,8329,1532135140242817712,base_link,0,1,40.5909958,-79.8959033,365.136091812,0.36000002861,0.0,0.0,0.0,0.36000002861,0.0,0.0,0.0,1.44000011444,1,456.865147646811,122.16050398494326,365.11858066755315,-8.965651127702525,-9.015934558442074,-0.8735140051135443,0,Fixed-Wing
1970-01-01 00:00:15.627617952,8331,1532135140627020208,base_link,0,1,40.5909634,-79.8959462,364.976061486,0.36000002861,0.0,0.0,0.0,0.36000002861,0.0,0.0,0.0,1.44000011444,1,453.23352856667,118.56218210983405,364.95887712459233,-9.071359722987358,-8.98818719912176,-0.39892077204772125,0,Fixed-Wing
1970-01-01 00:00:16.001838752,8333,1532135141001461072,base_link,0,1,40.5909313,-79.8959885,364.956031655,0.36000002861,0.0,0.0,0.0,0.36000002861,0.0,0.0,0.0,1.44000011444,1,449.6527088294487,114.99718351119895,364.93916580005066,-8.944468905655576,-8.904949551842563,-0.04923658334979719,0,Fixed-Wing
1970-01-01 00:00:16.439927104,8335,1532135141439854416,base_link,0,1,40.5908991,-79.8960292,365.076003514,0.36000002861,0.0,0.0,0.0,0.36000002861,0.0,0.0,0.0,1.44000011444,1,446.2073490620316,111.42109199491699,365.05944289280296,-8.60610574392485,-8.932658362742483,0.3004381105820401,0,Fixed-Wing
1970-01-01 00:00:16.795783488,8337,1532135141794612112,base_link,0,1,40.5908664,-79.896067,365.275978567,0.36000002861,0.0,0.0,0.0,0.36000002861,0.0,0.0,0.0,1.44000011444,1,443.00750326394274,107.78949170501653,365.2597032298172,-7.992840562845136,-9.071312787164032,0.5002269002376546,0,Fixed-Wing
1970-01-01 00:00:17.221972512,8339,1532135142222067792,base_link,0,1,40.5908327,-79.8961025,365.43595641,0.36000002861,0.0,0.0,0.0,0.36000002861,0.0,0.0,0.0,1.44000011444,1,440.00237173544826,104.04685103067385,365.4199510871207,-7.50646709037709,-9.34867868067483,0.400280405614963,0,Fixed-Wing
1970-01-01 00:00:17.597510976,8341,1532135142597543120,base_link,0,1,40.5907983,-79.8961369,365.465935685,0.36000002861,0.0,0.0,0.0,0.36000002861,0.0,0.0,0.0,1.44000011444,1,437.09035673668507,100.2264781408185,365.45019161570525,-7.2738728896340294,-9.542844663785814,0.07553730359659343,0,Fixed-Wing
1970-01-01 00:00:18.011757408,8343,1532135143009057456,base_link,0,1,40.5907635,-79.8961716,365.415914826,0.36000002861,0.0,0.0,0.0,0.36000002861,0.0,0.0,0.0,1.44000011444,1,434.15293839726803,96.3616827323832,365.40043078713643,-7.3373274635172585,-9.653806919723781,-0.1242967299434269,0,Fixed-Wing
1970-01-01 00:00:18.402862400,8345,1532135143400095856,base_link,0,1,40.5907285,-79.8962082,365.325892107,0.36000002861,0.0,0.0,0.0,0.36000002861,0.0,0.0,0.0,1.44000011444,1,431.0546648732494,92.47466820358372,365.3106755817722,-7.7391249016923735,-9.709307683736741,-0.22419800560078582,0,Fixed-Wing
1970-01-01 00:00:18.791608544,8347,1532135143791811024,base_link,0,1,40.590694,-79.8962482,365.085865691,0.36000002861,0.0,0.0,0.0,0.36000002861,0.0,0.0,0.0,1.44000011444,1,427.66853661271824,88.64316267910317,365.070931308235,-8.458152367196716,-9.570652683052483,-0.598853155793496,0,Fixed-Wing
1970-01-01 00:00:19.217033920,8349,1532135144216907184,base_link,0,1,40.5906616,-79.8962935,364.775832949,0.36000002861,0.0,0.0,0.0,0.36000002861,0.0,0.0,0.0,1.44000011444,1,423.83369780589055,85.04484252660751,364.7612032810788,-9.578978832508675,-8.98818289623459,-0.7736643873222726,0,Fixed-Wing
1970-01-01 00:00:19.617949856,8351,1532135144618016880,base_link,0,1,40.5906323,-79.8963451,364.655792428,0.36000002861,0.0,0.0,0.0,0.36000002861,0.0,0.0,0.0,1.44000011444,1,419.4655007716774,81.79075946330414,364.64149377070703,-10.91124530513678,-8.128318907983907,-0.2990203561775468,0,Fixed-Wing
1970-01-01 00:00:20.012191616,8353,1532135145012084912,base_link,0,1,40.590607,-79.896402,364.675744774,0.36000002861,0.0,0.0,0.0,0.36000002861,0.0,0.0,0.0,1.44000011444,1,414.6485946972516,78.9808653259011,364.6617961225656,-12.032068008427327,-7.018786921591538,0.05071290046325988,0,Fixed-Wing
1970-01-01 00:00:20.433269184,8355,1532135145433393488,base_link,0,1,40.5905874,-79.8964635,364.805689983,0.36000002861,0.0,0.0,0.0,0.36000002861,0.0,0.0,0.0,1.44000011444,1,409.44222825476027,76.80395272370382,364.7921038300315,-13.004894458175057,-5.437673077559995,0.32549341299731316,0,Fixed-Wing
1970-01-01 00:00:20.799386048,8357,1532135145799608496,base_link,0,1,40.5905733,-79.8965283,365.055629474,0.384400005913,0.0,0.0,0.0,0.384400005913,0.0,0.0,0.0,1.53760002365,1,403.9564600124382,75.23781799556792,365.0424113151372,-13.702807476468895,-3.912021382218302,0.6252388228618233,0,Fixed-Wing
1970-01-01 00:00:21.166848960,8359,1532135146165894704,base_link,0,1,40.5905634,-79.896595,365.275565238,0.384400005913,0.0,0.0,0.0,0.384400005913,0.0,0.0,0.0,1.53760002365,1,398.30981106924685,74.13809822781354,365.2627145930518,-14.10466865129637,-2.746971361157368,0.550291822466913,0,Fixed-Wing
1970-01-01 00:00:21.629984928,8361,1532135146628019728,base_link,0,1,40.5905572,-79.8966629,365.285498205,0.384400005913,0.0,0.0,0.0,0.384400005913,0.0,0.0,0.0,1.53760002365,1,392.56153530257217,73.44926869626303,365.2730114076587,-14.3585205705032,-1.7206156071492171,0.02572023861510257,0,Fixed-Wing
1970-01-01 00:00:22.047888800,8363,1532135147047528784,base_link,0,1,40.5905549,-79.8967319,365.385428394,0.348099969053,0.0,0.0,0.0,0.348099969053,0.0,0.0,0.0,1.39239987621,1,386.72011705962586,73.19354407376193,365.3733008708854,-14.591179582669447,-0.6387701985095272,0.25051134969777833,0,Fixed-Wing
1970-01-01 00:00:22.398296896,8365,1532135147396753424,base_link,0,1,40.5905557,-79.8968004,365.895357788,0.348099969053,0.0,0.0,0.0,0.348099969053,0.0,0.0,0.0,1.39239987621,1,380.92103435699823,73.28209328704219,365.88357770596474,-14.485430354343766,0.22118557842293574,1.274611854152023,0,Fixed-Wing
1970-01-01 00:00:22.803323136,8367,1532135147801119568,base_link,0,1,40.5905582,-79.8968668,366.605288622,0.348099969053,0.0,0.0,0.0,0.348099969053,0.0,0.0,0.0,1.39239987621,1,375.29973602713613,73.55944735874493,366.5938380923419,-14.041345784103221,0.6927980329239616,1.7741473760417343,0,Fixed-Wing
1970-01-01 00:00:23.194446944,8369,1532135148194608720,base_link,0,1,40.590561,-79.8969313,367.175221285,0.36000002861,0.0,0.0,0.0,0.36000002861,0.0,0.0,0.0,1.44000011444,1,369.83927832758974,73.87012780972177,367.16408565028166,-13.639584700832035,0.7760434306346181,1.424411705928604,0,Fixed-Wing
1970-01-01 00:00:23.633429248,8371,1532135148633304272,base_link,0,1,40.5905633,-79.8969943,367.565155705,0.324899991846,0.0,0.0,0.0,0.324899991846,0.0,0.0,0.0,1.29959996738,1,364.50580036243053,74.12529021522721,367.5543236853274,-13.322404175359393,0.6373658462089495,0.974768970911504,0,Fixed-Wing
1970-01-01 00:00:24.019101472,8373,1532135149019033616,base_link,0,1,40.5905642,-79.8970565,367.825091547,0.348099969053,0.0,0.0,0.0,0.348099969053,0.0,0.0,0.0,1.39239987621,1,359.24004912355076,74.22498482198458,367.8145566851922,-13.153230734152238,0.24902546780945,0.6500315978827879,0,Fixed-Wing
1970-01-01 00:00:24.404988736,8375,1532135149405063600,base_link,0,1,40.5905629,-79.8971185,367.965028534,0.384400005913,0.0,0.0,0.0,0.384400005913,0.0,0.0,0.0,1.53760002365,1,353.9912342558654,74.08036722375209,367.95478839523247,-13.110925659716846,-0.36123784650630086,0.35028241075755384,0,Fixed-Wing
1970-01-01 00:00:24.808238688,8377,1532135149808287184,base_link,0,1,40.5905591,-79.8971806,367.964966485,0.324899991846,0.0,0.0,0.0,0.324899991846,0.0,0.0,0.0,1.29959996738,1,348.73395844473356,73.65812022924226,367.9550204387029,-13.13206010688896,-1.0547236080167905,0.0005796174502579817,0,Fixed-Wing
1970-01-01 00:00:25.188146624,8379,1532135150186752624,base_link,0,1,40.5905531,-79.897243,367.854905068,0.324899991846,0.0,0.0,0.0,0.324899991846,0.0,0.0,0.0,1.29959996738,1,343.4512898119194,72.99155917923235,367.8452529296993,-13.195488405611584,-1.6649915446906334,-0.27418639953533136,0,Fixed-Wing
1970-01-01 00:00:25.586048288,8381,1532135150586213808,base_link,0,1,40.590546,-79.8973066,367.654842893,0.324899991846,0.0,0.0,0.0,0.324899991846,0.0,0.0,0.0,1.29959996738,1,338.06703092112576,72.20283860539416,367.6454869884933,-13.449248988466426,-1.9701317479390987,-0.49899195733118734,0,Fixed-Wing
1970-01-01 00:00:26.000423712,8383,1532135151000581424,base_link,0,1,40.5905385,-79.8973719,367.484779151,0.348099969053,0.0,0.0,0.0,0.348099969053,0.0,0.0,0.0,1.39239987621,1,332.5388552072342,71.36969491745432,367.4757228379816,-13.808736380646364,-2.0810954914206166,-0.42405099306262006,0,Fixed-Wing
1970-01-01 00:00:26.393006944,8385,1532135151393200208,base_link,0,1,40.5905317,-79.8974396,367.34471266,0.324899991846,0.0,0.0,0.0,0.324899991846,0.0,0.0,0.0,1.29959996738,1,326.80749609765786,70.61428348867472,367.33596058005685,-14.316264739574004,-1.8869293992831317,-0.3491097742781946,0,Fixed-Wing
1970-01-01 00:00:26.787033632,8387,1532135151785522672,base_link,0,1,40.590527,-79.8975093,367.174643237,0.324899991846,0.0,0.0,0.0,0.324899991846,0.0,0.0,0.0,1.29959996738,1,320.90680737079225,70.09207894224292,367.1661961031905,-14.739230319468275,-1.3044058820944109,-0.4240518082584065,0,Fixed-Wing
1970-01-01 00:00:27.234062752,8389,1532135152234006160,base_link,0,1,40.5905248,-79.897581,366.914570712,0.348099969053,0.0,0.0,0.0,0.348099969053,0.0,0.0,0.0,1.39239987621,1,314.8367848046116,69.84750196957381,366.90642833569416,-15.162206445489012,-0.6109246730123927,-0.6488695018380121,0,Fixed-Wing
1970-01-01 00:00:27.606828032,8391,1532135152606511728,base_link,0,1,40.590524,-79.8976543,366.654495964,0.348099969053,0.0,0.0,0.0,0.348099969053,0.0,0.0,0.0,1.39239987621,1,308.63130217652116,69.75839771363655,366.6466574138626,-15.50056983728906,-0.222572010064615,-0.6488773809984684,0,Fixed-Wing
1970-01-01 00:00:28.020239168,8393,1532135153016527824,base_link,0,1,40.5905248,-79.8977282,366.604419932,0.348099969053,0.0,0.0,0.0,0.348099969053,0.0,0.0,0.0,1.39239987621,1,302.3750274944324,69.84698270533013,366.5968796342754,-15.62744244774743,0.22127494871491335,-0.12433907160482124,0,Fixed-Wing
1970-01-01 00:00:28.412589760,8395,1532135153412671984,base_link,0,1,40.5905271,-79.8978021,366.754343274,0.324899991846,0.0,0.0,0.0,0.324899991846,0.0,0.0,0.0,1.29959996738,1,296.1187557133749,70.10215375238198,366.747093266829,-15.627435201310584,0.63738743178118,0.3752160857512583,0,Fixed-Wing
1970-01-01 00:00:28.801022944,8397,1532135153801123408,base_link,0,1,40.5905305,-79.897875,367.104267183,0.324899991846,0.0,0.0,0.0,0.324899991846,0.0,0.0,0.0,1.29959996738,1,289.94714696846086,70.47949321277773,367.0972961330118,-15.415956838864231,0.9425498399999641,0.874765801440345,0,Fixed-Wing
1970-01-01 00:00:29.205043168,8399,1532135154204525392,base_link,0,1,40.5905344,-79.8979464,367.534192427,0.348099969053,0.0,0.0,0.0,0.348099969053,0.0,0.0,0.0,1.39239987621,1,283.9025274724549,70.91236975933376,367.5274880886783,-15.098752547231133,1.0812749858395783,1.0745691917761873,0,Fixed-Wing
1970-01-01 00:00:29.638867968,8401,1532135154638183280,base_link,0,1,40.5905383,-79.8980163,367.964119215,0.348099969053,0.0,0.0,0.0,0.348099969053,0.0,0.0,0.0,1.39239987621,1,277.98489572595406,71.34525599777433,367.95767031213563,-14.781552000931288,1.0812991950336435,1.0745448818559682,0,Fixed-Wing
1970-01-01 00:00:29.991174464,8403,1532135154991260976,base_link,0,1,40.590542,-79.8980852,368.254047121,0.324899991846,0.0,0.0,0.0,0.324899991846,0.0,0.0,0.0,1.29959996738,1,272.1519172908691,71.75593801920525,368.2478447879113,-14.57009792971695,1.025835657857254,0.7248219028764203,0,Fixed-Wing
1970-01-01 00:00:30.417358336,8405,1532135155417435024,base_link,0,1,40.5905448,-79.8981537,368.433975825,0.324899991846,0.0,0.0,0.0,0.324899991846,0.0,0.0,0.0,1.29959996738,1,266.3528013822764,72.06667741547605,368.4280144271926,-14.485513298960838,0.7761906690849617,0.4500426870260025,0,Fixed-Wing
1970-01-01 00:00:30.779651424,8407,1532135155779895152,base_link,0,1,40.5905465,-79.8982219,368.56390531,0.324899991846,0.0,0.0,0.0,0.324899991846,0.0,0.0,0.0,1.29959996738,1,260.5790854326368,72.25526398061797,368.55817991922487,-14.422067172170607,0.4710671834168494,0.3251381754770091,0,Fixed-Wing
1970-01-01 00:00:31.194784160,8409,1532135156194994704,base_link,0,1,40.590547,-79.89829,368.713835413,0.324899991846,0.0,0.0,0.0,0.324899991846,0.0,0.0,0.0,1.29959996738,1,254.81384074986192,72.31059261575788,368.70834198527,-14.400906938307013,0.13820445957030206,0.3750872786442011,0,Fixed-Wing
1970-01-01 00:00:31.614267488,8411,1532135156614454448,base_link,0,1,40.5905467,-79.8983579,368.913766066,0.324899991846,0.0,0.0,0.0,0.324899991846,0.0,0.0,0.0,1.29959996738,1,249.06553251533313,72.27708489546748,368.90849974504096,-14.358601671405465,-0.08369836636051377,0.499970674280911,0,Fixed-Wing
1970-01-01 00:00:32.003902368,8413,1532135157004018416,base_link,0,1,40.5905459,-79.8984259,369.053696837,0.384400005913,0.0,0.0,0.0,0.384400005913,0.0,0.0,0.0,1.53760002365,1,243.30875753620776,72.18805442635627,369.0486534018591,-14.379750609172145,-0.22238769920294507,0.35008744293746735,0,Fixed-Wing
1970-01-01 00:00:32.439159424,8415,1532135157438883696,base_link,0,1,40.5905452,-79.8984945,369.083626959,0.36000002861,0.0,0.0,0.0,0.36000002861,0.0,0.0,0.0,1.44000011444,1,237.50118257526833,72.11013077731835,369.07880298449004,-14.506643022387111,-0.19464416166780552,0.07531013124112461,0,Fixed-Wing
1970-01-01 00:00:32.818110816,8417,1532135157818220880,base_link,0,1,40.5905448,-79.8985639,369.093556144,0.36000002861,0.0,0.0,0.0,0.36000002861,0.0,0.0,0.0,1.44000011444,1,231.62587881279265,72.06552505487417,369.0889484274226,-14.67582164734308,-0.1114198777640312,0.02534212987638647,0,Fixed-Wing
1970-01-01 00:00:33.185749728,8419,1532135158185930800,base_link,0,1,40.5905444,-79.898634,369.193484621,0.36000002861,0.0,0.0,0.0,0.36000002861,0.0,0.0,0.0,1.44000011444,1,225.69131713419705,72.02092318594347,369.1890898520517,-14.823840991248916,-0.11141025213805843,0.25014156659506215,0,Fixed-Wing
1970-01-01 00:00:33.605016864,8421,1532135158604813264,base_link,0,1,40.5905434,-79.8987041,369.40341336,0.384400005913,0.0,0.0,0.0,0.384400005913,0.0,0.0,0.0,1.53760002365,1,219.7567609464958,71.90969581498777,369.39922677646575,-14.823827275637015,-0.27783296395230794,0.5248974604373545,0,Fixed-Wing
1970-01-01 00:00:33.986337216,8423,1532135158986220816,base_link,0,1,40.5905418,-79.898774,369.713342565,0.36000002861,0.0,0.0,0.0,0.36000002861,0.0,0.0,0.0,1.44000011444,1,213.83914116972403,71.73184330183375,369.7093588359928,-14.78152210194803,-0.4442547769615802,0.7746736129307001,0,Fixed-Wing
1970-01-01 00:00:34.378261728,8425,1532135159378268528,base_link,0,1,40.5905406,-79.8988434,370.01327212,0.36000002861,0.0,0.0,0.0,0.36000002861,0.0,0.0,0.0,1.44000011444,1,207.96384827145476,71.59841752156305,370.00948388315936,-14.675794509826085,-0.33328199418667337,0.7496772664330623,0,Fixed-Wing
1970-01-01 00:00:34.802752032,8427,1532135159802623440,base_link,0,1,40.5905399,-79.8989123,370.383201983,0.324899991846,0.0,0.0,0.0,0.324899991846,0.0,0.0,0.0,1.29959996738,1,202.130884621703,71.52052452605474,370.3796018651399,-14.570060997683902,-0.19456759273592428,0.9245114315130761,0,Fixed-Wing
1970-01-01 00:00:35.209831744,8429,1532135160210031472,base_link,0,1,40.5905393,-79.8989809,370.613132119,0.324899991846,0.0,0.0,0.0,0.324899991846,0.0,0.0,0.0,1.29959996738,1,196.32331316398626,71.45374042844625,370.60971388945137,-14.506634271746528,-0.16681886503311033,0.5747929237758378,0,Fixed-Wing
1970-01-01 00:00:35.613895424,8431,1532135160613805296,base_link,0,1,40.5905392,-79.8990497,370.793061847,0.324899991846,0.0,0.0,0.0,0.324899991846,0.0,0.0,0.0,1.29959996738,1,190.49880654960106,71.44248609277517,370.78982010580677,-14.548936312438208,-0.028112014245634392,0.44988426397477616,0,Fixed-Wing
1970-01-01 00:00:35.995496608,8433,1532135160995708528,base_link,0,1,40.5905395,-79.8991195,370.792990392,0.324899991846,0.0,0.0,0.0,0.324899991846,0.0,0.0,0.0,1.29959996738,1,184.58963467643653,71.4756531798327,370.7899217768511,-14.760420226769124,0.08284750438387249,0.0002539623776838465,0,Fixed-Wing
1970-01-01 00:00:36.439991456,8435,1532135161440124528,base_link,0,1,40.59054,-79.8991903,370.662917839,0.324899991846,0.0,0.0,0.0,0.324899991846,0.0,0.0,0.0,1.29959996738,1,178.59580007711446,71.5310319555316,370.66001900190236,-14.971897814907043,0.1383297048224084,-0.3244819389285887,0,Fixed-Wing
1970-01-01 00:00:36.791308032,8437,1532135161791208880,base_link,0,1,40.5905399,-79.8992625,370.612844117,0.324899991846,0.0,0.0,0.0,0.324899991846,0.0,0.0,0.0,1.29959996738,1,172.48344746487902,71.51978222296577,370.6101133809027,-15.267941949786158,-0.0281005162270716,-0.12465840450131628,0,Fixed-Wing
1970-01-01 00:00:37.223208320,8439,1532135162223052048,base_link,0,1,40.5905388,-79.8993356,370.462769907,0.324899991846,0.0,0.0,0.0,0.324899991846,0.0,0.0,0.0,1.29959996738,1,166.29490205777336,71.39748220817094,370.4602046562277,-15.458262640176612,-0.3054911332516473,-0.3744544615313897,0,Fixed-Wing
1970-01-01 00:00:37.599349568,8441,1532135162599386288,base_link,0,1,40.5905377,-79.8994098,370.232694582,0.324899991846,0.0,0.0,0.0,0.324899991846,0.0,0.0,0.0,1.29959996738,1,160.0132302661807,71.27518444316127,370.23029115298766,-15.690881456946881,-0.30548551355145664,-0.5742970413575176,0,Fixed-Wing
1970-01-01 00:00:38.016724512,8443,1532135163016621104,base_link,0,1,40.5905369,-79.8994849,370.192618221,0.324899991846,0.0,0.0,0.0,0.324899991846,0.0,0.0,0.0,1.29959996738,1,153.6553698618212,71.18620827197458,370.19037189123816,-15.881191700932172,-0.22225206933795302,-0.0997136470578765,0,Fixed-Wing
1970-01-01 00:00:38.397165408,8445,1532135163397298192,base_link,0,1,40.5905369,-79.8995601,370.32254143,0.324899991846,0.0,0.0,0.0,0.324899991846,0.0,0.0,0.0,1.29959996738,1,147.2890456896065,71.1860812284819,370.3204450735607,-15.902333203147126,-0.00031733978623699595,0.3249075966181641,0,Fixed-Wing
1970-01-01 00:00:38.796438528,8447,1532135163796352208,base_link,0,1,40.5905377,-79.8996348,370.552464821,0.324899991846,0.0,0.0,0.0,0.324899991846,0.0,0.0,0.0,1.29959996738,1,140.9650510899526,71.2748035170909,370.55051016567256,-15.79659888158261,0.22161790035196613,0.5746756926302106,0,Fixed-Wing
1970-01-01 00:00:39.202782336,8449,1532135164202880848,base_link,0,1,40.5905394,-79.8997087,370.79238866,0.324899991846,0.0,0.0,0.0,0.324899991846,0.0,0.0,0.0,1.29959996738,1,134.708781479702,71.46347973727043,370.79056689071217,-15.627429778888887,0.4712911312151219,0.5996336231034397,0,Fixed-Wing
1970-01-01 00:00:39.601327776,8451,1532135164601367824,base_link,0,1,40.590542,-79.8997818,371.072312945,0.324899991846,0.0,0.0,0.0,0.324899991846,0.0,0.0,0.0,1.29959996738,1,128.52023768775138,71.7521100704084,371.0706154422166,-15.458258605708217,0.7209648151640824,0.6995285283332914,0,Fixed-Wing
1970-01-01 00:00:40.047087776,8453,1532135165046758608,base_link,0,1,40.5905448,-79.8998543,371.272237769,0.324899991846,0.0,0.0,0.0,0.324899991846,0.0,0.0,0.0,1.29959996738,1,122.38248710113655,72.06295599065206,371.2706572991543,-15.331383119343426,0.7764567535105265,0.4996811625590568,0,Fixed-Wing
1970-01-01 00:00:40.442185088,8455,1532135165442252016,base_link,0,1,40.5905477,-79.8999264,371.342162967,0.324899991846,0.0,0.0,0.0,0.324899991846,0.0,0.0,0.0,1.29959996738,1,116.27859754772521,72.38491128194428,371.3406928728836,-15.246802218648034,0.8042066630836036,0.17494067210360534,0,Fixed-Wing
1970-01-01 00:00:40.804085408,8457,1532135165804127792,base_link,0,1,40.5905508,-79.8999984,371.252088193,0.324899991846,0.0,0.0,0.0,0.324899991846,0.0,0.0,0.0,1.29959996738,1,110.18317115889408,72.72908037059707,371.2507222256529,-15.225662223343539,0.8596941308560766,-0.22473615418607792,0,Fixed-Wing
1970-01-01 00:00:41.219990784,8459,1532135166219792944,base_link,0,1,40.5905536,-79.9000706,371.16201335,0.324899991846,0.0,0.0,0.0,0.324899991846,0.0,0.0,0.0,1.29959996738,1,104.07081424948775,73.03993845234902,371.1607463339726,-15.26795268361646,0.7764871315358866,-0.22474925420780045,0,Fixed-Wing
1970-01-01 00:00:41.608418080,8461,1532135166607951600,base_link,0,1,40.5905564,-79.9001429,371.131938415,0.324899991846,0.0,0.0,0.0,0.324899991846,0.0,0.0,0.0,1.29959996738,1,97.94999308433836,73.35080211739117,371.1307646146454,-15.289095404518156,0.7765010779418163,-0.07489082834104274,0,Fixed-Wing
1970-01-01 00:00:41.998567488,8463,1532135166996764432,base_link,0,1,40.5905606,-79.9002149,371.031863206,0.324899991846,0.0,0.0,0.0,0.324899991846,0.0,0.0,0.0,1.29959996738,1,91.85456714349962,73.81714377833126,371.0307745748818,-15.225661104310939,1.1648669276290553,-0.24976342490641953,0,Fixed-Wing
1970-01-01 00:00:42.392813088,8465,1532135167392867600,base_link,0,1,40.5905673,-79.9002865,370.931787363,0.324899991846,0.0,0.0,0.0,0.324899991846,0.0,0.0,0.0,1.29959996738,1,85.79300239064605,74.56112198767457,370.9307743480981,-15.141079816989027,1.8583705543134967,-0.24978887089107854,0,Fixed-Wing
1970-01-01 00:00:42.804954752,8467,1532135167804776080,base_link,0,1,40.5905774,-79.9003574,370.691710814,0.324899991846,0.0,0.0,0.0,0.324899991846,0.0,0.0,0.0,1.29959996738,1,79.79069424582659,75.68268248800086,370.69076235507475,-14.993063740528568,2.801526956719921,-0.5995218877585212,0,Fixed-Wing
1970-01-01 00:00:43.197084224,8469,1532135168192769680,base_link,0,1,40.5905923,-79.9004277,370.361632871,0.324899991846,0.0,0.0,0.0,0.324899991846,0.0,0.0,0.0,1.29959996738,1,73.83917716632635,77.33729899497635,370.36073608751326,-14.866193599674862,4.133038517295308,-0.8243670178560998,0,Fixed-Wing
1970-01-01 00:00:43.593956448,8471,1532135168593737808,base_link,0,1,40.5906133,-79.9004963,369.901554111,0.324899991846,0.0,0.0,0.0,0.324899991846,0.0,0.0,0.0,1.29959996738,1,68.03157525222689,79.6693397851001,369.9006930513424,-14.506710348228538,5.825165147846589,-1.1491336996167578,0,Fixed-Wing
1970-01-01 00:00:44.040565696,8473,1532135169040731376,base_link,0,1,40.5906418,-79.9005625,369.371474662,0.324899991846,0.0,0.0,0.0,0.324899991846,0.0,0.0,0.0,1.29959996738,1,62.42715048512613,82.83427894662955,369.3706304177242,-13.999197597787774,7.905647867256116,-1.3240344648364815,0,Fixed-Wing
1970-01-01 00:00:44.394894432,8475,1532135169392714384,base_link,0,1,40.5906776,-79.9006242,368.811396752,0.302500013113,0.0,0.0,0.0,0.302500013113,0.0,0.0,0.0,1.21000005245,1,57.20368780727105,86.80990714087045,368.8105484222925,-13.047598854608406,9.930654256120182,-1.3990193197057683,0,Fixed-Wing
1970-01-01 00:00:44.824617216,8477,1532135169817049168,base_link,0,1,40.5907207,-79.9006795,368.261322321,0.302500013113,0.0,0.0,0.0,0.302500013113,0.0,0.0,0.0,1.21000005245,1,52.52203947687216,91.59622501898113,368.2604471015983,-11.69420998303661,11.955662271501602,-1.3740887615102173,0,Fixed-Wing
1970-01-01 00:00:45.205496064,8479,1532135170203825328,base_link,0,1,40.5907716,-79.9007258,367.761253812,0.302500013113,0.0,0.0,0.0,0.302500013113,0.0,0.0,0.0,1.21000005245,1,48.60231727883791,97.2487596439293,367.7603257384775,-9.791007616130955,14.11937039595986,-1.2492446729416755,0,Fixed-Wing
1970-01-01 00:00:45.664139328,8481,1532135170664201104,base_link,0,1,40.5908286,-79.90076,367.411195098,0.302500013113,0.0,0.0,0.0,0.302500013113,0.0,0.0,0.0,1.21000005245,1,45.706962863223815,103.5787238909414,367.41018850292687,-7.232256701480729,15.811510362498034,-0.8746018637969799,0,Fixed-Wing
1970-01-01 00:00:46.025722880,8483,1532135171025872592,base_link,0,1,40.5908892,-79.9007791,367.171150282,0.302500013113,0.0,0.0,0.0,0.302500013113,0.0,0.0,0.0,1.21000005245,1,44.08994976217774,110.30848667951065,367.170041942049,-4.03910960722307,16.81016036051758,-0.5998580225205657,0,Fixed-Wing
1970-01-01 00:00:46.433307424,8485,1532135171433383088,base_link,0,1,40.5909502,-79.900783,367.211120802,0.302500013113,0.0,0.0,0.0,0.302500013113,0.0,0.0,0.0,1.21000005245,1,43.75974359591827,117.08268294223316,367.20989368787133,-0.8248163837634238,16.92114998219637,0.09954500016815301,0,Fixed-Wing
1970-01-01 00:00:46.809741344,8487,1532135171809879568,base_link,0,1,40.5910094,-79.9007763,367.631102889,0.302500013113,0.0,0.0,0.0,0.302500013113,0.0,0.0,0.0,1.21000005245,1,44.32691632334298,123.65699768613621,367.62974749253533,1.4167311389215258,16.421869325504247,1.0487456996795241,0,Fixed-Wing
1970-01-01 00:00:47.193255936,8489,1532135172193336080,base_link,0,1,40.5910655,-79.9007647,368.301091278,0.302500013113,0.0,0.0,0.0,0.302500013113,0.0,0.0,0.0,1.21000005245,1,45.308915734885126,129.88705847117603,368.2996048647425,2.4529196794270556,15.56196319878859,1.673225372015121,0,Fixed-Wing
1970-01-01 00:00:47.598898912,8491,1532135172597582800,base_link,0,1,40.5911191,-79.9007524,369.121081437,0.302500013113,0.0,0.0,0.0,0.302500013113,0.0,0.0,0.0,1.21000005245,1,46.350177021224056,135.83949319600214,369.11946325967233,2.6009489116447058,14.86848577037487,2.04791038327477,0,Fixed-Wing
1970-01-01 00:00:47.999518016,8493,1532135172999502608,base_link,0,1,40.5911709,-79.9007422,369.86107022,0.302500013113,0.0,0.0,0.0,0.302500013113,0.0,0.0,0.0,1.21000005245,1,47.21365620644333,141.59203230028436,369.8593203093192,2.1568700157098766,14.369169889224434,1.8480763793855801,0,Fixed-Wing
1970-01-01 00:00:48.396871104,8495,1532135173396616080,base_link,0,1,40.5912222,-79.9007355,370.321055661,0.302500013113,0.0,0.0,0.0,0.302500013113,0.0,0.0,0.0,1.21000005245,1,47.78083040650676,147.2890382657767,370.3191722063461,1.4167348174008199,14.230454603454415,1.1486562563899803,0,Fixed-Wing
1970-01-01 00:00:48.820280256,8497,1532135173820391984,base_link,0,1,40.5912739,-79.9007336,370.591036059,0.302500013113,0.0,0.0,0.0,0.302500013113,0.0,0.0,0.0,1.21000005245,1,47.94164522212317,153.03045894878136,370.5890159058031,0.40169660117153705,14.341397373237836,0.6740380014362798,0,Fixed-Wing
1970-01-01 00:00:49.200642432,8499,1532135174197913968,base_link,0,1,40.5913263,-79.9007373,370.571010478,0.302500013113,0.0,0.0,0.0,0.302500013113,0.0,0.0,0.0,1.21000005245,1,47.62837447223495,158.84960663459134,370.56885005115146,-0.7825136943645719,14.535550335615516,-0.05037194640447919,0,Fixed-Wing
1970-01-01 00:00:49.630012896,8501,1532135174630037232,base_link,0,1,40.5913794,-79.9007457,370.340979834,0.33639998064,0.0,0.0,0.0,0.33639998064,0.0,0.0,0.0,1.34559992256,1,46.917211699147344,164.74648313738896,370.33867472212415,-1.776401432504972,14.729707829608468,-0.5749510515520698,0,Fixed-Wing
1970-01-01 00:00:49.992471264,8503,1532135174991042928,base_link,0,1,40.5914331,-79.9007571,369.990945903,0.33639998064,0.0,0.0,0.0,0.33639998064,0.0,0.0,0.0,1.34559992256,1,45.95207640293907,170.70998603305688,369.9884906046068,-2.4107950916804857,14.896132766650052,-0.8747189694667722,0,Fixed-Wing
1970-01-01 00:00:50.383682432,8505,1532135175383811280,base_link,0,1,40.5914878,-79.9007696,369.720910452,0.302500013113,0.0,0.0,0.0,0.302500013113,0.0,0.0,0.0,1.21000005245,1,44.893819509197655,176.78454258559802,369.7182968043053,-2.643401951199896,15.173531813141212,-0.6749125123995238,0,Fixed-Wing
1970-01-01 00:00:50.782454016,8507,1532135175782596016,base_link,0,1,40.5915432,-79.9007816,369.480875236,0.302500013113,0.0,0.0,0.0,0.302500013113,0.0,0.0,0.0,1.21000005245,1,43.8778928419796,182.93683667008798,369.47809473891795,-2.537665996113428,15.367711076087932,-0.5999966662936572,0,Fixed-Wing
1970-01-01 00:00:51.198863616,8509,1532135176198316368,base_link,0,1,40.5915993,-79.9007914,369.230841987,0.302500013113,0.0,0.0,0.0,0.302500013113,0.0,0.0,0.0,1.21000005245,1,43.048213371002674,189.16686799121607,369.227884967135,-2.072442282607808,15.56188960138303,-0.6249947464097181,0,Fixed-Wing
1970-01-01 00:00:51.593554816,8511,1532135176593559952,base_link,0,1,40.591656,-79.9007976,369.04081217,0.302500013113,0.0,0.0,0.0,0.302500013113,0.0,0.0,0.0,1.21000005245,1,42.52330121743979,195.46353402906306,369.0376683492937,-1.3111691680373068,15.728335330424938,-0.47513886441569614,0,Fixed-Wing
1970-01-01 00:00:52.012202784,8513,1532135177012270672,base_link,0,1,40.5917131,-79.9007999,368.930786173,0.302500013113,0.0,0.0,0.0,0.302500013113,0.0,0.0,0.0,1.21000005245,1,42.32855297006223,201.80462517902805,368.9274456915472,-0.4864583449964997,15.839304064717641,-0.2753233078629188,0,Fixed-Wing
1970-01-01 00:00:52.402207360,8515,1532135177402220112,base_link,0,1,40.5917702,-79.9007988,368.880763652,0.33639998064,0.0,0.0,0.0,0.33639998064,0.0,0.0,0.0,1.34559992256,1,42.42163936993527,208.1457197728157,368.8772182768204,0.2325189398810442,15.83931266698388,-0.12546220759607574,0,Fixed-Wing
1970-01-01 00:00:52.808519328,8517,1532135177808708880,base_link,0,1,40.5918269,-79.9007949,368.900744162,0.33639998064,0.0,0.0,0.0,0.33639998064,0.0,0.0,0.0,1.34559992256,1,42.751765822759296,214.44239705941698,368.8969874899084,0.8246172689246496,15.728363428497513,0.04938118216814096,0,Fixed-Wing
1970-01-01 00:00:53.207710240,8519,1532135178205589840,base_link,0,1,40.591883,-79.9007891,369.090726869,0.33639998064,0.0,0.0,0.0,0.33639998064,0.0,0.0,0.0,1.34559992256,1,43.24274134989706,220.6724498100313,369.08675387540393,1.2263994443153512,15.561943129733386,0.4740142366732828,0,Fixed-Wing
1970-01-01 00:00:53.613630112,8521,1532135178607957392,base_link,0,1,40.5919385,-79.9007833,369.340709839,0.33639998064,0.0,0.0,0.0,0.33639998064,0.0,0.0,0.0,1.34559992256,1,43.73371688602272,226.83587367910675,369.3365167608764,1.2263994667660658,15.395511976288706,0.6238784766722154,0,Fixed-Wing
1970-01-01 00:00:54.000404768,8523,1532135179000572944,base_link,0,1,40.5919935,-79.9007783,369.490692215,0.33639998064,0.0,0.0,0.0,0.33639998064,0.0,0.0,0.0,1.34559992256,1,44.15696587919348,232.94376782178085,369.48627554544544,1.0572264834821465,15.256805214266155,0.3740799286830173,0,Fixed-Wing
1970-01-01 00:00:54.411581312,8525,1532135179411466960,base_link,0,1,40.5920484,-79.9007745,369.610673427,0.33639998064,0.0,0.0,0.0,0.33639998064,0.0,0.0,0.0,1.34559992256,1,44.47862602410338,239.04055535312602,369.6060284017842,0.8034694219396532,15.229062198149997,0.29912862933358414,0,Fixed-Wing
1970-01-01 00:00:54.816930912,8527,1532135179817122384,base_link,0,1,40.5921036,-79.9007726,369.780652598,0.33639998064,0.0,0.0,0.0,0.33639998064,0.0,0.0,0.0,1.34559992256,1,44.6394382186646,245.17065989267758,369.7757732005971,0.40169005408222525,15.312284188029528,0.42400265478225085,0,Fixed-Wing
1970-01-01 00:00:55.189167904,8529,1532135180189375088,base_link,0,1,40.5921588,-79.900773,369.970629443,0.33639998064,0.0,0.0,0.0,0.33639998064,0.0,0.0,0.0,1.34559992256,1,44.605540214716356,251.3007644427948,369.96551112746647,-0.08467324929183778,15.312284214421302,0.4739431503535353,0,Fixed-Wing
1970-01-01 00:00:55.594087232,8531,1532135180594134544,base_link,0,1,40.5922141,-79.9007759,370.120603721,0.33639998064,0.0,0.0,0.0,0.33639998064,0.0,0.0,0.0,1.34559992256,1,44.360000695451404,257.44197178823117,370.1152416032212,-0.613329001833326,15.340017698591407,0.37400921657575864,0,Fixed-Wing
1970-01-01 00:00:55.997376160,8533,1532135180997094896,base_link,0,1,40.5922695,-79.90078,370.140576752,0.33639998064,0.0,0.0,0.0,0.33639998064,0.0,0.0,0.0,1.34559992256,1,44.01287290010191,263.59427875223,370.1349651380803,-0.8670846341462943,15.367743247594797,0.04926708329468454,0,Fixed-Wing
1970-01-01 00:00:56.415399328,8535,1532135181415471056,base_link,0,1,40.5923253,-79.9007831,370.060550652,0.33639998064,0.0,0.0,0.0,0.33639998064,0.0,0.0,0.0,1.34559992256,1,43.750401081085656,269.7910030869302,370.0546811115669,-0.6556239062800661,15.478692644733963,-0.2005401085415736,0,Fixed-Wing
1970-01-01 00:00:56.800365696,8537,1532135181800418960,base_link,0,1,40.5923821,-79.9007826,369.890527818,0.33639998064,0.0,0.0,0.0,0.33639998064,0.0,0.0,0.0,1.34559992256,1,43.792691032748664,276.0987777070286,369.8843874040725,0.10563535319568715,15.75608326967502,-0.4253737644704913,0,Fixed-Wing
1970-01-01 00:00:57.229181760,8539,1532135182229359056,base_link,0,1,40.5924393,-79.9007756,369.620511445,0.33639998064,0.0,0.0,0.0,0.33639998064,0.0,0.0,0.0,1.34559992256,1,44.38524525943207,282.4509718654806,369.6140881327586,1.4801311555541785,15.867038081356036,-0.6751759666531244,0,Fixed-Wing
1970-01-01 00:00:57.592228064,8541,1532135182591320592,base_link,0,1,40.5924967,-79.9007614,369.140502326,0.33639998064,0.0,0.0,0.0,0.33639998064,0.0,0.0,0.0,1.34559992256,1,45.587320881538915,288.82537026236383,369.13378438943874,3.0026443142108232,15.922501672041037,-1.1997425764660374,0,Fixed-Wing
1970-01-01 00:00:58.006971648,8543,1532135183006730320,base_link,0,1,40.5925529,-79.9007384,368.430502662,0.33639998064,0.0,0.0,0.0,0.33639998064,0.0,0.0,0.0,1.34559992256,1,47.53436657065105,295.06649903288366,368.42348417281875,4.863492412960359,15.589609732051642,-1.7742468673299343,0,Fixed-Wing
1970-01-01 00:00:58.399357632,8545,1532135183399503952,base_link,0,1,40.5926058,-79.9007033,367.750516666,0.33639998064,0.0,0.0,0.0,0.33639998064,0.0,0.0,0.0,1.34559992256,1,50.505748402045285,300.94116215130487,367.7432002314516,7.422164294246208,14.674221393422101,-1.6992697223281326,0,Fixed-Wing
1970-01-01 00:00:58.801479264,8547,1532135183799187952,base_link,0,1,40.5926532,-79.9006567,367.140544628,0.33639998064,0.0,0.0,0.0,0.33639998064,0.0,0.0,0.0,1.34559992256,1,54.45067269709607,306.20504719826124,367.13294464003417,9.85395950694482,13.148569204989709,-1.5243470943811517,0,Fixed-Wing
1970-01-01 00:00:59.230825312,8549,1532135184230855120,base_link,0,1,40.5926926,-79.9005997,366.66058645,0.33639998064,0.0,0.0,0.0,0.33639998064,0.0,0.0,0.0,1.34559992256,1,59.27601955645063,310.5805271372205,366.6527314358743,12.053152101979974,10.929437149413983,-1.19951642023359,0,Fixed-Wing
1970-01-01 00:00:59.622123200,8551,1532135184622024688,base_link,0,1,40.5927223,-79.9005348,366.380640285,0.33639998064,0.0,0.0,0.0,0.33639998064,0.0,0.0,0.0,1.34559992256,1,64.77015211190688,313.8788165959962,366.37257007203965,13.723700552422457,8.238741313676012,-0.6998103203400682,0,Fixed-Wing
1970-01-01 00:00:59.980554912,8553,1532135184980805456,base_link,0,1,40.5927421,-79.9004657,366.38070245,0.33639998064,0.0,0.0,0.0,0.33639998064,0.0,0.0,0.0,1.34559992256,1,70.61984701943359,316.0777080027266,366.37246139083436,14.611853722786716,5.492573560733164,-0.00027147293990941465,0,Fixed-Wing
1970-01-01 00:01:00.422697888,8555,1532135185422211568,base_link,0,1,40.5927522,-79.9003963,366.860768899,0.33639998064,0.0,0.0,0.0,0.33639998064,0.0,0.0,0.0,1.34559992256,1,76.49495200250497,317.19941953819847,366.85240436459526,14.675325119639558,2.8019042248491615,1.1988414163019314,0,Fixed-Wing
1970-01-01 00:01:00.784139136,8557,1532135185784223984,base_link,0,1,40.5927552,-79.9003294,367.660835718,0.33639998064,0.0,0.0,0.0,0.33639998064,0.0,0.0,0.0,1.34559992256,1,82.15842950286896,317.53267707209693,367.6523842273982,14.146704418914924,0.8324383432502482,1.9982561349330359,0,Fixed-Wing
1970-01-01 00:01:01.277240800,8559,1532135186277420176,base_link,0,1,40.5927544,-79.9002662,368.630900337,0.33639998064,0.0,0.0,0.0,0.33639998064,0.0,0.0,0.0,1.34559992256,1,87.50868880549785,317.4439443838221,368.6223822198495,13.364321993682601,-0.2216438775008959,2.422941538174605,0,Fixed-Wing
1970-01-01 00:01:01.602923392,8561,1532135186602965072,base_link,0,1,40.5927531,-79.9002065,369.680961607,0.33639998064,0.0,0.0,0.0,0.33639998064,0.0,0.0,0.0,1.34559992256,1,92.56265640216252,317.29968956581797,369.6723794479045,12.624219965241116,-0.36033166392514476,2.622770272331748,0,Fixed-Wing
1970-01-01 00:01:02.001978720,8563,1532135187002084816,base_link,0,1,40.5927529,-79.9001489,370.631020295,0.33639998064,0.0,0.0,0.0,0.33639998064,0.0,0.0,0.0,1.34559992256,1,97.43884550970449,317.27758857910453,370.62236671744336,12.180150091652264,-0.0552056799698252,2.3729570927110215,0,Fixed-Wing
1970-01-01 00:01:02.402933984,8565,1532135187402456272,base_link,0,1,40.5927547,-79.900092,371.271077457,0.33639998064,0.0,0.0,0.0,0.33639998064,0.0,0.0,0.0,1.34559992256,1,102.25576900883401,317.4775795546356,371.2623386078331,12.032111533299318,0.4995540667561231,1.5985749337180368,0,Fixed-Wing
1970-01-01 00:01:02.795835296,8567,1532135187794025712,base_link,0,1,40.5927587,-79.9000346,371.621134232,0.33639998064,0.0,0.0,0.0,0.33639998064,0.0,0.0,0.0,1.34559992256,1,107.1150127548947,317.92187538013275,371.61229356140103,12.137822560531696,1.1097990090826422,0.8741465447231739,0,Fixed-Wing
1970-01-01 00:01:03.216541216,8569,1532135188216426928,base_link,0,1,40.5927652,-79.899976,371.701191209,0.33639998064,0.0,0.0,0.0,0.33639998064,0.0,0.0,0.0,1.34559992256,1,112.0758345297289,318.64379376831437,371.69222931052656,12.391552596260137,1.8032677010773885,0.19967015235968774,0,Fixed-Wing
1970-01-01 00:01:03.590640768,8571,1532135188590500464,base_link,0,1,40.5927735,-79.899916,371.601248878,0.33639998064,0.0,0.0,0.0,0.33639998064,0.0,0.0,0.0,1.34559992256,1,117.15516715680602,319.5656028595827,371.5921496082437,12.687578844621987,2.3025712989949962,-0.24998739139296752,0,Fixed-Wing
1970-01-01 00:01:03.991580928,8573,1532135188991040336,base_link,0,1,40.5927826,-79.8998544,371.471307853,0.33639998064,0.0,0.0,0.0,0.33639998064,0.0,0.0,0.0,1.34559992256,1,122.36994560433767,320.57625811728315,371.46205997058183,13.025906662932307,2.5244986316607196,-0.32494870013127347,0,Fixed-Wing
1970-01-01 00:01:04.382831616,8575,1532135189382737232,base_link,0,1,40.5927914,-79.8997917,371.371368076,0.33639998064,0.0,0.0,0.0,0.33639998064,0.0,0.0,0.0,1.34559992256,1,127.6778449503222,321.5536043359707,371.3619669851021,13.258511776230954,2.4412965478945536,-0.25002057126525734,0,Fixed-Wing
1970-01-01 00:01:04.857740736,8577,1532135189855041776,base_link,0,1,40.5927983,-79.8997285,371.321429593,0.33639998064,0.0,0.0,0.0,0.33639998064,0.0,0.0,0.0,1.34559992256,1,133.0280754275576,322.3199577948327,371.31188054272155,13.364249991220975,1.9142613106941857,-0.12511007516259542,0,Fixed-Wing
1970-01-01 00:01:05.277255040,8579,1532135190277443312,base_link,0,1,40.5928028,-79.8996652,371.341492202,0.33639998064,0.0,0.0,0.0,0.33639998064,0.0,0.0,0.0,1.34559992256,1,138.38677676192262,322.81979272926327,371.33180396510477,13.385409201614154,1.2485292075729983,0.049766378951875745,0,Fixed-Wing
1970-01-01 00:01:05.582543776,8581,1532135190582561360,base_link,0,1,40.5928044,-79.899602,371.551555905,0.33639998064,0.0,0.0,0.0,0.33639998064,0.0,0.0,0.0,1.34559992256,1,143.73702232019295,322.99758867365284,371.54174049086623,13.364287661882381,0.44411347480403474,0.5243968880410442,0,Fixed-Wing
1970-01-01 00:01:06.015854464,8583,1532135191015844176,base_link,0,1,40.5928042,-79.8995391,371.851620046,0.33639998064,0.0,0.0,0.0,0.33639998064,0.0,0.0,0.0,1.34559992256,1,149.06187734473403,322.97549796993997,371.84168371262734,13.300865078198926,-0.055179994237076084,0.749223087835838,0,Fixed-Wing
1970-01-01 00:01:06.394020640,8585,1532135191394047408,base_link,0,1,40.5928034,-79.8994763,372.111684339,0.302500013113,0.0,0.0,0.0,0.302500013113,0.0,0.0,0.0,1.21000005245,1,154.37826773599625,322.8867773367126,372.10162622959666,13.279721414256962,-0.22161376540220556,0.6493060055835622,0,Fixed-Wing
1970-01-01 00:01:06.783719328,8587,1532135191783462800,base_link,0,1,40.5928027,-79.8994129,372.231749209,0.302500013113,0.0,0.0,0.0,0.302500013113,0.0,0.0,0.0,1.21000005245,1,159.74544841406504,322.80915972861123,372.22156306668666,13.4065896104771,-0.1938797072015899,0.29958819173249346,0,Fixed-Wing
1970-01-01 00:01:07.220434528,8589,1532135192220438512,base_link,0,1,40.5928024,-79.8993484,372.141815042,0.302500013113,0.0,0.0,0.0,0.302500013113,0.0,0.0,0.0,1.21000005245,1,165.20574434561985,322.7759584080092,372.1314916963542,13.639180623308771,-0.08293301577417603,-0.2249877487140966,0,Fixed-Wing
1970-01-01 00:01:07.606368064,8591,1532135192606322832,base_link,0,1,40.5928018,-79.8992825,371.761882432,0.302500013113,0.0,0.0,0.0,0.302500013113,0.0,0.0,0.0,1.21000005245,1,170.78455126459025,322.7094333333576,371.75141573443136,13.935207209316106,-0.16617185598111142,-0.9493853007647057,0,Fixed-Wing
1970-01-01 00:01:07.999118752,8593,1532135192999296272,base_link,0,1,40.5928015,-79.8992152,371.241951133,0.302500013113,0.0,0.0,0.0,0.302500013113,0.0,0.0,0.0,1.21000005245,1,176.4818710360789,322.67622390568954,371.2313312489083,14.23123845413175,-0.08295326627696781,-1.299110217897974,0,Fixed-Wing
1970-01-01 00:01:08.397009152,8595,1532135193396760144,base_link,0,1,40.5928017,-79.8991464,370.892021165,0.302500013113,0.0,0.0,0.0,0.302500013113,0.0,0.0,0.0,1.21000005245,1,182.30617706012578,322.6985568205602,370.881236572659,14.548435261233296,0.055785009381234166,-0.8744955556398064,0,Fixed-Wing
1970-01-01 00:01:08.809994496,8597,1532135193809066416,base_link,0,1,40.5928016,-79.8990771,370.722091838,0.302500013113,0.0,0.0,0.0,0.302500013113,0.0,0.0,0.0,1.21000005245,1,188.1728164319977,322.687588725859,370.71113766823703,14.654179012966292,-0.027397017780532787,-0.4248871691790981,0,Fixed-Wing
1970-01-01 00:01:09.184536608,8599,1532135194184695120,base_link,0,1,40.5928014,-79.8990084,370.792161948,0.302500013113,0.0,0.0,0.0,0.302500013113,0.0,0.0,0.0,1.21000005245,1,193.98866963388693,322.66553084636433,370.78103491882223,14.527321100090774,-0.055098003178903655,0.17459515706738488,0,Fixed-Wing
1970-01-01 00:01:09.612624736,8601,1532135194612685776,base_link,0,1,40.5928013,-79.8989406,370.952231108,0.302500013113,0.0,0.0,0.0,0.302500013113,0.0,0.0,0.0,1.21000005245,1,199.72833533141454,322.6545852782042,370.9409277443986,14.337013624772037,-0.027340749115471935,0.39939357788368873,0,Fixed-Wing
1970-01-01 00:01:10.032598752,8603,1532135195030662960,base_link,0,1,40.5928008,-79.8988742,371.002299012,0.302500013113,0.0,0.0,0.0,0.302500013113,0.0,0.0,0.0,1.21000005245,1,205.349480952548,322.59921427613574,370.9908202176657,14.04096433555924,-0.1383102872027327,0.12462556300312262,0,Fixed-Wing
1970-01-01 00:01:10.374704736,8605,1532135195374536976,base_link,0,1,40.5927994,-79.8988087,370.992366376,0.302500013113,0.0,0.0,0.0,0.302500013113,0.0,0.0,0.0,1.21000005245,1,210.894437404783,322.4438950462859,370.9807147875962,13.850652702422193,-0.38796927066773806,-0.02524218242421941,0,Fixed-Wing
1970-01-01 00:01:10.796625856,8607,1532135195790252880,base_link,0,1,40.5927975,-79.8987439,371.052433239,0.302500013113,0.0,0.0,0.0,0.302500013113,0.0,0.0,0.0,1.21000005245,1,216.38013901985707,322.2330555064277,371.0406088584501,13.702641049395831,-0.52665251164181,0.14960838402939272,0,Fixed-Wing
1970-01-01 00:01:11.189013344,8609,1532135196189120272,base_link,0,1,40.592796,-79.8986794,371.262499639,0.302500013113,0.0,0.0,0.0,0.302500013113,0.0,0.0,0.0,1.21000005245,1,221.84044820471627,322.06664784483377,371.2504963792191,13.639213728513083,-0.4156668763072064,0.5242744793012247,0,Fixed-Wing
1970-01-01 00:01:11.655723488,8611,1532135196655751760,base_link,0,1,40.5927951,-79.8986156,371.472565086,0.302500013113,0.0,0.0,0.0,0.302500013113,0.0,0.0,0.0,1.21000005245,1,227.2414969180172,321.96687388083774,371.46037701493265,13.491188001421104,-0.24922369291033017,0.5242572812380154,0,Fixed-Wing
1970-01-01 00:01:12.023476640,8613,1532135197023232880,base_link,0,1,40.5927948,-79.8985528,371.322629273,0.302500013113,0.0,0.0,0.0,0.302500013113,0.0,0.0,0.0,1.21000005245,1,232.55787516631904,321.93371448921334,371.3102515351034,13.279691082562142,-0.08282828209191367,-0.3749958905558239,0,Fixed-Wing
1970-01-01 00:01:12.372493664,8615,1532135197371921264,base_link,0,1,40.5927954,-79.8984904,370.612692688,0.302500013113,0.0,0.0,0.0,0.302500013113,0.0,0.0,0.0,1.21000005245,1,237.84036686301212,322.00047673975865,370.6001170608118,13.19504643987492,0.1667642936244273,-1.773832862378223,0,Fixed-Wing
1970-01-01 00:01:12.851133088,8617,1532135197850834320,base_link,0,1,40.5927963,-79.8984274,369.372756598,0.302500013113,0.0,0.0,0.0,0.302500013113,0.0,0.0,0.0,1.21000005245,1,243.17362947861977,322.10053329776906,369.35997509422015,13.321866257366011,0.24992957970721819,-3.0977295906510145,0,Fixed-Wing
1970-01-01 00:01:13.198492032,8619,1532135198198289168,base_link,0,1,40.5927965,-79.8983629,367.832822334,0.302500013113,0.0,0.0,0.0,0.302500013113,0.0,0.0,0.0,1.21000005245,1,248.63386438932346,322.12284594700725,367.81982949436014,13.639028200359421,0.05573438820146922,-3.8471035793665154,0,Fixed-Wing
1970-01-01 00:01:13.636586400,8621,1532135198635031856,base_link,0,1,40.5927958,-79.8982965,365.952890386,0.302500013113,0.0,0.0,0.0,0.302500013113,0.0,0.0,0.0,1.21000005245,1,254.254932346845,322.04520366661853,365.9396802000631,14.04077034093992,-0.19394133568979238,-4.696393042638967,0,Fixed-Wing
1970-01-01 00:01:14.029102400,8623,1532135199029143568,base_link,0,1,40.5927947,-79.8982274,363.942961367,0.302500013113,0.0,0.0,0.0,0.302500013113,0.0,0.0,0.0,1.21000005245,1,260.1045636970934,321.92314610707194,363.929521831592,14.611694964138861,-0.30488550839810824,-5.021140504600056,0,Fixed-Wing
1970-01-01 00:01:14.400110688,8625,1532135199400088048,base_link,0,1,40.5927934,-79.898155,362.033035807,0.302500013113,0.0,0.0,0.0,0.302500013113,0.0,0.0,0.0,1.21000005245,1,266.23356016419586,321.77889776892766,362.01935104967436,15.3095163526473,-0.36031547799310043,-4.771383207525764,0,Fixed-Wing
1970-01-01 00:01:14.819978080,8627,1532135199819825776,base_link,0,1,40.592792,-79.8980798,360.223113156,0.302500013113,0.0,0.0,0.0,0.302500013113,0.0,0.0,0.0,1.21000005245,1,272.5995936354291,321.6235630442614,360.2091677383866,15.901607066094506,-0.3880079749069191,-4.521626200014849,0,Fixed-Wing
1970-01-01 00:01:15.213703232,8629,1532135200213788304,base_link,0,1,40.5927906,-79.8980025,358.503192659,0.302500013113,0.0,0.0,0.0,0.302500013113,0.0,0.0,0.0,1.21000005245,1,279.143404474676,321.468245044685,358.488972465583,16.34567413928428,-0.387966197588607,-4.296846604511695,0,Fixed-Wing
1970-01-01 00:01:15.599130016,8631,1532135200599230928,base_link,0,1,40.5927895,-79.8979238,356.923273478,0.302500013113,0.0,0.0,0.0,0.302500013113,0.0,0.0,0.0,1.21000005245,1,285.8057348716551,321.34626016893054,356.90876481660223,16.64172213294005,-0.30470395278610257,-3.9471738925779767,0,Fixed-Wing
1970-01-01 00:01:16.034425888,8633,1532135201034396688,base_link,0,1,40.5927884,-79.8978438,355.523355636,0.302500013113,0.0,0.0,0.0,0.302500013113,0.0,0.0,0.0,1.21000005245,1,292.5781226756529,321.22429471418184,355.50854651528874,16.91663266381189,-0.3046554413851858,-3.497581552917619,0,Fixed-Wing
1970-01-01 00:01:16.390165376,8635,1532135201390292688,base_link,0,1,40.592788,-79.8977633,354.283438027,0.302500013113,0.0,0.0,0.0,0.302500013113,0.0,0.0,0.0,1.21000005245,1,299.3928398883574,321.18008179874727,354.26831535559654,17.02236657608807,-0.11043869179513045,-3.097952384584566,0,Fixed-Wing
1970-01-01 00:01:16.800180544,8637,1532135201800310928,base_link,0,1,40.5927888,-79.8976825,353.233520241,0.302500013113,0.0,0.0,0.0,0.302500013113,0.0,0.0,0.0,1.21000005245,1,306.23295483071473,321.2691484154582,353.2180688036623,17.085807134346968,0.22247799167932397,-2.623393054222209,0,Fixed-Wing
1970-01-01 00:01:17.238506688,8639,1532135202238303600,base_link,0,1,40.5927902,-79.8976013,352.223602627,0.302500013113,0.0,0.0,0.0,0.302500013113,0.0,0.0,0.0,1.21000005245,1,313.1069287339256,321.4248560370404,352.20781007157694,17.170382858554543,0.38893942779050633,-2.523508157050233,0,Fixed-Wing
1970-01-01 00:01:17.599935040,8641,1532135202600039536,base_link,0,1,40.5927919,-79.8975201,351.253684901,0.302500013113,0.0,0.0,0.0,0.302500013113,0.0,0.0,0.0,1.21000005245,1,319.98090075089937,321.61388762113387,351.2375421407112,17.17037814695487,0.47217878871024416,-2.4236158127630816,0,Fixed-Wing
1970-01-01 00:01:17.984639296,8643,1532135202984707312,base_link,0,1,40.5927937,-79.8974392,350.063766837,0.302500013113,0.0,0.0,0.0,0.302500013113,0.0,0.0,0.0,1.21000005245,1,326.82946193715327,321.8140184626757,350.04726720971513,17.10690486376272,0.4999034356927669,-2.9731675679762755,0,Fixed-Wing
1970-01-01 00:01:18.404846944,8645,1532135203404495696,base_link,0,1,40.5927956,-79.8973586,348.463848436,0.302500013113,0.0,0.0,0.0,0.302500013113,0.0,0.0,0.0,1.21000005245,1,333.65260164885177,322.0252388475142,348.446985356944,17.04340499351425,0.527603817860608,-3.997316905850053,0,Fixed-Wing
