time,field.header.seq,field.header.stamp,field.header.frame_id,field.status.status,field.status.service,lat,lon,alt,field.position_covariance0,field.position_covariance1,field.position_covariance2,field.position_covariance3,field.position_covariance4,field.position_covariance5,field.position_covariance6,field.position_covariance7,field.position_covariance8,field.position_covariance_type,x,y,z,vel_x,vel_y,vel_z,track_id,uav_category
1970-01-01 00:00:00.000000000,1288,1539875256590675016,base_link,0,1,40.591458,-79.8953719,370.156442199,0.396899993992,0.0,0.0,0.0,0.396899993992,0.0,0.0,0.0,1.58759997597,1,502.39113419683565,122.21906562378427,370.1355114978766,-13.2512549403484,1.3319853234689307,0.5509415400538921,0,Fixed-Wing
1970-01-01 00:00:00.410101696,1290,1539875257000706248,base_link,0,1,40.5914628,-79.8954345,370.376375881,0.396899993992,0.0,0.0,0.0,0.396899993992,0.0,0.0,0.0,1.58759997597,1,497.0915598085421,122.7517665141992,370.3558495479904,-13.2512549403484,1.3319853234689307,0.5509415400538921,0,Fixed-Wing
1970-01-01 00:00:00.809054752,1292,1539875257399740232,base_link,0,1,40.5914673,-79.8954968,370.726310006,0.396899993992,0.0,0.0,0.0,0.396899993992,0.0,0.0,0.0,1.58759997597,1,491.8173952498047,123.25115965536199,370.70618228699817,-13.187719247711913,1.2487013756476986,0.8759851449198536,0,Fixed-Wing
1970-01-01 00:00:01.207471168,1294,1539875257797458120,base_link,0,1,40.5914751,-79.8955586,370.98624326,0.396899993992,0.0,0.0,0.0,0.396899993992,0.0,0.0,0.0,1.58759997597,1,486.5855287634439,124.11703082790365,370.9664994013083,-13.081955558124637,2.1650568162970005,0.6509066944468086,0,Fixed-Wing
1970-01-01 00:00:01.595063648,1296,1539875258185669896,base_link,0,1,40.5914851,-79.895619,370.536177033,0.396899993992,0.0,0.0,0.0,0.396899993992,0.0,0.0,0.0,1.58759997597,1,481.4721141667043,125.22721492386324,370.51679889753257,-12.78577400229948,2.7759460304543198,-1.1244480378459136,0,Fixed-Wing
1970-01-01 00:00:01.979822432,1298,1539875258570311336,base_link,0,1,40.5914982,-79.8956775,369.266111459,0.396899993992,0.0,0.0,0.0,0.396899993992,0.0,0.0,0.0,1.58759997597,1,476.51946768537437,126.68165901091919,369.2470759201293,-12.383783365413715,3.6367466483033204,-3.17486304454095,0,Fixed-Wing
1970-01-01 00:00:02.435606176,1300,1539875259026248648,base_link,0,1,40.5915145,-79.8957337,367.346046906,0.396899993992,0.0,0.0,0.0,0.396899993992,0.0,0.0,0.0,1.58759997597,1,471.76146651243846,128.4914728234823,367.3273282523254,-11.897084922201149,4.525326463538886,-4.80020920612083,0,Fixed-Wing
1970-01-01 00:00:02.826598560,1302,1539875259416118632,base_link,0,1,40.5915349,-79.8957885,365.015982074,0.396899993992,0.0,0.0,0.0,0.396899993992,0.0,0.0,0.0,1.58759997597,1,467.1219322001958,130.75660241897918,364.997558242018,-11.600865932144846,5.6638151563945875,-5.8254444785522805,0,Fixed-Wing
1970-01-01 00:00:03.207353376,1304,1539875259797787880,base_link,0,1,40.5915591,-79.8958428,362.495916166,0.396899993992,0.0,0.0,0.0,0.396899993992,0.0,0.0,0.0,1.58759997597,1,462.5246927612049,133.4437308274326,362.4777710813845,-11.495110241769481,6.718996845581522,-6.3005705014214595,0,Fixed-Wing
1970-01-01 00:00:03.588969792,1306,1539875260179486696,base_link,0,1,40.5915867,-79.8958973,360.005848633,0.396899993992,0.0,0.0,0.0,0.396899993992,0.0,0.0,0.0,1.58759997597,1,457.91050778988966,136.50843739259574,359.98797097562704,-11.537481487548419,7.663107456712762,-6.225589742598623,0,Fixed-Wing
1970-01-01 00:00:04.010459072,1308,1539875260600880104,base_link,0,1,40.5916175,-79.8959527,357.895778845,0.396899993992,0.0,0.0,0.0,0.396899993992,0.0,0.0,0.0,1.58759997597,1,453.2201441972885,139.92851539196403,357.87816140972194,-11.727961374743478,8.551691544440999,-5.27544711800839,0,Fixed-Wing
1970-01-01 00:00:04.428128736,1310,1539875261018926920,base_link,0,1,40.5916511,-79.8960097,356.265706254,0.396899993992,0.0,0.0,0.0,0.396899993992,0.0,0.0,0.0,1.58759997597,1,448.394351777332,143.65954303482084,356.2483462539901,-12.066592703614345,9.329201717442592,-4.075251058264745,0,Fixed-Wing
1970-01-01 00:00:04.824058272,1312,1539875261414707240,base_link,0,1,40.5916879,-79.8960664,355.245632642,0.396899993992,0.0,0.0,0.0,0.396899993992,0.0,0.0,0.0,1.58759997597,1,443.59398495124583,147.74595466852418,355.228514238408,-12.0030175932943,10.217817202268735,-2.5500262935566136,0,Fixed-Wing
1970-01-01 00:00:05.208307488,1314,1539875261798745032,base_link,0,1,40.5917267,-79.8961214,355.185559952,0.396899993992,0.0,0.0,0.0,0.396899993992,0.0,0.0,0.0,1.58759997597,1,438.9375945355119,152.05450393806657,355.1686617170655,-11.643013566709019,10.773258494092458,-0.14965749341764933,0,Fixed-Wing
1970-01-01 00:00:05.590487808,1316,1539875262180572200,base_link,0,1,40.5917652,-79.8961748,355.755489046,0.396899993992,0.0,0.0,0.0,0.396899993992,0.0,0.0,0.0,1.58759997597,1,434.4167053479019,156.32976376426873,355.73879627252603,-11.304201204235765,10.690020319061233,1.4255858661778982,0,Fixed-Wing
1970-01-01 00:00:06.012567872,1318,1539875262603102632,base_link,0,1,40.5918021,-79.8962266,356.805420468,0.396899993992,0.0,0.0,0.0,0.396899993992,0.0,0.0,0.0,1.58759997597,1,430.0313140218802,160.4273634516885,356.7889224480884,-10.965397259574686,10.245792232190066,2.625774949522053,0,Fixed-Wing
1970-01-01 00:00:06.394066912,1320,1539875262984598952,base_link,0,1,40.5918382,-79.896277,357.905353675,0.396899993992,0.0,0.0,0.0,0.396899993992,0.0,0.0,0.0,1.58759997597,1,425.7644540022766,164.43613333850828,357.88903915469757,-10.66901712700622,10.023678860850092,2.750773151824532,0,Fixed-Wing
1970-01-01 00:00:06.773476832,1322,1539875263363723368,base_link,0,1,40.5918735,-79.8963267,359.06528795,0.396899993992,0.0,0.0,0.0,0.396899993992,0.0,0.0,0.0,1.58759997597,1,421.556865825229,168.35607018233458,359.0491499943427,-10.520811584646236,9.8015573821076,2.9007847364417327,0,Fixed-Wing
1970-01-01 00:00:07.166942976,1324,1539875263757705832,base_link,0,1,40.5919089,-79.896375,360.045223633,0.396899993992,0.0,0.0,0.0,0.396899993992,0.0,0.0,0.0,1.58759997597,1,417.4677875991888,172.28711784859348,360.02924900918265,-10.224484849949278,9.829339300024767,2.4506764054707983,0,Fixed-Wing
1970-01-01 00:00:07.587915584,1326,1539875264178415400,base_link,0,1,40.5919442,-79.8964226,360.795160089,0.396899993992,0.0,0.0,0.0,0.396899993992,0.0,0.0,0.0,1.58759997597,1,413.4379578579834,176.20706067567988,360.77934022333113,-10.076337712113094,9.801572342876007,1.8755562577163083,0,Fixed-Wing
1970-01-01 00:00:08.009156032,1328,1539875264599386600,base_link,0,1,40.5919792,-79.8964697,361.285097196,0.396899993992,0.0,0.0,0.0,0.396899993992,0.0,0.0,0.0,1.58759997597,1,409.45044490584837,180.09368589346172,361.2694253602208,-9.970527222601541,9.718263740609208,1.2254272920002527,0,Fixed-Wing
1970-01-01 00:00:08.370237632,1330,1539875264960708872,base_link,0,1,40.5920137,-79.8965168,361.735034526,0.396899993992,0.0,0.0,0.0,0.396899993992,0.0,0.0,0.0,1.58759997597,1,405.46293598071577,183.92478653831768,361.7195074624696,-9.970517153333338,9.579428012041985,1.1254022010072111,0,Fixed-Wing
1970-01-01 00:00:08.810426592,1332,1539875265400676744,base_link,0,1,40.5920474,-79.8965643,361.744971794,0.396899993992,0.0,0.0,0.0,0.396899993992,0.0,0.0,0.0,1.58759997597,1,401.4415450863699,187.66703319718755,361.7295894558072,-10.055236902322582,9.35725416665385,0.025209394988034543,0,Fixed-Wing
1970-01-01 00:00:09.187444160,1334,1539875265778123560,base_link,0,1,40.5920804,-79.8966125,361.28490865,0.396899993992,0.0,0.0,0.0,0.396899993992,0.0,0.0,0.0,1.58759997597,1,397.3608735393361,191.33152812632693,361.26967233079887,-10.20346447386736,9.162840819991949,-1.1499940614815172,0,Fixed-Wing
1970-01-01 00:00:09.626523168,1336,1539875266216843976,base_link,0,1,40.5921136,-79.8966611,360.614845026,0.396899993992,0.0,0.0,0.0,0.396899993992,0.0,0.0,0.0,1.58759997597,1,393.246329894458,195.01822702121717,360.5997514125072,-10.288159540114904,9.218360450304408,-1.6750954374307157,0,Fixed-Wing
1970-01-01 00:00:10.016208640,1338,1539875266606833160,base_link,0,1,40.5921485,-79.8967101,360.124780297,0.396899993992,0.0,0.0,0.0,0.396899993992,0.0,0.0,0.0,1.58759997597,1,389.0979297167386,198.89372022839447,360.1098207660988,-10.37281568704372,9.690428842990773,-1.2250409981957462,0,Fixed-Wing
1970-01-01 00:00:10.397602912,1340,1539875266988324232,base_link,0,1,40.5921825,-79.8967604,359.824714626,0.396899993992,0.0,0.0,0.0,0.396899993992,0.0,0.0,0.0,1.58759997597,1,384.8394977894186,202.66926845926577,359.8098939389967,-10.6479432083614,9.440522668645249,-0.7499483087091982,0,Fixed-Wing
1970-01-01 00:00:10.805413472,1342,1539875267396149096,base_link,0,1,40.5922165,-79.8968114,359.354648253,0.396899993992,0.0,0.0,0.0,0.396899993992,0.0,0.0,0.0,1.58759997597,1,380.5218010057697,206.44481024940887,359.3399648600895,-10.796131282096614,9.440506564006473,-1.1750283272253341,0,Fixed-Wing
1970-01-01 00:00:11.185832448,1344,1539875267776610888,base_link,0,1,40.5922517,-79.8968617,359.234582111,0.396899993992,0.0,0.0,0.0,0.396899993992,0.0,0.0,0.0,1.58759997597,1,376.2633825279876,210.353631323628,359.2200229574546,-10.647909578631584,9.773763094089299,-0.2999072403542565,0,Fixed-Wing
1970-01-01 00:00:11.613781984,1346,1539875268204499976,base_link,0,1,40.592287,-79.8969114,359.474516556,0.396899993992,0.0,0.0,0.0,0.396899993992,0.0,0.0,0.0,1.58759997597,1,372.0557828422879,214.27357459542236,359.46007307020255,-10.520840361312422,9.801573454840478,0.6002303221762596,0,Fixed-Wing
1970-01-01 00:00:12.006872288,1348,1539875268597557768,base_link,0,1,40.5923213,-79.8969612,359.824451329,0.396899993992,0.0,0.0,0.0,0.396899993992,0.0,0.0,0.0,1.58759997597,1,367.8397334563103,218.08247160160255,359.81012261539314,-10.541968309398175,9.523909199560395,0.8752770364578458,0,Fixed-Wing
1970-01-01 00:00:12.416950528,1350,1539875269006034824,base_link,0,1,40.5923552,-79.8970104,360.204386896,0.396899993992,0.0,0.0,0.0,0.396899993992,0.0,0.0,0.0,1.58759997597,1,363.67448550029667,221.8469540257168,360.19016655096283,-10.414942504972409,9.412853309614805,0.9502761372482386,0,Fixed-Wing
1970-01-01 00:00:12.776482912,1352,1539875269367202952,base_link,0,1,40.5923884,-79.8970591,360.534323279,0.396899993992,0.0,0.0,0.0,0.396899993992,0.0,0.0,0.0,1.58759997597,1,359.5515702606325,225.5337028862685,360.5202067321139,-10.309092190293718,9.218485386321827,0.8252448707299984,0,Fixed-Wing
1970-01-01 00:00:13.209752512,1354,1539875269800450248,base_link,0,1,40.5924207,-79.8971073,361.09426056,0.396899993992,0.0,0.0,0.0,0.396899993992,0.0,0.0,0.0,1.58759997597,1,355.47100429258865,229.12051762950063,361.0802442555331,-10.203200480193676,8.968606364194082,1.4003388678499378,0,Fixed-Wing
1970-01-01 00:00:13.606492032,1356,1539875270197167560,base_link,0,1,40.5924526,-79.8971551,361.604198429,0.396899993992,0.0,0.0,0.0,0.396899993992,0.0,0.0,0.0,1.58759997597,1,351.4243033085599,232.66291408619293,361.5902774986979,-10.11852320163215,8.857541211442756,1.2753062865121358,0,Fixed-Wing
1970-01-01 00:00:13.992984416,1358,1539875270583604328,base_link,0,1,40.5924844,-79.897202,362.134137273,0.396899993992,0.0,0.0,0.0,0.396899993992,0.0,0.0,0.0,1.58759997597,1,347.45379756939,236.19421238165432,362.1203034508444,-9.92800174823064,8.829790952070105,1.3252968073075344,0,Fixed-Wing
1970-01-01 00:00:14.409828320,1360,1539875270999964584,base_link,0,1,40.592516,-79.8972485,362.214076621,0.396899993992,0.0,0.0,0.0,0.396899993992,0.0,0.0,0.0,1.58759997597,1,343.5171341582628,239.70328753527548,362.2003244940421,-9.843381119513912,8.774223373143185,0.20008762332830576,0,Fixed-Wing
1970-01-01 00:00:14.768166976,1362,1539875271358901672,base_link,0,1,40.5925482,-79.8972945,361.624016243,0.396899993992,0.0,0.0,0.0,0.396899993992,0.0,0.0,0.0,1.58759997597,1,339.62276367804674,243.2789726040794,361.6103366551172,-9.737630285840227,8.940777308038708,-1.475227762170661,0,Fixed-Wing
1970-01-01 00:00:15.207444768,1364,1539875271797703080,base_link,0,1,40.5925824,-79.8973397,360.893955868,0.396899993992,0.0,0.0,0.0,0.396899993992,0.0,0.0,0.0,1.58759997597,1,335.7961050148525,247.07676136159347,360.88033225335266,-9.56832111418054,9.496133717185682,-1.825330437237811,0,Fixed-Wing
1970-01-01 00:00:15.625017856,1366,1539875272215473704,base_link,0,1,40.5926184,-79.8973846,360.203895069,0.396899993992,0.0,0.0,0.0,0.396899993992,0.0,0.0,0.0,1.58759997597,1,331.9948410569824,251.0744481360738,360.19031366430096,-9.504823238742043,9.995966230291158,-1.7253484086007642,0,Fixed-Wing
1970-01-01 00:00:16.032524352,1368,1539875272623205256,base_link,0,1,40.5926568,-79.8974294,359.693833393,0.396899993992,0.0,0.0,0.0,0.396899993992,0.0,0.0,0.0,1.58759997597,1,328.20204508923047,255.33866916260104,359.680278299865,-9.483649558052516,10.662418489553732,-1.275311590618269,0,Fixed-Wing
1970-01-01 00:00:16.429241856,1370,1539875273019960648,base_link,0,1,40.5926983,-79.8974723,359.173772393,0.396899993992,0.0,0.0,0.0,0.396899993992,0.0,0.0,0.0,1.58759997597,1,324.57008447070865,259.9471602229345,359.16021627608427,-9.0814908071958,11.523244218571874,-1.3003826264114327,0,Fixed-Wing
1970-01-01 00:00:16.813164064,1372,1539875273403938856,base_link,0,1,40.5927464,-79.8975097,358.693714306,0.396899993992,0.0,0.0,0.0,0.396899993992,0.0,0.0,0.0,1.58759997597,1,321.40370555660826,265.288619268027,358.6800978330569,-7.9173328184942156,13.35598491009053,-1.200506196152775,0,Fixed-Wing
1970-01-01 00:00:17.224141216,1374,1539875273814437576,base_link,0,1,40.5928028,-79.8975379,358.483662214,0.396899993992,0.0,0.0,0.0,0.396899993992,0.0,0.0,0.0,1.58759997597,1,319.016137213268,271.5518577748378,358.4699012106434,-5.969965602331065,15.660836913486879,-0.5255835331520297,0,Fixed-Wing
1970-01-01 00:00:17.586143424,1376,1539875274176853064,base_link,0,1,40.5928662,-79.8975549,358.653618702,0.396899993992,0.0,0.0,0.0,0.396899993992,0.0,0.0,0.0,1.58759997597,1,317.57670062751095,278.5925197605031,358.6396250512229,-3.5992213281250485,17.604735792926963,0.4243838686257075,0,Fixed-Wing
1970-01-01 00:00:17.996048608,1378,1539875274586466184,base_link,0,1,40.5929357,-79.8975588,359.013586085,0.396899993992,0.0,0.0,0.0,0.396899993992,0.0,0.0,0.0,1.58759997597,1,317.2462335241701,286.31065723353555,358.99926624156376,-0.8263123630155843,19.29872095874896,0.899260346412824,0,Fixed-Wing
1970-01-01 00:00:18.392088000,1380,1539875274982718024,base_link,0,1,40.5930097,-79.8975473,359.503567375,0.435600034618,0.0,0.0,0.0,0.435600034618,0.0,0.0,0.0,1.74240013847,1,318.2194445927218,294.52859268911783,359.4888240302971,2.4334535257461987,20.548434615013324,1.224108690854275,0,Fixed-Wing
1970-01-01 00:00:18.815375104,1382,1539875275405726792,base_link,0,1,40.5930863,-79.897521,359.95356274,0.435600034618,0.0,0.0,0.0,0.435600034618,0.0,0.0,0.0,1.74240013847,1,320.4455370761607,303.0353175562976,359.93830865427213,5.566205294523767,21.270534511489007,1.1239082438802404,0,Fixed-Wing
1970-01-01 00:00:19.223088512,1384,1539875275813804904,base_link,0,1,40.5931631,-79.8974799,360.413573168,0.435600034618,0.0,0.0,0.0,0.435600034618,0.0,0.0,0.0,1.74240013847,1,323.9245207660427,311.56430970024724,360.39773168819414,8.698981546475633,21.326212447052253,1.1487586175630924,0,Fixed-Wing
1970-01-01 00:00:19.645953248,1386,1539875276236482280,base_link,0,1,40.5932374,-79.8974235,360.853600277,0.435600034618,0.0,0.0,0.0,0.435600034618,0.0,0.0,0.0,1.74240013847,1,328.69873082978097,319.81572992657885,360.8371055119002,11.937614241838023,20.632161194038,1.0986268189584045,0,Fixed-Wing
1970-01-01 00:00:19.999811712,1388,1539875276589899656,base_link,0,1,40.5933073,-79.8973526,361.223644028,0.396899993992,0.0,0.0,0.0,0.396899993992,0.0,0.0,0.0,1.58759997597,1,334.70044658713346,327.5785754774739,361.20644268261145,15.006915603611846,19.41051071661307,0.9235045400727028,0,Fixed-Wing
1970-01-01 00:00:20.407355680,1390,1539875276997983048,base_link,0,1,40.5933713,-79.8972695,361.493702682,0.396899993992,0.0,0.0,0.0,0.396899993992,0.0,0.0,0.0,1.58759997597,1,341.7349651267475,334.6862599043146,361.47575896610846,17.58937448957081,17.772321223315846,0.6734085552396802,0,Fixed-Wing
1970-01-01 00:00:20.811611200,1392,1539875277401935560,base_link,0,1,40.5934275,-79.8971753,361.613775894,0.396899993992,0.0,0.0,0.0,0.396899993992,0.0,0.0,0.0,1.58759997597,1,349.7091719806554,340.9277791385932,361.59506921441334,19.939006460900412,15.60652922831145,0.2983278281321348,0,Fixed-Wing
1970-01-01 00:00:21.196967104,1394,1539875277787306536,base_link,0,1,40.5934729,-79.8970693,361.813865607,0.396899993992,0.0,0.0,0.0,0.396899993992,0.0,0.0,0.0,1.58759997597,1,358.6823543563552,345.96999393154385,361.7943891910438,22.436882393668302,12.607743337460633,0.49838715932907496,0,Fixed-Wing
1970-01-01 00:00:21.630399872,1396,1539875278221054760,base_link,0,1,40.5935074,-79.896954,362.043969308,0.396899993992,0.0,0.0,0.0,0.396899993992,0.0,0.0,0.0,1.58759997597,1,368.44287577404526,349.80178949010894,362.0237278476951,24.405574519766173,9.581165600392795,0.5734469948523332,0,Fixed-Wing
1970-01-01 00:00:21.983639328,1398,1539875278574115912,base_link,0,1,40.5935318,-79.8968326,362.044083401,0.396899993992,0.0,0.0,0.0,0.396899993992,0.0,0.0,0.0,1.58759997597,1,378.7198249465542,352.5119825415474,362.0230913135702,25.696869883501915,6.776668545591644,-0.0015916138446926693,0,Fixed-Wing
1970-01-01 00:00:22.421663776,1400,1539875279010633384,base_link,0,1,40.5935454,-79.8967063,361.664206949,0.396899993992,0.0,0.0,0.0,0.396899993992,0.0,0.0,0.0,1.58759997597,1,389.4116141161354,354.02282459675325,361.64248810951756,26.734151400448145,3.7777662471078486,-0.9516745531784249,0,Fixed-Wing
1970-01-01 00:00:22.805409696,1402,1539875279395812744,base_link,0,1,40.5935449,-79.896577,361.164339368,0.396899993992,0.0,0.0,0.0,0.396899993992,0.0,0.0,0.0,1.58759997597,1,400.3574382886671,353.96785042129056,361.14194690432834,27.36935006759101,-0.1374594940681853,-1.2515720380797193,0,Fixed-Wing
1970-01-01 00:00:23.255484224,1404,1539875279844999048,base_link,0,1,40.5935303,-79.8964492,360.654476063,0.396899993992,0.0,0.0,0.0,0.396899993992,0.0,0.0,0.0,1.58759997597,1,411.17636460639994,352.34704657201615,360.631486290304,27.052049903065186,-4.052718848984596,-1.2763749006684646,0,Fixed-Wing
1970-01-01 00:00:23.629374144,1406,1539875280220001832,base_link,0,1,40.5935008,-79.8963279,360.434612256,0.396899993992,0.0,0.0,0.0,0.396899993992,0.0,0.0,0.0,1.58759997597,1,421.44515093577684,349.07156353632365,360.4111337515516,25.6764592038029,-8.190140863882435,-0.5509777679904542,0,Fixed-Wing
1970-01-01 00:00:24.034428640,1408,1539875280625135432,base_link,0,1,40.5934588,-79.8962156,360.444744409,0.396899993992,0.0,0.0,0.0,0.396899993992,0.0,0.0,0.0,1.58759997597,1,430.95214839777015,344.4079089424527,360.4208857107769,23.771653694379786,-11.66117719068573,0.02438416529217094,0,Fixed-Wing
1970-01-01 00:00:24.412371200,1410,1539875281003116776,base_link,0,1,40.5934091,-79.8961124,360.464870454,0.396899993992,0.0,0.0,0.0,0.396899993992,0.0,0.0,0.0,1.58759997597,1,439.6888498267046,338.8891184680162,360.4407126650884,21.84557654823207,-13.799391079530203,0.04957606158966405,0,Fixed-Wing
1970-01-01 00:00:24.818915520,1412,1539875281409269640,base_link,0,1,40.5933512,-79.8960236,360.614985173,0.396899993992,0.0,0.0,0.0,0.396899993992,0.0,0.0,0.0,1.58759997597,1,447.20659716766204,332.45964255768035,360.5906446651576,18.797657942533547,-16.07650316389328,0.37489560690410034,0,Fixed-Wing
1970-01-01 00:00:25.215465024,1414,1539875281806225032,base_link,0,1,40.5932867,-79.8959524,361.045084629,0.396899993992,0.0,0.0,0.0,0.396899993992,0.0,0.0,0.0,1.58759997597,1,453.23449418257235,325.2971520504001,361.0206894627894,15.07238020381144,-17.909360406271766,1.0753001716095523,0,Fixed-Wing
1970-01-01 00:00:25.580936096,1416,1539875282170872232,base_link,0,1,40.5932186,-79.895898,361.865168404,0.396899993992,0.0,0.0,0.0,0.396899993992,0.0,0.0,0.0,1.58759997597,1,457.8402503579507,317.7348090175453,361.8408269037608,11.516405809462556,-18.909166686307135,2.050702475361672,0,Fixed-Wing
1970-01-01 00:00:25.965795648,1418,1539875282556485544,base_link,0,1,40.5931492,-79.8958582,362.765237797,0.396899993992,0.0,0.0,0.0,0.396899993992,0.0,0.0,0.0,1.58759997597,1,461.2100657019987,310.02802620159173,362.741034052935,8.426012912379647,-19.270329347519677,2.250911782497455,0,Fixed-Wing
1970-01-01 00:00:26.419031168,1420,1539875283009698664,base_link,0,1,40.5930807,-79.8958308,363.215294147,0.396899993992,0.0,0.0,0.0,0.396899993992,0.0,0.0,0.0,1.58759997597,1,463.53012422066956,302.4211032454616,363.1912885623809,5.801161499939645,-19.020636001625583,1.1258332944413434,0,Fixed-Wing
1970-01-01 00:00:26.768656160,1422,1539875283359261864,base_link,0,1,40.5930142,-79.8958159,363.315336893,0.396899993992,0.0,0.0,0.0,0.396899993992,0.0,0.0,0.0,1.58759997597,1,464.79195601359015,295.0362025359779,363.29158633092726,3.1551316303367805,-18.465483233275076,0.25078830931998264,0,Fixed-Wing
1970-01-01 00:00:27.208187424,1424,1539875283798849800,base_link,0,1,40.5929507,-79.8958139,363.765365205,0.396899993992,0.0,0.0,0.0,0.396899993992,0.0,0.0,0.0,1.58759997597,1,464.9617394079419,287.9844067125429,363.7419253624447,0.42453277911565845,-17.632575259257834,1.1260446366050165,0,Fixed-Wing
1970-01-01 00:00:27.603769760,1426,1539875284194138888,base_link,0,1,40.5928903,-79.8958201,364.235383851,0.396899993992,0.0,0.0,0.0,0.396899993992,0.0,0.0,0.0,1.58759997597,1,464.43732753816306,281.2768300282602,364.2122822139402,-1.3112591447973814,-16.771876789144955,1.176097945879338,0,Fixed-Wing
1970-01-01 00:00:27.974387904,1428,1539875284564938120,base_link,0,1,40.5928328,-79.8958302,364.445397316,0.396899993992,0.0,0.0,0.0,0.396899993992,0.0,0.0,0.0,1.58759997597,1,463.58271874717576,274.89127268039306,364.42263683759984,-2.1368959342567435,-15.966687539987298,0.525978605404975,0,Fixed-Wing
1970-01-01 00:00:28.414345184,1430,1539875285005132072,base_link,0,1,40.5927778,-79.8958431,364.155406891,0.396899993992,0.0,0.0,0.0,0.396899993992,0.0,0.0,0.0,1.58759997597,1,462.49101902376697,268.78331026620367,364.13298649817887,-2.729727010748867,-15.272578736752399,-0.7242525927561649,0,Fixed-Wing
1970-01-01 00:00:28.785616928,1432,1539875285375961224,base_link,0,1,40.5927251,-79.8958587,363.755412759,0.396899993992,0.0,0.0,0.0,0.396899993992,0.0,0.0,0.0,1.58759997597,1,461.1707232962748,262.93075044317726,363.7333323604132,-3.3013170492140627,-14.633960500653641,-0.9993102237032763,0,Fixed-Wing
1970-01-01 00:00:29.215230336,1434,1539875285805888680,base_link,0,1,40.5926736,-79.895875,363.325417424,0.396899993992,0.0,0.0,0.0,0.396899993992,0.0,0.0,0.0,1.58759997597,1,459.7911562077957,257.21144963588296,363.3036702435876,-3.4495213874404618,-14.30075465029956,-1.0743433021419377,0,Fixed-Wing
1970-01-01 00:00:29.628439200,1436,1539875286219093448,base_link,0,1,40.5926231,-79.8958914,362.825421582,0.396899993992,0.0,0.0,0.0,0.396899993992,0.0,0.0,0.0,1.58759997597,1,458.40310974697195,251.6031989964875,362.8039984017192,-3.470723528676951,-14.023080637600241,-1.2493982493646523,0,Fixed-Wing
1970-01-01 00:00:30.009545152,1438,1539875286600021192,base_link,0,1,40.5925731,-79.8959069,362.275426467,0.396899993992,0.0,0.0,0.0,0.396899993992,0.0,0.0,0.0,1.58759997597,1,457.0912447702216,246.050478465577,362.25431444323954,-3.2802364832604987,-13.884231067713113,-1.3744504250234981,0,Fixed-Wing
1970-01-01 00:00:30.457396704,1440,1539875287047641544,base_link,0,1,40.5925229,-79.895921,361.755432881,0.396899993992,0.0,0.0,0.0,0.396899993992,0.0,0.0,0.0,1.58759997597,1,455.8978999486377,240.4755570824479,361.73461927835274,-2.9838842337005924,-13.939742912832482,-1.2994653186477583,0,Fixed-Wing
1970-01-01 00:00:30.815435616,1442,1539875287406109992,base_link,0,1,40.5924722,-79.8959336,361.245441052,0.396899993992,0.0,0.0,0.0,0.396899993992,0.0,0.0,0.0,1.58759997597,1,454.8315417046893,234.8451187965341,361.22491377270615,-2.666362223260071,-14.078559462690428,-1.274486799306362,0,Fixed-Wing
1970-01-01 00:00:31.216117120,1444,1539875287805949096,base_link,0,1,40.5924207,-79.8959439,360.565451925,0.396899993992,0.0,0.0,0.0,0.396899993992,0.0,0.0,0.0,1.58759997597,1,453.9598843852574,229.1258454772708,360.5451951724834,-2.1795247154049555,-14.30068591819399,-1.6995939294945877,0,Fixed-Wing
1970-01-01 00:00:31.625877184,1446,1539875288216454376,base_link,0,1,40.5923676,-79.8959521,359.925465629,0.396899993992,0.0,0.0,0.0,0.396899993992,0.0,0.0,0.0,1.58759997597,1,453.26601748916875,223.22890203756322,359.90546776592345,-1.734970860122147,-14.744938963587552,-1.5995984461278916,0,Fixed-Wing
1970-01-01 00:00:32.028636992,1448,1539875288619023048,base_link,0,1,40.5923135,-79.8959585,359.545481608,0.396899993992,0.0,0.0,0.0,0.396899993992,0.0,0.0,0.0,1.58759997597,1,452.7245559996321,217.22092572324726,359.5257300873765,-1.3538906547061482,-15.022569735493596,-0.9495103606805534,0,Fixed-Wing
1970-01-01 00:00:32.411908032,1450,1539875288998473896,base_link,0,1,40.5922581,-79.8959632,359.395499887,0.396899993992,0.0,0.0,0.0,0.396899993992,0.0,0.0,0.0,1.58759997597,1,452.327034436677,211.06859858826152,359.3759835870396,-0.9939778535120938,-15.383509951705896,-0.3744317764029858,0,Fixed-Wing
1970-01-01 00:00:32.817828800,1452,1539875289408351432,base_link,0,1,40.5922021,-79.8959657,359.205520686,0.396899993992,0.0,0.0,0.0,0.396899993992,0.0,0.0,0.0,1.58759997597,1,452.1157574367993,204.849650447623,359.18622260042775,-0.5282849495604863,-15.550091617629413,-0.4744855014924432,0,Fixed-Wing
1970-01-01 00:00:33.219306656,1454,1539875289809904008,base_link,0,1,40.5921457,-79.8959671,359.085542795,0.396899993992,0.0,0.0,0.0,0.396899993992,0.0,0.0,0.0,1.58759997597,1,451.9976098138769,198.5862896552907,359.06645163587234,-0.29542075593823675,-15.661142680799871,-0.29947982035709786,0,Fixed-Wing
1970-01-01 00:00:33.585997280,1456,1539875290176440392,base_link,0,1,40.592089,-79.8959677,359.125565866,0.396899993992,0.0,0.0,0.0,0.396899993992,0.0,0.0,0.0,1.58759997597,1,451.9472005352183,192.28962241252418,359.10667167793633,-0.12604525456606325,-15.74442338100797,0.10056770450827114,0,Fixed-Wing
1970-01-01 00:00:33.975957088,1458,1539875290566459464,base_link,0,1,40.5920322,-79.895968,359.305589303,0.396899993992,0.0,0.0,0.0,0.396899993992,0.0,0.0,0.0,1.58759997597,1,451.92219871960094,185.98185555532186,359.28688438445505,-0.06251547925230004,-15.772177274028765,0.45061062315584344,0,Fixed-Wing
1970-01-01 00:00:34.407299808,1460,1539875290997728008,base_link,0,1,40.5919753,-79.8959678,359.45561331,0.396899993992,0.0,0.0,0.0,0.396899993992,0.0,0.0,0.0,1.58759997597,1,451.93952373603275,179.66298489167733,359.4370887252201,0.04332012210089752,-15.799941648899887,0.3755765778137967,0,Fixed-Wing
1970-01-01 00:00:34.807061184,1462,1539875291397642024,base_link,0,1,40.5919179,-79.8959675,359.465637645,0.396899993992,0.0,0.0,0.0,0.396899993992,0.0,0.0,0.0,1.58759997597,1,451.965307912882,173.28858454034224,359.44728803216657,0.06447172467492464,-15.938790166616865,0.025502730343927676,0,Fixed-Wing
1970-01-01 00:00:35.209543744,1464,1539875291800001992,base_link,0,1,40.5918601,-79.8959668,359.365662575,0.396899993992,0.0,0.0,0.0,0.396899993992,0.0,0.0,0.0,1.58759997597,1,452.0249497601162,166.86976248128212,359.3474803185844,0.14913071596083802,-16.04986387382822,-0.24956295747293725,0,Fixed-Wing
1970-01-01 00:00:35.608123040,1466,1539875292198730600,base_link,0,1,40.5918013,-79.8959661,359.235687941,0.396899993992,0.0,0.0,0.0,0.396899993992,0.0,0.0,0.0,1.58759997597,1,452.0845963198173,160.33988763634062,359.21766936245115,0.14914249919009162,-16.327544432629466,-0.32458419256687276,0,Fixed-Wing
1970-01-01 00:00:35.954694208,1468,1539875292545390792,base_link,0,1,40.5917423,-79.895966,359.175712792,0.396899993992,0.0,0.0,0.0,0.396899993992,0.0,0.0,0.0,1.58759997597,1,452.0934551166993,153.78780127646388,359.15785532058226,0.022150868607029483,-16.383082939206208,-0.14956127789585663,0,Fixed-Wing
1970-01-01 00:00:36.407768256,1470,1539875292998203912,base_link,0,1,40.5916833,-79.8959664,359.325737149,0.396899993992,0.0,0.0,0.0,0.396899993992,0.0,0.0,0.0,1.58759997597,1,452.0600002841311,147.23571740106513,359.30803703491824,-0.08365172047164479,-16.383076726924088,0.3755200018402866,0,Fixed-Wing
1970-01-01 00:00:36.824766752,1472,1539875293415265864,base_link,0,1,40.5916246,-79.895966,359.685762217,0.396899993992,0.0,0.0,0.0,0.396899993992,0.0,0.0,0.0,1.58759997597,1,452.09428390737486,140.71695772311128,359.6682071823792,0.08572405981988401,-16.29975165142363,0.9005829706722742,0,Fixed-Wing
1970-01-01 00:00:37.194684544,1474,1539875293785297128,base_link,0,1,40.5915662,-79.8959654,360.115787382,0.396899993992,0.0,0.0,0.0,0.396899993992,0.0,0.0,0.0,1.58759997597,1,452.14550196305794,134.23151557015962,360.09836884653026,0.12806755102912987,-16.21644325994965,1.0755923890457273,0,Fixed-Wing
1970-01-01 00:00:37.579927968,1476,1539875294170455272,base_link,0,1,40.5915085,-79.8959656,360.725811448,0.396899993992,0.0,0.0,0.0,0.396899993992,0.0,0.0,0.0,1.58759997597,1,452.1290023350486,127.82380873285383,360.7085260339935,-0.041256289874082724,-16.0220709556817,1.5256599591509616,0,Fixed-Wing
1970-01-01 00:00:37.975485152,1478,1539875294566134952,base_link,0,1,40.591451,-79.8959661,361.265835139,0.396899993992,0.0,0.0,0.0,0.396899993992,0.0,0.0,0.0,1.58759997597,1,452.08709917376694,121.43830832030703,361.2486777674658,-0.1047762390459643,-15.966545176772945,1.3506156914266776,0,Fixed-Wing
1970-01-01 00:00:38.433056672,1480,1539875295023781032,base_link,0,1,40.5913936,-79.8959668,361.375858599,0.396899993992,0.0,0.0,0.0,0.396899993992,0.0,0.0,0.0,1.58759997597,1,452.02823334475454,115.06390331897128,361.35882386092936,-0.14719033083890792,-15.938801793653251,0.27541343100938626,0,Fixed-Wing
1970-01-01 00:00:38.772877152,1482,1539875295363375464,base_link,0,1,40.591336,-79.8959696,361.275880005,0.396899993992,0.0,0.0,0.0,0.396899993992,0.0,0.0,0.0,1.58759997597,1,451.79157319240306,108.66727333136961,361.25897446945964,-0.591753937817808,-15.994373984451455,-0.24966717042911968,0,Fixed-Wing
1970-01-01 00:00:39.201802912,1484,1539875295792546792,base_link,0,1,40.5912786,-79.8959769,361.055896724,0.396899993992,0.0,0.0,0.0,0.396899993992,0.0,0.0,0.0,1.58759997597,1,451.17394384202566,102.29282908665533,361.0391405146213,-1.5443436360798117,-15.938899919271579,-0.5496810812851002,0,Fixed-Wing
1970-01-01 00:00:39.589907424,1486,1539875296180359080,base_link,0,1,40.5912214,-79.8959903,360.735907114,0.396899993992,0.0,0.0,0.0,0.396899993992,0.0,0.0,0.0,1.58759997597,1,450.03989361431303,95.9405631596957,360.7193298570215,-2.835621803097129,-15.883444420172609,-0.799666585652031,0,Fixed-Wing
1970-01-01 00:00:40.018796128,1488,1539875296608887912,base_link,0,1,40.5911649,-79.8960094,360.165911373,0.396899993992,0.0,0.0,0.0,0.396899993992,0.0,0.0,0.0,1.58759997597,1,448.4232705345399,89.66600215466707,360.14953932644835,-4.042265095824641,-15.689148113491436,-1.424725653422173,0,Fixed-Wing
1970-01-01 00:00:40.420082240,1490,1539875297010552360,base_link,0,1,40.5911112,-79.8960372,359.715905533,0.396899993992,0.0,0.0,0.0,0.396899993992,0.0,0.0,0.0,1.58759997597,1,446.0701124194598,83.70234656673037,359.6997794963148,-5.883924974570744,-14.911748525833769,-1.124596379700273,0,Fixed-Wing
1970-01-01 00:00:40.817774496,1492,1539875297407469832,base_link,0,1,40.591063,-79.8960751,360.005887013,0.396899993992,0.0,0.0,0.0,0.396899993992,0.0,0.0,0.0,1.58759997597,1,442.86192206521946,78.34943844098561,359.9900523790593,-8.021879714550906,-13.384612621570678,0.7258092234753305,0,Fixed-Wing
1970-01-01 00:00:41.180080352,1494,1539875297768944488,base_link,0,1,40.591021,-79.8961207,360.665857976,0.396899993992,0.0,0.0,0.0,0.396899993992,0.0,0.0,0.0,1.58759997597,1,439.0018460823754,73.68502137848037,360.650345529048,-9.651879035941489,-11.663083695909876,1.6510218037874569,0,Fixed-Wing
1970-01-01 00:00:41.614959744,1496,1539875298204781320,base_link,0,1,40.5909851,-79.8961714,361.365821131,0.396899993992,0.0,0.0,0.0,0.396899993992,0.0,0.0,0.0,1.58759997597,1,434.7099722451872,69.69799976180181,361.3506471364671,-10.731562616428318,-9.969298668963471,1.7510604541271677,0,Fixed-Wing
1970-01-01 00:00:42.026466016,1498,1539875298617195432,base_link,0,1,40.5909557,-79.8962259,362.135777643,0.462400009727,0.0,0.0,0.0,0.462400009727,0.0,0.0,0.0,1.84960003891,1,430.09635562537795,66.43280206616527,362.12095089656805,-11.53606036008614,-8.164423013118657,1.9260964671341088,0,Fixed-Wing
1970-01-01 00:00:42.383316032,1500,1539875298971923752,base_link,0,1,40.5909314,-79.8962826,362.675729743,0.462400009727,0.0,0.0,0.0,0.462400009727,0.0,0.0,0.0,1.84960003891,1,425.29643858762466,63.73396047023655,362.66125199472106,-12.00189292564521,-6.748284939686226,1.350989168487007,0,Fixed-Wing
1970-01-01 00:00:42.792768416,1502,1539875299383189768,base_link,0,1,40.5909112,-79.8963413,362.84567806,0.462400009727,0.0,0.0,0.0,0.462400009727,0.0,0.0,0.0,1.84960003891,1,420.32715115069044,61.490423022244244,362.8315513223017,-12.425393036116878,-5.609825339415172,0.42582283794830295,0,Fixed-Wing
1970-01-01 00:00:43.215635008,1504,1539875299805930920,base_link,0,1,40.5908954,-79.8964014,362.705623083,0.462400009727,0.0,0.0,0.0,0.462400009727,0.0,0.0,0.0,1.84960003891,1,415.2392917996886,59.73550957619702,362.6918458364083,-12.721874705578074,-4.388051524134789,-0.34932484658176155,0,Fixed-Wing
1970-01-01 00:00:43.571085152,1506,1539875300161585032,base_link,0,1,40.5908835,-79.8964622,362.485565743,0.396899993992,0.0,0.0,0.0,0.396899993992,0.0,0.0,0.0,1.58759997597,1,410.0921406632506,58.413699801669964,362.47213329926103,-12.870130113864992,-3.305102829312765,-0.5493774839278005,0,Fixed-Wing
1970-01-01 00:00:44.015904512,1508,1539875300606475368,base_link,0,1,40.590876,-79.8965236,362.335505929,0.396899993992,0.0,0.0,0.0,0.396899993992,0.0,0.0,0.0,1.58759997597,1,404.89417110841487,57.58052180624196,362.322412682861,-12.997198396808713,-2.083309567744361,-0.37436705523474545,0,Fixed-Wing
1970-01-01 00:00:44.418192480,1510,1539875301003219048,base_link,0,1,40.5908717,-79.8965852,362.095444561,0.396899993992,0.0,0.0,0.0,0.396899993992,0.0,0.0,0.0,1.58759997597,1,399.6792443337445,57.10271321384002,362.0826840554819,-13.039598866477498,-1.1947305588526547,-0.5994264680797199,0,Fixed-Wing
1970-01-01 00:00:44.786872992,1512,1539875301377390376,base_link,0,1,40.5908698,-79.8966469,361.975382081,0.396899993992,0.0,0.0,0.0,0.396899993992,0.0,0.0,0.0,1.58759997597,1,394.4558447850165,56.891434508128185,361.9629481677201,-13.060784509109157,-0.5282892148921909,-0.29939211302415153,0,Fixed-Wing
1970-01-01 00:00:45.182640160,1514,1539875301772969544,base_link,0,1,40.590869,-79.8967089,361.925318834,0.396899993992,0.0,0.0,0.0,0.396899993992,0.0,0.0,0.0,1.58759997597,1,389.20704559917374,56.802316324413994,361.9132076936124,-13.124294716182222,-0.22283445531515877,-0.12437295053571946,0,Fixed-Wing
1970-01-01 00:00:45.586899680,1516,1539875302177163016,base_link,0,1,40.5908684,-79.8967711,362.095255303,0.396899993992,0.0,0.0,0.0,0.396899993992,0.0,0.0,0.0,1.58759997597,1,383.94132683454285,56.73541339272637,362.08346344125357,-13.166601066763908,-0.16728660437482049,0.42571386903006164,0,Fixed-Wing
1970-01-01 00:00:46.024884384,1518,1539875302615295528,base_link,0,1,40.5908686,-79.8968334,362.605191339,0.396899993992,0.0,0.0,0.0,0.396899993992,0.0,0.0,0.0,1.58759997597,1,378.6671575293403,56.75735864493913,362.5937141230062,-13.187731115951733,0.054872733260219714,1.275849978127695,0,Fixed-Wing
1970-01-01 00:00:46.428735776,1520,1539875303019022312,base_link,0,1,40.5908692,-79.8968955,363.045127416,0.396899993992,0.0,0.0,0.0,0.396899993992,0.0,0.0,0.0,1.58759997597,1,373.40991271488554,56.82372879166499,363.033959105455,-13.145412483321422,0.16595440883619397,1.100805097013985,0,Fixed-Wing
1970-01-01 00:00:46.835838400,1522,1539875303426434696,base_link,0,1,40.5908701,-79.896957,363.325063989,0.396899993992,0.0,0.0,0.0,0.396899993992,0.0,0.0,0.0,1.58759997597,1,368.20345125982783,56.92341943875098,363.3141970283331,-13.018431863220329,0.24927024000698278,0.7007174327460888,0,Fixed-Wing
1970-01-01 00:00:47.256334208,1524,1539875303846637160,base_link,0,1,40.5908713,-79.8970184,363.415000543,0.396899993992,0.0,0.0,0.0,0.396899993992,0.0,0.0,0.0,1.58759997597,1,363.0054428781569,57.056428145975985,363.4044299101877,-12.997295480886518,0.3325799695571784,0.22562168843184316,0,Fixed-Wing
1970-01-01 00:00:47.620930176,1526,1539875304211146024,base_link,0,1,40.5908725,-79.89708,363.364936899,0.396899993992,0.0,0.0,0.0,0.396899993992,0.0,0.0,0.0,1.58759997597,1,357.7904950738406,57.189438409647636,363.354659309632,-13.039651449794453,0.332583861354863,-0.12444827983819486,0,Fixed-Wing
1970-01-01 00:00:48.016603520,1528,1539875304603617768,base_link,0,1,40.5908738,-79.8971421,363.204872708,0.396899993992,0.0,0.0,0.0,0.396899993992,0.0,0.0,0.0,1.58759997597,1,352.53321189648733,57.33355456121157,363.19488613696467,-13.145508407354432,0.36035344076197107,-0.3995028446661031,0,Fixed-Wing
1970-01-01 00:00:48.380327648,1530,1539875304970986920,base_link,0,1,40.5908748,-79.8972047,362.904808137,0.396899993992,0.0,0.0,0.0,0.396899993992,0.0,0.0,0.0,1.58759997597,1,347.2335940844267,57.444355474435554,362.8951108580386,-13.251363518767292,0.27705076694417247,-0.7495693719552498,0,Fixed-Wing
1970-01-01 00:00:48.817398592,1532,1539875305407798888,base_link,0,1,40.5908751,-79.8972676,362.454743561,0.396899993992,0.0,0.0,0.0,0.396899993992,0.0,0.0,0.0,1.58759997597,1,341.9085750398402,57.47742098742256,362.4453332366591,-13.314877715066523,0.08267825116147352,-1.124640865600221,0,Fixed-Wing
1970-01-01 00:00:49.210878464,1534,1539875305801502376,base_link,0,1,40.5908751,-79.897331,361.964678607,0.396899993992,0.0,0.0,0.0,0.396899993992,0.0,0.0,0.0,1.58759997597,1,336.541227156416,57.477172330694486,361.9555533284027,-13.420718334268859,-0.0006217506265484023,-1.2246640868562582,0,Fixed-Wing
1970-01-01 00:00:49.587823264,1536,1539875306178404744,base_link,0,1,40.5908754,-79.8973947,361.594613225,0.396899993992,0.0,0.0,0.0,0.396899993992,0.0,0.0,0.0,1.58759997597,1,331.1484874167049,57.51024319049807,361.58576949789244,-13.484209085867892,0.08269162054256227,-0.9246213850179873,0,Fixed-Wing
1970-01-01 00:00:49.988091168,1538,1539875306578496296,base_link,0,1,40.5908759,-79.8974587,361.294547459,0.396899993992,0.0,0.0,0.0,0.396899993992,0.0,0.0,0.0,1.58759997597,1,325.7303535312276,57.56552793231745,361.2859818234357,-13.547705562166602,0.13823604585646942,-0.7496003662059662,0,Fixed-Wing
1970-01-01 00:00:50.412839488,1540,1539875307003474568,base_link,0,1,40.5908754,-79.8975224,361.114482429,0.396899993992,0.0,0.0,0.0,0.396899993992,0.0,0.0,0.0,1.58759997597,1,320.3376284414015,57.50976647455016,361.10619002133154,-13.484172454744867,-0.13942804432598044,-0.4495581779415104,0,Fixed-Wing
1970-01-01 00:00:50.807129888,1542,1539875307397736616,base_link,0,1,40.5908749,-79.8975859,361.14441761,0.396899993992,0.0,0.0,0.0,0.396899993992,0.0,0.0,0.0,1.58759997597,1,314.9618455416159,57.45401153045216,361.13639304028607,-13.441809566138016,-0.1394117573025237,0.0755207635199247,0,Fixed-Wing
1970-01-01 00:00:51.204321600,1544,1539875307794968648,base_link,0,1,40.5908743,-79.8976487,361.274353558,0.396899993992,0.0,0.0,0.0,0.396899993992,0.0,0.0,0.0,1.58759997597,1,309.64532846243105,57.387158596112755,361.2665895295716,-13.293619081301348,-0.16716158912661822,0.32554819414782105,0,Fixed-Wing
1970-01-01 00:00:51.624500160,1546,1539875308214782216,base_link,0,1,40.5908734,-79.8977104,361.294290764,0.396899993992,0.0,0.0,0.0,0.396899993992,0.0,0.0,0.0,1.58759997597,1,304.42193106050433,57.28699656753412,361.2867787134302,-13.060779141166499,-0.25044890000409403,0.05048179396038456,0,Fixed-Wing
1970-01-01 00:00:51.999510752,1548,1539875308589572072,base_link,0,1,40.5908724,-79.8977713,361.234228838,0.396899993992,0.0,0.0,0.0,0.396899993992,0.0,0.0,0.0,1.58759997597,1,299.2662566349865,57.17573496499162,361.2269614203869,-12.891442066156117,-0.2782026918273158,-0.1495694072545075,0,Fixed-Wing
1970-01-01 00:00:52.398858848,1550,1539875308989334952,base_link,0,1,40.5908714,-79.8978319,361.154167226,0.396899993992,0.0,0.0,0.0,0.396899993992,0.0,0.0,0.0,1.58759997597,1,294.1359786514787,57.06447775373948,361.14713910692615,-12.827939848243002,-0.27819171167988826,-0.1995907120264504,0,Fixed-Wing
1970-01-01 00:00:52.842608096,1552,1539875309432894856,base_link,0,1,40.5908708,-79.8978924,361.074105553,0.396899993992,0.0,0.0,0.0,0.396899993992,0.0,0.0,0.0,1.58759997597,1,289.0141647266379,56.99764532753366,361.067311831196,-12.806775997901653,-0.16711030981876987,-0.19960311987139615,0,Fixed-Wing
1970-01-01 00:00:53.199879680,1554,1539875309790411080,base_link,0,1,40.5908699,-79.8979526,361.044044319,0.396899993992,0.0,0.0,0.0,0.396899993992,0.0,0.0,0.0,1.58759997597,1,283.9177517501517,56.89750214433286,361.0374800539922,-12.743262512155107,-0.2504017783132036,-0.07459249669630565,0,Fixed-Wing
1970-01-01 00:00:53.628656832,1556,1539875310219303176,base_link,0,1,40.5908684,-79.8980132,360.863982935,0.396899993992,0.0,0.0,0.0,0.396899993992,0.0,0.0,0.0,1.58759997597,1,278.78747140303744,56.73072845646149,360.8576461325691,-12.827945758293328,-0.41700719593771335,-0.44966349466945027,0,Fixed-Wing
1970-01-01 00:00:54.060221248,1558,1539875310650300104,base_link,0,1,40.5908667,-79.8980746,360.593920823,0.435600034618,0.0,0.0,0.0,0.435600034618,0.0,0.0,0.0,1.74240013847,1,273.58946162394165,56.541744561589695,360.58781045716387,-12.997298975060131,-0.4725424321051098,-0.6747072622839103,0,Fixed-Wing
1970-01-01 00:00:54.399731776,1560,1539875310988916584,base_link,0,1,40.590866,-79.8981363,360.633857989,0.396899993992,0.0,0.0,0.0,0.396899993992,0.0,0.0,0.0,1.58759997597,1,268.3660636288762,56.46381844108092,360.627969905686,-13.060780624272883,-0.19484939991692993,0.10041619413923426,0,Fixed-Wing
1970-01-01 00:00:54.790207392,1562,1539875311380771368,base_link,0,1,40.5908656,-79.8981976,360.693795444,0.396899993992,0.0,0.0,0.0,0.396899993992,0.0,0.0,0.0,1.58759997597,1,263.1765283345507,56.419213043272066,360.68812368190015,-12.97610905489831,-0.11153301279936845,0.1504107624188704,0,Fixed-Wing
1970-01-01 00:00:55.235194656,1564,1539875311825829544,base_link,0,1,40.5908654,-79.8982585,360.68373323,0.435600034618,0.0,0.0,0.0,0.435600034618,0.0,0.0,0.0,1.74240013847,1,258.02085251050465,56.39682227023272,360.6782720061045,-12.891445563088682,-0.055986730276167775,-0.024633500351637534,0,Fixed-Wing
1970-01-01 00:00:55.622340096,1566,1539875312212516136,base_link,0,1,40.5908655,-79.8983193,360.893670998,0.396899993992,0.0,0.0,0.0,0.396899993992,0.0,0.0,0.0,1.58759997597,1,252.8736500583799,56.407752990548744,360.88841552101326,-12.870258425536367,0.027331583817232014,0.5254507411515428,0,Fixed-Wing
1970-01-01 00:00:56.006681952,1568,1539875312596553672,base_link,0,1,40.5908655,-79.8983798,361.353609121,0.435600034618,0.0,0.0,0.0,0.435600034618,0.0,0.0,0.0,1.74240013847,1,247.75185476848236,56.40758509498173,361.3485543571845,-12.806729402389253,-0.0004198123847104242,1.1505484364045406,0,Fixed-Wing
1970-01-01 00:00:56.411588128,1570,1539875313002078088,base_link,0,1,40.5908656,-79.8984404,361.763547107,0.396899993992,0.0,0.0,0.0,0.396899993992,0.0,0.0,0.0,1.58759997597,1,242.62159067321318,56.41852523120468,361.75868917111376,-12.827905121569232,0.027355127704738823,1.0255165002106186,0,Fixed-Wing
1970-01-01 00:00:56.782667648,1572,1539875313373170920,base_link,0,1,40.5908656,-79.8985011,361.913485038,0.396899993992,0.0,0.0,0.0,0.396899993992,0.0,0.0,0.0,1.58759997597,1,237.4828508124162,56.418361092041124,361.90882022414496,-12.849098244185203,-0.0004104197323499855,0.3753933264101281,0,Fixed-Wing
1970-01-01 00:00:57.213601152,1574,1539875313804182184,base_link,0,1,40.5908651,-79.8985618,361.823423186,0.435600034618,0.0,0.0,0.0,0.435600034618,0.0,0.0,0.0,1.74240013847,1,232.34410371171217,56.36267220432694,361.81894785305883,-12.849116347120804,-0.1392465874382592,-0.22472025375973406,0,Fixed-Wing
1970-01-01 00:00:57.630597760,1576,1539875314221062120,base_link,0,1,40.5908641,-79.898623,361.603361039,0.396899993992,0.0,0.0,0.0,0.396899993992,0.0,0.0,0.0,1.58759997597,1,227.16302470648864,56.25145826121502,361.59907304695525,-12.954964631869386,-0.2780835223962202,-0.5497832273237211,0,Fixed-Wing
1970-01-01 00:00:58.008381056,1578,1539875314597286792,base_link,0,1,40.5908637,-79.898685,361.433297828,0.396899993992,0.0,0.0,0.0,0.396899993992,0.0,0.0,0.0,1.58759997597,1,221.91421919631108,56.20687774123502,361.42919473784355,-13.124310529786616,-0.11147080734128975,-0.4247701075480942,0,Fixed-Wing
1970-01-01 00:00:58.404968512,1580,1539875314995681224,base_link,0,1,40.5908636,-79.8987472,361.393234293,0.396899993992,0.0,0.0,0.0,0.396899993992,0.0,0.0,0.0,1.58759997597,1,216.64848572698384,56.19561726889461,361.38931207292825,-13.166637834939225,-0.028156108169955712,-0.09972411400819287,0,Fixed-Wing
1970-01-01 00:00:58.800115424,1582,1539875315388003816,base_link,0,1,40.5908642,-79.8988093,361.543170572,0.396899993992,0.0,0.0,0.0,0.396899993992,0.0,0.0,0.0,1.58759997597,1,211.39122220087577,56.262099056181086,361.5394239138842,-13.145459270642517,0.16623355908903398,0.3753452878152629,0,Fixed-Wing
1970-01-01 00:00:59.186129696,1584,1539875315776501896,base_link,0,1,40.5908655,-79.898871,361.813106973,0.396899993992,0.0,0.0,0.0,0.396899993992,0.0,0.0,0.0,1.58759997597,1,206.16782347542926,56.40632317962417,361.80952976609024,-13.060782450545132,0.36062341770580103,0.6753828225090124,0,Fixed-Wing
1970-01-01 00:00:59.629507264,1586,1539875316214797448,base_link,0,1,40.5908661,-79.8989319,361.943044491,0.396899993992,0.0,0.0,0.0,0.396899993992,0.0,0.0,0.0,1.58759997597,1,201.01214866839868,56.47281492880913,361.93963102119744,-12.891443020104965,0.16625846819433937,0.32531006702974585,0,Fixed-Wing
1970-01-01 00:01:00.031280000,1588,1539875316621810824,base_link,0,1,40.5908654,-79.8989929,362.212982461,0.396899993992,0.0,0.0,0.0,0.396899993992,0.0,0.0,0.0,1.58759997597,1,195.8480160197053,56.39494323855433,362.20973010555963,-12.912591325215333,-0.19471330046457022,0.6753658999379558,0,Fixed-Wing
1970-01-01 00:01:00.394073280,1590,1539875316982245928,base_link,0,1,40.5908648,-79.899054,362.362920292,0.396899993992,0.0,0.0,0.0,0.396899993992,0.0,0.0,0.0,1.58759997597,1,190.67541315062985,56.32817907501368,362.35982502908405,-12.933770582540598,-0.16693962328570988,0.3753029868337476,0,Fixed-Wing
1970-01-01 00:01:00.808145856,1592,1539875317398744264,base_link,0,1,40.5908647,-79.899115,362.342858021,0.396899993992,0.0,0.0,0.0,0.396899993992,0.0,0.0,0.0,1.58759997597,1,185.51126943807247,56.316943369553485,362.3399149266631,-12.91261898971664,-0.028094180132009018,-0.049783968246856596,0,Fixed-Wing
1970-01-01 00:01:01.203103200,1594,1539875317793591880,base_link,0,1,40.5908647,-79.8991763,362.052795409,0.396899993992,0.0,0.0,0.0,0.396899993992,0.0,0.0,0.0,1.58759997597,1,180.3217204233921,56.3168134700602,362.0500009261866,-12.976143361789266,-0.00032480557419578787,-0.7249118607668136,0,Fixed-Wing
1970-01-01 00:01:01.614907744,1596,1539875318205608776,base_link,0,1,40.590865,-79.8992377,361.732732574,0.396899993992,0.0,0.0,0.0,0.396899993992,0.0,0.0,0.0,1.58759997597,1,175.12370446679392,56.35000241530699,361.73008242273147,-12.997314421519189,0.08298688582199872,-0.7999362474811641,0,Fixed-Wing
1970-01-01 00:01:02.010994208,1598,1539875318601151816,base_link,0,1,40.5908644,-79.8992998,361.782669409,0.396899993992,0.0,0.0,0.0,0.396899993992,0.0,0.0,0.0,1.58759997597,1,169.86644054184652,56.2832498208642,361.7801618202892,-13.145460267915409,-0.16691069547868218,0.1252204074656516,0,Fixed-Wing
1970-01-01 00:01:02.366198048,1600,1539875318956800456,base_link,0,1,40.5908623,-79.8993621,361.992606677,0.396899993992,0.0,0.0,0.0,0.396899993992,0.0,0.0,0.0,1.58759997597,1,164.59225262395387,56.04992348318234,361.99023922869304,-13.187777655821385,-0.5834179423445585,0.5252854459626272,0,Fixed-Wing
1970-01-01 00:01:02.795960672,1602,1539875319386400584,base_link,0,1,40.5908612,-79.8994246,361.722543326,0.396899993992,0.0,0.0,0.0,0.396899993992,0.0,0.0,0.0,1.58759997597,1,159.30111806810916,55.92764860932462,361.7203111017996,-13.230151666153343,-0.30574068926492015,-0.6749384314590874,0,Fixed-Wing
1970-01-01 00:01:03.213281728,1604,1539875319803184520,base_link,0,1,40.5908602,-79.8994864,361.342480655,0.396899993992,0.0,0.0,0.0,0.396899993992,0.0,0.0,0.0,1.58759997597,1,154.0692415608052,55.81648299303541,361.3403777431995,-13.081980614867481,-0.27796268419276665,-0.9499996464384082,0,Fixed-Wing
1970-01-01 00:01:03.607705984,1606,1539875320197380904,base_link,0,1,40.5908591,-79.8995485,361.012417726,0.396899993992,0.0,0.0,0.0,0.396899993992,0.0,0.0,0.0,1.58759997597,1,148.81196948283724,55.694215762175276,361.0104405285731,-13.145480654034378,-0.3057215784265542,-0.8249874093626327,0,Fixed-Wing
1970-01-01 00:01:03.987706752,1608,1539875320578132296,base_link,0,1,40.5908583,-79.8996107,360.882354575,0.396899993992,0.0,0.0,0.0,0.396899993992,0.0,0.0,0.0,1.58759997597,1,143.54623582156316,55.60526952581034,360.8804986620029,-13.166638314890314,-0.22240451170188014,-0.3249115259425913,0,Fixed-Wing
1970-01-01 00:01:04.411286944,1610,1539875321001751912,base_link,0,1,40.5908587,-79.8996725,361.172291334,0.396899993992,0.0,0.0,0.0,0.396899993992,0.0,0.0,0.0,1.58759997597,1,138.31437210233562,55.64959407986865,361.1705504654493,-13.081948639080672,0.1108307805323591,0.725256428491064,0,Fixed-Wing
1970-01-01 00:01:04.786870688,1612,1539875321377541160,base_link,0,1,40.5908593,-79.899734,361.462228323,0.396899993992,0.0,0.0,0.0,0.396899993992,0.0,0.0,0.0,1.58759997597,1,133.10790499800908,55.7161332264761,361.4605974902453,-13.018445988864423,0.16637698249057048,0.7252444797738791,0,Fixed-Wing
1970-01-01 00:01:05.216597408,1614,1539875321806437160,base_link,0,1,40.5908597,-79.899795,361.902165912,0.396899993992,0.0,0.0,0.0,0.396899993992,0.0,0.0,0.0,1.58759997597,1,127.94376994349372,55.76046759212903,361.9006402170317,-12.912597340823034,0.11085531381224055,1.1002993693557128,0,Fixed-Wing
1970-01-01 00:01:05.639802144,1616,1539875322230322248,base_link,0,1,40.5908591,-79.8998558,362.312104131,0.396899993992,0.0,0.0,0.0,0.396899993992,0.0,0.0,0.0,1.58759997597,1,122.7965671099011,55.693753225171605,362.3106800448674,-12.870259379372929,-0.1668151100378248,1.0252789934131057,0,Fixed-Wing
1970-01-01 00:01:06.036712224,1618,1539875322625102216,base_link,0,1,40.5908584,-79.8999172,362.632041786,0.396899993992,0.0,0.0,0.0,0.396899993992,0.0,0.0,0.0,1.58759997597,1,117.59856718102108,55.615935581345354,362.63071619573276,-12.997274345210469,-0.19457816074375656,0.8002304174864318,0,Fixed-Wing
1970-01-01 00:01:06.402740096,1620,1539875322993185288,base_link,0,1,40.5908577,-79.899979,362.441979039,0.396899993992,0.0,0.0,0.0,0.396899993992,0.0,0.0,0.0,1.58759997597,1,112.3666944099262,55.53811659242126,362.44074830559816,-13.081971272709936,-0.19458152407694707,-0.47500285083538735,0,Fixed-Wing
1970-01-01 00:01:06.812679136,1622,1539875323403129576,base_link,0,1,40.5908576,-79.9000415,362.061915333,0.396899993992,0.0,0.0,0.0,0.396899993992,0.0,0.0,0.0,1.58759997597,1,107.07555702961349,55.5269301674179,362.06077558502705,-13.23015872855926,-0.027970957425947268,-0.9500980685897978,0,Fixed-Wing
1970-01-01 00:01:07.205348896,1624,1539875323796078088,base_link,0,1,40.5908598,-79.9001049,361.561849752,0.396899993992,0.0,0.0,0.0,0.396899993992,0.0,0.0,0.0,1.58759997597,1,101.7082225884869,55.771165745340284,361.5607955862711,-13.42068472264293,0.6106958165738546,-1.250168776425671,0,Fixed-Wing
1970-01-01 00:01:07.584664608,1626,1539875324175267400,base_link,0,1,40.5908653,-79.900169,361.311782081,0.396899993992,0.0,0.0,0.0,0.396899993992,0.0,0.0,0.0,1.58759997597,1,96.28162772108183,56.38187922232024,361.3108066351987,-13.56886171931356,1.5270509263619956,-0.6250817669903556,0,Fixed-Wing
1970-01-01 00:01:08.027196736,1628,1539875324617232296,base_link,0,1,40.590874,-79.9002327,361.271713484,0.396899993992,0.0,0.0,0.0,0.396899993992,0.0,0.0,0.0,1.58759997597,1,90.8888960500926,57.347966299253045,361.2708084147679,-13.484188910532431,2.4156404294071674,-0.10001305336131056,0,Fixed-Wing
1970-01-01 00:01:08.412343712,1630,1539875325003058280,base_link,0,1,40.5908857,-79.9002957,361.021644353,0.396899993992,0.0,0.0,0.0,0.396899993992,0.0,0.0,0.0,1.58759997597,1,85.55541984393959,58.64721294975536,361.020801105222,-13.336024319638458,3.2486851461563564,-0.6251276712071583,0,Fixed-Wing
1970-01-01 00:01:08.808853024,1632,1539875325399528520,base_link,0,1,40.5909012,-79.9003577,360.601574659,0.396899993992,0.0,0.0,0.0,0.396899993992,0.0,0.0,0.0,1.58759997597,1,80.3065972570324,60.368461375939575,360.600783458844,-13.124353229083077,4.303874243453149,-1.0502279058285902,0,Fixed-Wing
1970-01-01 00:01:09.249998432,1634,1539875325840065608,base_link,0,1,40.5909223,-79.9004179,360.611504466,0.396899993992,0.0,0.0,0.0,0.396899993992,0.0,0.0,0.0,1.58759997597,1,75.21016096408009,62.7116119065619,360.6107526445658,-12.743320813523129,5.85890163434182,0.024927326586760515,0,Fixed-Wing
1970-01-01 00:01:09.625996672,1636,1539875326215955336,base_link,0,1,40.5909493,-79.9004742,361.061435789,0.396899993992,0.0,0.0,0.0,0.396899993992,0.0,0.0,0.0,1.58759997597,1,70.4438925874619,65.70998218377954,361.06070805093236,-11.91775654894153,7.497237709643302,1.1250854058623794,0,Fixed-Wing
1970-01-01 00:01:10.005361760,1638,1539875326596055944,base_link,0,1,40.5909817,-79.9005254,361.431370065,0.396899993992,0.0,0.0,0.0,0.396899993992,0.0,0.0,0.0,1.58759997597,1,66.10937670569606,69.30804141889791,361.4306504833937,-10.838186387032327,8.996722514235916,0.9250179592962703,0,Fixed-Wing
1970-01-01 00:01:10.385460320,1640,1539875326976106088,base_link,0,1,40.5910198,-79.9005709,361.791307778,0.396899993992,0.0,0.0,0.0,0.396899993992,0.0,0.0,0.0,1.58759997597,1,62.25740911250087,73.53910576866213,361.7905794080234,-9.631604513777889,10.579512289061112,0.8999798080406192,0,Fixed-Wing
1970-01-01 00:01:10.794048256,1642,1539875327384801704,base_link,0,1,40.591061,-79.9006124,362.001248287,0.396899993992,0.0,0.0,0.0,0.396899993992,0.0,0.0,0.0,1.58759997597,1,58.744072736139906,78.1144356666313,362.00049866831057,-8.784878294603976,11.440326802113292,0.5248900064690454,0,Fixed-Wing
1970-01-01 00:01:11.213143168,1644,1539875327803814376,base_link,0,1,40.5911038,-79.9006516,361.771190486,0.396899993992,0.0,0.0,0.0,0.396899993992,0.0,0.0,0.0,1.58759997597,1,55.42544821098422,82.86744700404378,361.7704103994888,-8.298013465245628,11.884608149957462,-0.5753213532912255,0,Fixed-Wing
1970-01-01 00:01:11.614349664,1646,1539875328204959496,base_link,0,1,40.5911492,-79.9006874,361.20113508,0.396899993992,0.0,0.0,0.0,0.396899993992,0.0,0.0,0.0,1.58759997597,1,52.394659596005255,87.90919287260405,361.20031291413875,-7.5782977395518385,12.606570821294401,-1.4254931746807218,0,Fixed-Wing
1970-01-01 00:01:11.983627616,1648,1539875328573957672,base_link,0,1,40.5911981,-79.9007175,360.751084035,0.396899993992,0.0,0.0,0.0,0.396899993992,0.0,0.0,0.0,1.58759997597,1,49.84642256239651,93.33962716176819,360.75020491809187,-6.371707632857607,13.578461953752255,-1.1254669468328993,0,Fixed-Wing
1970-01-01 00:01:12.392023328,1650,1539875328981871432,base_link,0,1,40.5912498,-79.9007427,360.49103683,0.396899993992,0.0,0.0,0.0,0.396899993992,0.0,0.0,0.0,1.58759997597,1,47.71301116898444,99.08101365164856,360.49008719138703,-5.334462014382704,14.355978520942088,-0.6504081381862682,0,Fixed-Wing
1970-01-01 00:01:12.848101792,1652,1539875329438683080,base_link,0,1,40.5913038,-79.9007631,360.400993573,0.396899993992,0.0,0.0,0.0,0.396899993992,0.0,0.0,0.0,1.58759997597,1,45.98595892927143,105.07782593855694,360.3999603939124,-4.318386316887964,14.994654781857776,-0.22535643106199763,0,Fixed-Wing
1970-01-01 00:01:13.176125120,1654,1539875329758754024,base_link,0,1,40.5913596,-79.9007782,360.520954981,0.396899993992,0.0,0.0,0.0,0.396899993992,0.0,0.0,0.0,1.58759997597,1,44.707594218611995,111.27453901128962,360.5198255256337,-3.1964711591014394,15.4944942183199,0.2997152794770818,0,Fixed-Wing
1970-01-01 00:01:13.598652064,1656,1539875330188919912,base_link,0,1,40.5914161,-79.9007879,361.030921613,0.396899993992,0.0,0.0,0.0,0.396899993992,0.0,0.0,0.0,1.58759997597,1,43.88638361502088,117.54899909951229,361.0296850293472,-2.0533858515017926,15.6888957773177,1.2748718618596462,0,Fixed-Wing
1970-01-01 00:01:14.048157728,1658,1539875330638268136,base_link,0,1,40.5914722,-79.9007941,361.870891992,0.396899993992,0.0,0.0,0.0,0.396899993992,0.0,0.0,0.0,1.58759997597,1,43.36147734896617,123.77904754965915,361.8695408471885,-1.3124953518233538,15.57784724863568,2.100007045836228,0,Fixed-Wing
1970-01-01 00:01:14.418333824,1660,1539875331008737256,base_link,0,1,40.5915279,-79.9007995,362.440863367,0.396899993992,0.0,0.0,0.0,0.396899993992,0.0,0.0,0.0,1.58759997597,1,42.904296068756096,129.96467167710614,362.439391972006,-1.143153252344341,15.46676700284296,1.4248771655476948,0,Fixed-Wing
1970-01-01 00:01:14.783753216,1662,1539875331374480264,base_link,0,1,40.5915837,-79.9008036,362.71083604,0.396899993992,0.0,0.0,0.0,0.396899993992,0.0,0.0,0.0,1.58759997597,1,42.55716775356681,136.1613964440981,362.7092373774749,-0.8679726831927779,15.494523459085247,0.6747315917008319,0,Fixed-Wing
1970-01-01 00:01:15.174869376,1664,1539875331765568648,base_link,0,1,40.5916398,-79.9008056,362.780810743,0.396899993992,0.0,0.0,0.0,0.396899993992,0.0,0.0,0.0,1.58759997597,1,42.38781842049962,142.39143405245449,362.77907683673527,-0.42344743596926576,15.577820139415355,0.17462920826239353,0,Fixed-Wing
1970-01-01 00:01:15.621345792,1666,1539875332211908808,base_link,0,1,40.5916967,-79.9008063,362.680786453,0.396899993992,0.0,0.0,0.0,0.396899993992,0.0,0.0,0.0,1.58759997597,1,42.32852189575018,148.71031039932512,362.6789083947654,-0.14826725864386747,15.799955859452,-0.25046493628849126,0,Fixed-Wing
1970-01-01 00:01:16.009597024,1668,1539875332599959336,base_link,0,1,40.5917538,-79.9008062,362.39076291,0.396899993992,0.0,0.0,0.0,0.396899993992,0.0,0.0,0.0,1.58759997597,1,42.336949665093556,155.0513928350728,362.388733434418,0.02107311115289584,15.855480798508903,-0.7255643746341325,0,Fixed-Wing
1970-01-01 00:01:16.376807200,1670,1539875332967369448,base_link,0,1,40.5918119,-79.9008056,362.060739479,0.396899993992,0.0,0.0,0.0,0.396899993992,0.0,0.0,0.0,1.58759997597,1,42.387704969331836,161.50352632835632,362.05854916713923,0.1269104699279363,16.13315703569006,-0.8256051490979744,0,Fixed-Wing
1970-01-01 00:01:16.783936960,1672,1539875333374441384,base_link,0,1,40.5918708,-79.9008037,361.800717057,0.396899993992,0.0,0.0,0.0,0.396899993992,0.0,0.0,0.0,1.58759997597,1,42.548513994956465,168.04450356454083,361.7983562893635,0.40209293032438165,16.355305268883345,-0.6505960487479077,0,Fixed-Wing
1970-01-01 00:01:17.217465856,1674,1539875333808002120,base_link,0,1,40.5919302,-79.9008015,361.63069475,0.396899993992,0.0,0.0,0.0,0.396899993992,0.0,0.0,0.0,1.58759997597,1,42.73472002894789,174.6410091226862,361.6281551031693,0.46559656437732877,16.49415037167846,-0.42557744153767607,0,Fixed-Wing
1970-01-01 00:01:17.604158368,1676,1539875334194800488,base_link,0,1,40.5919896,-79.9007991,361.350672665,0.396899993992,0.0,0.0,0.0,0.396899993992,0.0,0.0,0.0,1.58759997597,1,42.937856316070636,181.23751136434953,361.34794718143553,0.5079296054878248,16.494142079022154,-0.7006424167574088,0,Fixed-Wing
1970-01-01 00:01:18.031558144,1678,1539875334621059336,base_link,0,1,40.5920494,-79.9007966,361.180650533,0.396899993992,0.0,0.0,0.0,0.396899993992,0.0,0.0,0.0,1.58759997597,1,43.14945836963224,187.87843733115204,361.17773099887427,0.5290977260060657,16.605220830651646,-0.42561493901748315,0,Fixed-Wing
