time,field.header.seq,field.header.stamp,field.header.frame_id,field.status.status,field.status.service,lat,lon,alt,field.position_covariance0,field.position_covariance1,field.position_covariance2,field.position_covariance3,field.position_covariance4,field.position_covariance5,field.position_covariance6,field.position_covariance7,field.position_covariance8,field.position_covariance_type,x,y,z,vel_x,vel_y,vel_z,track_id,uav_category
1970-01-01 00:00:00.000000000,4296,1538768398966408903,base_link,0,1,40.5906467,-79.8951779,381.316985474,0.384400005913,0.0,0.0,0.0,0.384400005913,0.0,0.0,0.0,1.53760002365,1,529.1417400833395,55.54510581508313,381.29482618691463,12.425437302401109,21.883760651555217,2.9495645024814743,0,Fixed-Wing
1970-01-01 00:00:00.403889184,4298,1538768399370313511,base_link,0,1,40.5907255,-79.8951192,382.497012282,0.384400005913,0.0,0.0,0.0,0.384400005913,0.0,0.0,0.0,1.53760002365,1,534.1106724605697,64.29642169964006,382.474357031457,12.425437302401109,21.883760651555217,2.9495645024814743,0,Fixed-Wing
1970-01-01 00:00:00.816451808,4300,1538768399782733607,base_link,0,1,40.5908045,-79.8950693,383.407029981,0.384400005913,0.0,0.0,0.0,0.384400005913,0.0,0.0,0.0,1.53760002365,1,538.3345763122333,73.06989786957371,383.3839254415003,10.56240022921611,21.939175218638773,2.2744896475202165,0,Fixed-Wing
1970-01-01 00:00:01.200855296,4302,1538768400166983943,base_link,0,1,40.5908833,-79.8950265,383.48704049,0.36000002861,0.0,0.0,0.0,0.36000002861,0.0,0.0,0.0,1.44000011444,1,541.9573282906024,81.82111412381053,383.46352308829574,9.059144732105871,21.883511513470427,0.19904387795807624,0,Fixed-Wing
1970-01-01 00:00:01.605339104,4304,1538768400568546567,base_link,0,1,40.5909618,-79.8949913,382.567043338,0.36000002861,0.0,0.0,0.0,0.36000002861,0.0,0.0,0.0,1.44000011444,1,544.9365863021378,90.53895537975518,382.5431543860245,7.4500075307212335,21.80005315314991,-2.3014971299605373,0,Fixed-Wing
1970-01-01 00:00:01.982465760,4306,1538768400948866855,base_link,0,1,40.5910407,-79.8949629,380.94703905,0.36000002861,0.0,0.0,0.0,0.36000002861,0.0,0.0,0.0,1.44000011444,1,547.3400980078314,99.30116328015154,380.92281387744947,6.010281834692752,21.910997500365998,-4.051864237497011,0,Fixed-Wing
1970-01-01 00:00:02.424052768,4308,1538768401390562439,base_link,0,1,40.5911197,-79.894943,378.707026008,0.36000002861,0.0,0.0,0.0,0.36000002861,0.0,0.0,0.0,1.44000011444,1,549.0239558038638,108.07440931719901,378.68251335017294,4.210697164372055,21.938599742554317,-5.602151856155367,0,Fixed-Wing
1970-01-01 00:00:02.811812320,4310,1538768401778303175,base_link,0,1,40.5911992,-79.8949333,376.007002295,0.36000002861,0.0,0.0,0.0,0.36000002861,0.0,0.0,0.0,1.44000011444,1,549.8442546474113,116.90310377922523,375.9822629866439,2.0512599238495826,22.077255468932787,-6.752313987319457,0,Fixed-Wing
1970-01-01 00:00:03.178558752,4312,1538768402145014439,base_link,0,1,40.5912794,-79.8949349,373.036966698,0.36000002861,0.0,0.0,0.0,0.36000002861,0.0,0.0,0.0,1.44000011444,1,549.7078897461471,125.80945179358784,373.012069246728,-0.34099750253610206,22.271437895380362,-7.427341185085985,0,Fixed-Wing
1970-01-01 00:00:03.571461696,4314,1538768402537823303,base_link,0,1,40.59136,-79.8949508,370.076916265,0.36000002861,0.0,0.0,0.0,0.36000002861,0.0,0.0,0.0,1.44000011444,1,548.3609196842657,134.76012367637344,370.05195130691175,-3.36826722150886,22.382275275782945,-7.402145385887115,0,Fixed-Wing
1970-01-01 00:00:03.983133312,4316,1538768402949601351,base_link,0,1,40.5914394,-79.8949845,367.52684808,0.36000002861,0.0,0.0,0.0,0.36000002861,0.0,0.0,0.0,1.44000011444,1,545.5070967020147,143.5774235200735,367.5019346162742,-7.136341541012797,22.048761799700067,-6.376635885565298,0,Fixed-Wing
1970-01-01 00:00:04.387412512,4318,1538768403353236455,base_link,0,1,40.5915137,-79.8950374,365.566762356,0.384400005913,0.0,0.0,0.0,0.384400005913,0.0,0.0,0.0,1.53760002365,1,541.0279536997705,151.8282462563289,365.54203831072635,-11.200657670028008,20.632214894362093,-4.9009660053709165,0,Fixed-Wing
1970-01-01 00:00:04.785037952,4320,1538768403751291079,base_link,0,1,40.5915794,-79.8951083,364.476661804,0.36000002861,0.0,0.0,0.0,0.36000002861,0.0,0.0,0.0,1.44000011444,1,535.0251353052566,159.1239285834837,364.4522651042248,-15.010798685956084,18.24376675957688,-2.7251142948275757,0,Fixed-Wing
1970-01-01 00:00:05.191772768,4322,1538768404155066343,base_link,0,1,40.591635,-79.895191,364.456553424,0.384400005913,0.0,0.0,0.0,0.384400005913,0.0,0.0,0.0,1.53760002365,1,528.0235446153744,165.29794141372395,364.4325819451923,-17.508353813158983,15.438891798550284,-0.049220202631969495,0,Fixed-Wing
1970-01-01 00:00:05.597139392,4324,1538768404563564807,base_link,0,1,40.5916844,-79.8952758,365.266445534,0.384400005913,0.0,0.0,0.0,0.384400005913,0.0,0.0,0.0,1.53760002365,1,520.8443014935702,170.78344591118483,365.24291862150955,-17.952595953498676,13.717190541287524,2.026348277862623,0,Fixed-Wing
1970-01-01 00:00:06.027813440,4326,1538768404991504551,base_link,0,1,40.5917314,-79.8953574,366.536341972,0.384400005913,0.0,0.0,0.0,0.384400005913,0.0,0.0,0.0,1.53760002365,1,513.9360250343902,176.00246437040903,366.51323240874757,-17.27500990042511,13.050808850273073,3.176578612748247,0,Fixed-Wing
1970-01-01 00:00:06.406874592,4328,1538768405373207879,base_link,0,1,40.5917784,-79.895434,367.876243575,0.384400005913,0.0,0.0,0.0,0.384400005913,0.0,0.0,0.0,1.53760002365,1,507.45104610369134,181.2215221503347,367.85350599388266,-16.216501452110283,13.05090717660831,3.35152184329856,0,Fixed-Wing
1970-01-01 00:00:06.810345792,4330,1538768405776632647,base_link,0,1,40.5918258,-79.8955068,368.946148939,0.384400005913,0.0,0.0,0.0,0.384400005913,0.0,0.0,0.0,1.53760002365,1,501.28774583089915,186.4850225112079,368.9237459360281,-15.41210370790744,13.162041412536123,2.676268922594306,0,Fixed-Wing
1970-01-01 00:00:07.195586048,4332,1538768406161847175,base_link,0,1,40.5918734,-79.8955763,369.606057635,0.384400005913,0.0,0.0,0.0,0.384400005913,0.0,0.0,0.0,1.53760002365,1,495.4037867527286,191.77074648078104,369.58395657693177,-14.713576089448768,13.217614327514767,1.6509393370933794,0,Fixed-Wing
1970-01-01 00:00:07.596145312,4334,1538768406562391079,base_link,0,1,40.5919217,-79.8956429,370.06596904,0.384400005913,0.0,0.0,0.0,0.384400005913,0.0,0.0,0.0,1.53760002365,1,489.765319255914,197.13422290775304,370.0441388892102,-14.099693665452861,13.412044078449611,1.150743466562761,0,Fixed-Wing
1970-01-01 00:00:08.011994592,4336,1538768406978296871,base_link,0,1,40.5919706,-79.8957069,370.245882888,0.384400005913,0.0,0.0,0.0,0.384400005913,0.0,0.0,0.0,1.53760002365,1,484.34694118763935,202.56434130021546,370.22429534099354,-13.549332503812575,13.578690653819502,0.4505037553971456,0,Fixed-Wing
1970-01-01 00:00:08.371408640,4338,1538768407337881319,base_link,0,1,40.5920201,-79.8957694,370.08579805,0.384400005913,0.0,0.0,0.0,0.384400005913,0.0,0.0,0.0,1.53760002365,1,479.05552603187283,208.06109252242385,370.0644321724792,-13.231845850879008,13.745314384117,-0.3997578607510242,0,Fixed-Wing
1970-01-01 00:00:08.793951808,4340,1538768407752910503,base_link,0,1,40.5920715,-79.89583,369.815714392,0.384400005913,0.0,0.0,0.0,0.384400005913,0.0,0.0,0.0,1.53760002365,1,473.9249450409817,213.76885352536846,369.7945420365618,-12.829659892200883,14.272970750049032,-0.6748940633093812,0,Fixed-Wing
1970-01-01 00:00:09.204766560,4342,1538768408168418439,base_link,0,1,40.5921259,-79.8958872,369.715632994,0.384400005913,0.0,0.0,0.0,0.384400005913,0.0,0.0,0.0,1.53760002365,1,469.08219628865663,219.80979904930513,369.6946122880092,-12.109899355651576,15.10614034492791,-0.24988684309226603,0,Fixed-Wing
1970-01-01 00:00:09.598871200,4344,1538768408564815015,base_link,0,1,40.5921828,-79.8959414,370.005553656,0.384400005913,0.0,0.0,0.0,0.384400005913,0.0,0.0,0.0,1.53760002365,1,464.493436174095,226.12840847783735,369.9846468677248,-11.474768978648756,15.800473689753007,0.7252677662305806,0,Fixed-Wing
1970-01-01 00:00:10.014267392,4346,1538768408980645415,base_link,0,1,40.5922401,-79.8959947,370.335475102,0.384400005913,0.0,0.0,0.0,0.384400005913,0.0,0.0,0.0,1.53760002365,1,459.98087437351455,232.49144853002093,370.3146655497587,-11.284225557840568,15.911578024965188,0.825253018339287,0,Fixed-Wing
1970-01-01 00:00:10.428920992,4348,1538768409394282951,base_link,0,1,40.5922969,-79.8960488,370.415395964,0.384400005913,0.0,0.0,0.0,0.384400005913,0.0,0.0,0.0,1.53760002365,1,455.4005802635528,238.79895226410014,370.3946810093253,-11.453598674573033,15.77270251082572,0.2000886710844028,0,Fixed-Wing
1970-01-01 00:00:10.815087872,4350,1538768409781379751,base_link,0,1,40.5923522,-79.8961045,370.16531584,0.384400005913,0.0,0.0,0.0,0.384400005913,0.0,0.0,0.0,1.53760002365,1,450.6848304675117,244.93985938522758,370.144701919896,-11.79232257074546,15.356106829525984,-0.6251039995731503,0,Fixed-Wing
1970-01-01 00:00:11.223152128,4352,1538768410179253799,base_link,0,1,40.5924046,-79.896164,369.805233056,0.384400005913,0.0,0.0,0.0,0.384400005913,0.0,0.0,0.0,1.53760002365,1,445.6474066648368,250.75869325984917,369.78474591309293,-12.596708683858164,14.55072236714576,-0.900115045769163,0,Fixed-Wing
1970-01-01 00:00:11.598454336,4354,1538768410564890983,base_link,0,1,40.5924525,-79.8962288,369.335146741,0.384400005913,0.0,0.0,0.0,0.384400005913,0.0,0.0,0.0,1.53760002365,1,440.16133549621475,256.0777628116643,369.31482814502425,-13.718607573448516,13.300999129320127,-1.1750881922197625,0,Fixed-Wing
1970-01-01 00:00:12.004402016,4356,1538768410970793479,base_link,0,1,40.5924944,-79.8963,368.755056388,0.384400005913,0.0,0.0,0.0,0.384400005913,0.0,0.0,0.0,1.53760002365,1,434.13350517783704,260.7304847143437,368.7349613649296,-15.073344131977269,11.634713435057236,-1.4500294576010901,0,Fixed-Wing
1970-01-01 00:00:12.430767584,4358,1538768411396912743,base_link,0,1,40.5925286,-79.8963764,368.104963931,0.384400005913,0.0,0.0,0.0,0.384400005913,0.0,0.0,0.0,1.53760002365,1,427.66551634889566,264.5280785115935,368.0851484829283,-16.174015576247495,9.496358582770236,-1.6249384396131519,0,Fixed-Wing
1970-01-01 00:00:12.831032480,4360,1538768411797413543,base_link,0,1,40.5925544,-79.8964577,367.554869963,0.384400005913,0.0,0.0,0.0,0.384400005913,0.0,0.0,0.0,1.53760002365,1,420.78278019821266,267.3928173305442,367.5353918813486,-17.21114316249813,7.163637956865927,-1.3747351877461915,0,Fixed-Wing
1970-01-01 00:00:13.223108064,4362,1538768412189086823,base_link,0,1,40.5925702,-79.8965429,367.14477617,0.384400005913,0.0,0.0,0.0,0.384400005913,0.0,0.0,0.0,1.53760002365,1,413.5699628516974,269.14702515776327,367.1256951989742,-18.036552504414196,4.386616222103252,-1.024497830393534,0,Fixed-Wing
1970-01-01 00:00:13.613866656,4364,1538768412579586823,base_link,0,1,40.5925759,-79.8966296,366.814685047,0.384400005913,0.0,0.0,0.0,0.384400005913,0.0,0.0,0.0,1.53760002365,1,406.23023207398774,269.77960655108814,366.79604828851245,-18.353915423130008,1.5818489455485614,-0.8243233569936165,0,Fixed-Wing
1970-01-01 00:00:14.010701376,4366,1538768412976925191,base_link,0,1,40.59257,-79.8967147,366.624600384,0.384400005913,0.0,0.0,0.0,0.384400005913,0.0,0.0,0.0,1.53760002365,1,399.0260305654344,269.1240000048838,366.6064454928295,-18.015007523264202,-1.6394262220664002,-0.47412552058754304,0,Fixed-Wing
1970-01-01 00:00:14.382649248,4368,1538768413349092775,base_link,0,1,40.5925545,-79.8967972,366.554522373,0.384400005913,0.0,0.0,0.0,0.384400005913,0.0,0.0,0.0,1.53760002365,1,392.0419972528721,267.4023136864985,366.5368725370853,-17.464449393754197,-4.305292118993021,-0.17397588333134886,0,Fixed-Wing
1970-01-01 00:00:14.825060544,4370,1538768413791510215,base_link,0,1,40.5925311,-79.8968753,366.474452149,0.384400005913,0.0,0.0,0.0,0.384400005913,0.0,0.0,0.0,1.53760002365,1,385.4304921623792,264.8033385398642,366.4573133731344,-16.53289595021973,-6.499062632243675,-0.1989476467888865,0,Fixed-Wing
1970-01-01 00:00:15.180643040,4372,1538768414147111943,base_link,0,1,40.5925012,-79.8969476,366.534390565,0.384400005913,0.0,0.0,0.0,0.384400005913,0.0,0.0,0.0,1.53760002365,1,379.3100328781747,261.48255922942224,366.5177555042535,-15.304974454124817,-8.304024282175524,0.1511431135761166,0,Fixed-Wing
1970-01-01 00:00:15.567404000,4374,1538768414533812263,base_link,0,1,40.592467,-79.8970143,366.854336502,0.384400005913,0.0,0.0,0.0,0.384400005913,0.0,0.0,0.0,1.53760002365,1,373.66368143676743,257.6842936956854,366.8381891988467,-14.119408455632064,-9.498038343928007,0.801284557622384,0,Fixed-Wing
1970-01-01 00:00:16.024436800,4376,1538768414990571975,base_link,0,1,40.5924312,-79.8970766,367.264287612,0.36000002861,0.0,0.0,0.0,0.36000002861,0.0,0.0,0.0,1.44000011444,1,368.38982481457015,253.70837015206612,367.2486064228588,-13.187938540128247,-9.942294432656421,1.0262996349390388,0,Fixed-Wing
1970-01-01 00:00:16.367101152,4378,1538768415333553479,base_link,0,1,40.5923951,-79.8971361,367.684241719,0.36000002861,0.0,0.0,0.0,0.36000002861,0.0,0.0,0.0,1.44000011444,1,363.3530015233514,249.6991460552586,367.669007632047,-12.595207029804332,-10.025566633677206,1.0512658394303203,0,Fixed-Wing
1970-01-01 00:00:16.821917696,4380,1538768415788247815,base_link,0,1,40.5923603,-79.8971946,368.084196318,0.36000002861,0.0,0.0,0.0,0.36000002861,0.0,0.0,0.0,1.44000011444,1,358.40082036776295,245.8342963569026,368.069392508365,-12.383548776165163,-9.664540380985274,1.0012124939185159,0,Fixed-Wing
1970-01-01 00:00:17.167725376,4382,1538768416133926439,base_link,0,1,40.5923267,-79.8972529,368.234150629,0.36000002861,0.0,0.0,0.0,0.36000002861,0.0,0.0,0.0,1.44000011444,1,353.4655445698679,242.10270373440306,368.2197649075878,-12.341274813440938,-9.331314384845045,0.37602500430797847,0,Fixed-Wing
1970-01-01 00:00:17.589140768,4384,1538768416555619015,base_link,0,1,40.5922935,-79.8973108,368.164105191,0.36000002861,0.0,0.0,0.0,0.36000002861,0.0,0.0,0.0,1.44000011444,1,348.5641120626942,238.41552855128162,368.1501280437161,-12.256645429291561,-9.22024301855824,-0.1741356936025629,0,Fixed-Wing
1970-01-01 00:00:18.028962048,4386,1538768416995405095,base_link,0,1,40.5922615,-79.8973694,367.854058545,0.36000002861,0.0,0.0,0.0,0.36000002861,0.0,0.0,0.0,1.44000011444,1,343.6033962781489,234.86160805504022,367.84048234577926,-12.40489068403426,-8.887022996352597,-0.7743078217975595,0,Fixed-Wing
1970-01-01 00:00:18.414334176,4388,1538768417380688583,base_link,0,1,40.5922308,-79.8974294,367.654009933,0.36000002861,0.0,0.0,0.0,0.36000002861,0.0,0.0,0.0,1.44000011444,1,338.5241565083683,231.452058027835,367.6408298777659,-12.701274743137285,-8.526006569655484,-0.4992559840294296,0,Fixed-Wing
1970-01-01 00:00:18.804991520,4390,1538768417771256263,base_link,0,1,40.5922007,-79.8974901,367.493960363,0.36000002861,0.0,0.0,0.0,0.36000002861,0.0,0.0,0.0,1.44000011444,1,333.3856519866514,228.10914194517818,367.4811712899867,-12.849473672710491,-8.359380051654949,-0.3992462810181964,0,Fixed-Wing
1970-01-01 00:00:19.183396480,4392,1538768418149683367,base_link,0,1,40.5921716,-79.8975516,367.403909566,0.36000002861,0.0,0.0,0.0,0.36000002861,0.0,0.0,0.0,1.44000011444,1,328.1794166151993,224.87728152685042,367.391505141583,-13.018843139415164,-8.08167146368531,-0.22422142636582654,0,Fixed-Wing
1970-01-01 00:00:19.600972544,4394,1538768418567460391,base_link,0,1,40.5921431,-79.8976134,367.293858219,0.36000002861,0.0,0.0,0.0,0.36000002861,0.0,0.0,0.0,1.44000011444,1,322.9477760159715,221.71205452010656,367.28183152218406,-13.082372091092209,-7.915046278429263,-0.274252611650316,0,Fixed-Wing
1970-01-01 00:00:19.987733280,4396,1538768418954155495,base_link,0,1,40.5921144,-79.8976748,367.20380737,0.36000002861,0.0,0.0,0.0,0.36000002861,0.0,0.0,0.0,1.44000011444,1,317.7499957254062,218.52462295298898,367.19215161888815,-12.997700151451054,-7.970571560684134,-0.2242558221953403,0,Fixed-Wing
1970-01-01 00:00:20.399095744,4398,1538768419364266471,base_link,0,1,40.5920851,-79.8977355,367.233757493,0.36000002861,0.0,0.0,0.0,0.36000002861,0.0,0.0,0.0,1.44000011444,1,312.6114794326155,215.27057019679634,367.22246621647173,-12.84950310775372,-8.137166182027096,0.07580544532028817,0,Fixed-Wing
1970-01-01 00:00:20.782447456,4400,1538768419748904359,base_link,0,1,40.5920557,-79.8977952,367.443708687,0.36000002861,0.0,0.0,0.0,0.36000002861,0.0,0.0,0.0,1.44000011444,1,307.55762438009856,212.0054252158221,367.4327723814005,-12.63779708056252,-8.164903678355193,0.5258968865436239,0,Fixed-Wing
1970-01-01 00:00:21.199914944,4402,1538768420166406823,base_link,0,1,40.5920259,-79.8978538,367.723661178,0.36000002861,0.0,0.0,0.0,0.36000002861,0.0,0.0,0.0,1.44000011444,1,302.5968920524869,208.6958685566317,367.71307121289806,-12.40493205204214,-8.27596063813555,0.7009223093211612,0,Fixed-Wing
1970-01-01 00:00:21.600374656,4404,1538768420566654503,base_link,0,1,40.5919965,-79.8979116,367.903614326,0.36000002861,0.0,0.0,0.0,0.36000002861,0.0,0.0,0.0,1.44000011444,1,297.7038738385229,205.43073538119614,367.89336053963484,-12.235604436019036,-8.16487415712816,0.45083602584842103,0,Fixed-Wing
1970-01-01 00:00:21.986427296,4406,1538768420952579943,base_link,0,1,40.5919673,-79.8979688,368.08356801,0.36000002861,0.0,0.0,0.0,0.36000002861,0.0,0.0,0.0,1.44000011444,1,292.8616442540142,202.1878177347093,368.0736419441622,-12.108601111549604,-8.109321446578722,0.4508162153722519,0,Fixed-Wing
1970-01-01 00:00:22.397222240,4408,1538768421363731879,base_link,0,1,40.5919384,-79.8980256,368.243521984,0.36000002861,0.0,0.0,0.0,0.36000002861,0.0,0.0,0.0,1.44000011444,1,288.05327072090677,198.97821948691484,368.2339157457006,-12.023939817723036,-8.02600212001619,0.40078470002095695,0,Fixed-Wing
1970-01-01 00:00:22.791976416,4410,1538768421758202887,base_link,0,1,40.5919099,-79.8980828,368.213475389,0.36000002861,0.0,0.0,0.0,0.36000002861,0.0,0.0,0.0,1.44000011444,1,283.21101995268634,195.81303804476374,368.20418387731195,-12.108654084072079,-7.914932338462354,-0.07434825803610251,0,Fixed-Wing
1970-01-01 00:00:23.202226336,4412,1538768422168290471,base_link,0,1,40.591882,-79.8981404,368.043428141,0.396899993992,0.0,0.0,0.0,0.396899993992,0.0,0.0,0.0,1.58759997597,1,278.334893775757,192.71448576170135,368.03444556461363,-12.193363783269186,-7.748317787102749,-0.4244518947194651,0,Fixed-Wing
1970-01-01 00:00:23.611537472,4414,1538768422577769223,base_link,0,1,40.5918553,-79.8981991,368.293379274,0.396899993992,0.0,0.0,0.0,0.396899993992,0.0,0.0,0.0,1.58759997597,1,273.36565428785985,189.74920889490613,368.28470041879706,-12.426205271060619,-7.415045928470172,0.6257935838545247,0,Fixed-Wing
1970-01-01 00:00:24.007723936,4416,1538768422973942279,base_link,0,1,40.5918295,-79.8982581,368.773329732,0.396899993992,0.0,0.0,0.0,0.396899993992,0.0,0.0,0.0,1.58759997597,1,268.3710194355229,186.88388817474447,368.76494747961476,-12.489709558231953,-7.165093073672574,1.2009178815146366,0,Fixed-Wing
1970-01-01 00:00:24.406849504,4418,1538768423372099015,base_link,0,1,40.5918037,-79.8983167,369.023280605,0.396899993992,0.0,0.0,0.0,0.396899993992,0.0,0.0,0.0,1.58759997597,1,263.41023330812305,184.01856492659985,369.0151883663897,-12.405066585145892,-7.165099395210352,0.6257586566014458,0,Fixed-Wing
1970-01-01 00:00:24.792535584,4420,1538768423758780071,base_link,0,1,40.5917779,-79.8983755,369.133231279,0.396899993992,0.0,0.0,0.0,0.396899993992,0.0,0.0,0.0,1.58759997597,1,258.4325059068825,181.1532401937567,369.12542459342814,-12.44743036069153,-7.16510310788488,0.2756594824667568,0,Fixed-Wing
1970-01-01 00:00:25.204164032,4422,1538768424169797191,base_link,0,1,40.5917519,-79.8984344,368.973181939,0.396899993992,0.0,0.0,0.0,0.396899993992,0.0,0.0,0.0,1.58759997597,1,253.44629884481932,178.2657003528525,368.9656565973639,-12.468634813861433,-7.220654765951979,-0.3995198701281842,0,Fixed-Wing
1970-01-01 00:00:25.586636832,4424,1538768424551671719,base_link,0,1,40.5917248,-79.8984932,368.663133166,0.396899993992,0.0,0.0,0.0,0.396899993992,0.0,0.0,0.0,1.58759997597,1,248.46855211401896,175.2560024484095,368.6558870027047,-12.447478696675075,-7.5261262926806385,-0.7746176410582676,0,Fixed-Wing
1970-01-01 00:00:25.990882048,4426,1538768424957275687,base_link,0,1,40.5916973,-79.8985522,368.373084361,0.396899993992,0.0,0.0,0.0,0.396899993992,0.0,0.0,0.0,1.58759997597,1,243.47387263808807,172.20188718164076,368.3661139197858,-12.489821145113515,-7.63719746628844,-0.7246138607624019,0,Fixed-Wing
1970-01-01 00:00:26.369436896,4428,1538768425335638887,base_link,0,1,40.5916693,-79.8986116,368.473035362,0.396899993992,0.0,0.0,0.0,0.396899993992,0.0,0.0,0.0,1.58759997597,1,238.4453429976148,169.09225861135639,368.46633801123784,-12.574467718112695,-7.7760154295683215,0.250622884351209,0,Fixed-Wing
1970-01-01 00:00:26.799872800,4430,1538768425766321511,base_link,0,1,40.5916412,-79.89867,368.722987432,0.396899993992,0.0,0.0,0.0,0.396899993992,0.0,0.0,0.0,1.58759997597,1,233.5014720264628,165.9715346674651,368.71655488951785,-12.362768119909965,-7.8037607999281775,0.6256986203551239,0,Fixed-Wing
1970-01-01 00:00:27.173975776,4432,1538768426139756487,base_link,0,1,40.5916126,-79.8987274,368.822940738,0.396899993992,0.0,0.0,0.0,0.396899993992,0.0,0.0,0.0,1.58759997597,1,228.64225009563887,162.79528630137906,368.8167660376531,-12.151092600209891,-7.942606566856821,0.2505905179676383,0,Fixed-Wing
1970-01-01 00:00:27.597115328,4434,1538768426563224935,base_link,0,1,40.5915838,-79.8987844,368.852894541,0.396899993992,0.0,0.0,0.0,0.396899993992,0.0,0.0,0.0,1.58759997597,1,223.81688499383887,159.59682978606003,368.8469717710077,-12.066429361840468,-7.99814082350347,0.07553321669065206,0,Fixed-Wing
1970-01-01 00:00:27.996873280,4436,1538768426963068423,base_link,0,1,40.5915557,-79.8988421,368.922847344,0.396899993992,0.0,0.0,0.0,0.396899993992,0.0,0.0,0.0,1.58759997597,1,218.93225467953044,156.47611234458464,368.91717137222406,-12.214629443131845,-7.803744539823437,0.17554288876308838,0,Fixed-Wing
1970-01-01 00:00:28.453255712,4438,1538768427419599911,base_link,0,1,40.5915278,-79.8988997,369.062800171,0.396899993992,0.0,0.0,0.0,0.396899993992,0.0,0.0,0.0,1.58759997597,1,214.05608761159039,153.37761047367968,369.0573649110464,-12.19346603635924,-7.748191725193684,0.3505714899283801,0,Fixed-Wing
1970-01-01 00:00:28.837338560,4440,1538768427803807271,base_link,0,1,40.5914999,-79.8989576,369.242752697,0.396899993992,0.0,0.0,0.0,0.396899993992,0.0,0.0,0.0,1.58759997597,1,209.15452037199086,150.27911190239365,369.23755375100586,-12.256982344584971,-7.748183474083595,0.4505847460851258,0,Fixed-Wing
1970-01-01 00:00:29.189777376,4442,1538768428156185383,base_link,0,1,40.5914723,-79.8990157,369.4827049,0.396899993992,0.0,0.0,0.0,0.396899993992,0.0,0.0,0.0,1.58759997597,1,204.23601830322718,147.2139330575634,369.47773676815456,-12.299330004410283,-7.66486332790762,0.6006076947954363,0,Fixed-Wing
1970-01-01 00:00:29.649584864,4444,1538768428615586663,base_link,0,1,40.5914445,-79.8990733,369.592657702,0.396899993992,0.0,0.0,0.0,0.396899993992,0.0,0.0,0.0,1.58759997597,1,199.35983708641126,144.12654493542226,369.58791430216564,-12.193501417394156,-7.720400405454202,0.27551271320601706,0,Fixed-Wing
1970-01-01 00:00:30.015451456,4446,1538768428981470983,base_link,0,1,40.5914165,-79.8991305,369.622611002,0.396899993992,0.0,0.0,0.0,0.396899993992,0.0,0.0,0.0,1.58759997597,1,194.51751280004265,141.0169485249151,369.61808657708525,-12.108837925402872,-7.775935010020385,0.07544954968644009,0,Fixed-Wing
1970-01-01 00:00:30.379545184,4448,1538768429345989415,base_link,0,1,40.5913886,-79.899188,369.64256396,0.396899993992,0.0,0.0,0.0,0.396899993992,0.0,0.0,0.0,1.58759997597,1,189.64978659211505,137.9184596316135,369.6382538294414,-12.172358609471377,-7.748159273072285,0.05043073857500771,0,Fixed-Wing
1970-01-01 00:00:30.776371584,4450,1538768429742841863,base_link,0,1,40.5913611,-79.8992463,369.782515939,0.396899993992,0.0,0.0,0.0,0.396899993992,0.0,0.0,0.0,1.58759997597,1,184.71433262799343,134.86439576395628,369.7784159043965,-12.34172034038915,-7.637068936377145,0.3504928105904688,0,Fixed-Wing
1970-01-01 00:00:31.198604640,4452,1538768430164960391,base_link,0,1,40.5913343,-79.8993051,369.992467122,0.396899993992,0.0,0.0,0.0,0.396899993992,0.0,0.0,0.0,1.58759997597,1,179.7365457010558,131.8880722066952,369.9885714826002,-12.447579212147101,-7.442669560542842,0.5255203255906041,0,Fixed-Wing
1970-01-01 00:00:31.598752800,4454,1538768430565172839,base_link,0,1,40.5913077,-79.8993639,370.142418227,0.396899993992,0.0,0.0,0.0,0.396899993992,0.0,0.0,0.0,1.58759997597,1,174.75875230970402,128.93396106939826,370.1387212626846,-12.44759537722376,-7.387124624398435,0.375468317290335,0,Fixed-Wing
1970-01-01 00:00:31.972837632,4456,1538768430937893991,base_link,0,1,40.5912808,-79.8994223,370.172369872,0.396899993992,0.0,0.0,0.0,0.396899993992,0.0,0.0,0.0,1.58759997597,1,169.81481537471197,125.94653578278863,370.1688660914337,-12.362933070747818,-7.470430824230147,0.07538091710199321,0,Fixed-Wing
1970-01-01 00:00:32.420182656,4458,1538768431383256967,base_link,0,1,40.5912541,-79.8994802,369.962321948,0.396899993992,0.0,0.0,0.0,0.396899993992,0.0,0.0,0.0,1.58759997597,1,164.9131965946255,122.98132055426177,369.95900459978657,-12.25711122802317,-7.414891794265713,-0.5247849253491672,0,Fixed-Wing
1970-01-01 00:00:32.793301632,4460,1538768431759466407,base_link,0,1,40.5912274,-79.8995383,369.862273826,0.396899993992,0.0,0.0,0.0,0.396899993992,0.0,0.0,0.0,1.58759997597,1,159.99464544692043,120.01611047025804,369.8591381916301,-12.299452732445797,-7.414878929741759,-0.24972845250427214,0,Fixed-Wing
1970-01-01 00:00:33.199673696,4462,1538768432166069447,base_link,0,1,40.5912011,-79.8995965,369.772225441,0.396899993992,0.0,0.0,0.0,0.396899993992,0.0,0.0,0.0,1.58759997597,1,155.06762408315424,117.09532473217288,369.7692657397612,-12.32063356780742,-7.303790292786092,-0.22473731400081967,0,Fixed-Wing
1970-01-01 00:00:33.634554848,4464,1538768432600620679,base_link,0,1,40.5911748,-79.8996546,369.662177163,0.396899993992,0.0,0.0,0.0,0.396899993992,0.0,0.0,0.0,1.58759997597,1,150.14906430545963,114.17454215721423,369.65938805401083,-12.299474312814732,-7.303782382992375,-0.27476290510214574,0,Fixed-Wing
1970-01-01 00:00:33.985174688,4466,1538768432951493447,base_link,0,1,40.5911486,-79.8997124,369.482129155,0.396899993992,0.0,0.0,0.0,0.396899993992,0.0,0.0,0.0,1.58759997597,1,145.25589638441193,111.26486745902383,369.479504739146,-12.235978797318595,-7.2760057469127295,-0.449820742347612,0,Fixed-Wing
1970-01-01 00:00:34.381980608,4468,1538768433348492039,base_link,0,1,40.5911224,-79.8997704,369.292080949,0.396899993992,0.0,0.0,0.0,0.396899993992,0.0,0.0,0.0,1.58759997597,1,140.34579312865992,108.35519566316574,369.2896165179369,-12.278327721310342,-7.275998489267538,-0.47483926283850125,0,Fixed-Wing
1970-01-01 00:00:34.784616128,4470,1538768433750773287,base_link,0,1,40.5910962,-79.8998285,369.102032646,0.396899993992,0.0,0.0,0.0,0.396899993992,0.0,0.0,0.0,1.58759997597,1,135.42722054179427,105.44552713337268,369.0997232745804,-12.299506343750064,-7.275990322063182,-0.47485182134657095,0,Fixed-Wing
1970-01-01 00:00:35.255427104,4472,1538768434221728583,base_link,0,1,40.5910704,-79.8998872,368.911983569,0.396899993992,0.0,0.0,0.0,0.396899993992,0.0,0.0,0.0,1.58759997597,1,130.4578488815415,102.58028212779396,368.90982446176446,-12.42653578457805,-7.1649037398817566,-0.4748657484770054,0,Fixed-Wing
1970-01-01 00:00:35.596378624,4474,1538768434562656743,base_link,0,1,40.5910461,-79.8999475,368.701932238,0.396899993992,0.0,0.0,0.0,0.396899993992,0.0,0.0,0.0,1.58759997597,1,125.35301778935701,99.88161669489904,368.69991828500974,-12.765269047723175,-6.748350669904794,-0.5248966660532987,0,Fixed-Wing
1970-01-01 00:00:36.004141536,4476,1538768434970504455,base_link,0,1,40.591024,-79.90001,368.551877749,0.396899993992,0.0,0.0,0.0,0.396899993992,0.0,0.0,0.0,1.58759997597,1,120.06193299221536,97.42726823821519,368.5500034948642,-13.231019747791073,-6.137405493082886,-0.37488069553774556,0,Fixed-Wing
1970-01-01 00:00:36.369404096,4478,1538768435335799047,base_link,0,1,40.5910051,-79.9000752,368.421819173,0.396899993992,0.0,0.0,0.0,0.396899993992,0.0,0.0,0.0,1.58759997597,1,114.5422632679739,95.32828825642011,368.42007807537107,-13.80262496684538,-5.248762145023963,-0.32489477242594056,0,Fixed-Wing
1970-01-01 00:00:36.797572480,4480,1538768435764064711,base_link,0,1,40.59099,-79.9001431,368.35175626,0.396899993992,0.0,0.0,0.0,0.396899993992,0.0,0.0,0.0,1.58759997597,1,108.7940088870089,93.65130926466287,368.3501405573478,-14.374229509789933,-4.193495853356435,-0.1748875169374004,0,Fixed-Wing
1970-01-01 00:00:37.210014368,4482,1538768436176158311,base_link,0,1,40.5909798,-79.9002136,368.301688652,0.396899993992,0.0,0.0,0.0,0.396899993992,0.0,0.0,0.0,1.58759997597,1,102.82563398696047,92.51848894471661,368.3001883875053,-14.924668417225385,-2.8327589896130587,-0.12491165251944719,0,Fixed-Wing
1970-01-01 00:00:37.629131296,4484,1538768436595553415,base_link,0,1,40.5909749,-79.9002866,368.301616284,0.396899993992,0.0,0.0,0.0,0.396899993992,0.0,0.0,0.0,1.58759997597,1,96.64560540750406,91.9742493161805,368.3002204055848,-15.453934932374105,-1.3609393061668023,8.006521514631317e-05,0,Fixed-Wing
1970-01-01 00:00:37.983614496,4486,1538768436949524039,base_link,0,1,40.5909767,-79.9003609,368.411539797,0.396899993992,0.0,0.0,0.0,0.396899993992,0.0,0.0,0.0,1.58759997597,1,90.35551301869583,92.17406640784253,368.4102331014621,-15.729163262836293,0.4996676460665836,0.27510051482192444,0,Fixed-Wing
1970-01-01 00:00:38.402303808,4488,1538768437367812071,base_link,0,1,40.5909853,-79.9004365,368.581459151,0.396899993992,0.0,0.0,0.0,0.396899993992,0.0,0.0,0.0,1.58759997597,1,83.9553575987984,93.12904505891805,368.5802258768043,-16.004389647155367,2.3880436385984525,0.4250882104081596,0,Fixed-Wing
1970-01-01 00:00:38.818737920,4490,1538768437785278183,base_link,0,1,40.5910014,-79.9005117,368.571375788,0.396899993992,0.0,0.0,0.0,0.396899993992,0.0,0.0,0.0,1.58759997597,1,77.58905582755497,94.91692027461528,368.5701965987644,-15.919734361698996,4.470805740678237,-0.025079464965977762,0,Fixed-Wing
1970-01-01 00:00:39.233990112,4492,1538768438199785543,base_link,0,1,40.5910251,-79.9005869,368.551289263,0.435600034618,0.0,0.0,0.0,0.435600034618,0.0,0.0,0.0,1.74240013847,1,71.22274895491354,97.54879934567819,368.55014442637685,-15.919747118383174,6.581343013410632,-0.050142966710626416,0,Fixed-Wing
1970-01-01 00:00:39.611087680,4494,1538768438577546599,base_link,0,1,40.5910574,-79.9006599,368.431201403,0.435600034618,0.0,0.0,0.0,0.435600034618,0.0,0.0,0.0,1.74240013847,1,65.04268473162773,101.13573489789889,368.43006648282085,-15.454024064230586,8.969581275870704,-0.3002699263715879,0,Fixed-Wing
1970-01-01 00:00:40.007267168,4496,1538768438972058919,base_link,0,1,40.5910987,-79.9007285,368.341114289,0.435600034618,0.0,0.0,0.0,0.435600034618,0.0,0.0,0.0,1.74240013847,1,59.23511371273095,105.72215087463991,368.3399613118008,-14.522558186788649,11.46890716864472,-0.22531925736451722,0,Fixed-Wing
1970-01-01 00:00:40.404383744,4498,1538768439370732487,base_link,0,1,40.5911489,-79.9007899,368.181030819,0.435600034618,0.0,0.0,0.0,0.435600034618,0.0,0.0,0.0,1.74240013847,1,54.03707854761321,111.29694117059302,368.17982886204976,-12.998337497168636,13.940460855096543,-0.4004312321855907,0,Fixed-Wing
1970-01-01 00:00:40.804972576,4500,1538768439771402535,base_link,0,1,40.5912076,-79.9008425,368.190952792,0.435600034618,0.0,0.0,0.0,0.435600034618,0.0,0.0,0.0,1.74240013847,1,49.58403459112156,117.81568864548217,368.1896695900194,-11.135393739664053,16.300943923203686,0.024607971917023123,0,Fixed-Wing
1970-01-01 00:00:41.185057184,4502,1538768440150735623,base_link,0,1,40.5912731,-79.9008827,368.270884588,0.435600034618,0.0,0.0,0.0,0.435600034618,0.0,0.0,0.0,1.74240013847,1,46.18074921654057,125.08960328114901,368.26948805417305,-8.5103410217079,18.189333922647766,0.19959605939903727,0,Fixed-Wing
1970-01-01 00:00:41.597770944,4504,1538768440562068999,base_link,0,1,40.5913442,-79.9009062,368.520831084,0.396899993992,0.0,0.0,0.0,0.396899993992,0.0,0.0,0.0,1.58759997597,1,44.19124931650309,132.98542523531194,368.51928849901117,-4.974993498468316,19.744491008159358,0.6246572764143917,0,Fixed-Wing
1970-01-01 00:00:42.006888800,4506,1538768440973404455,base_link,0,1,40.5914175,-79.9009154,369.010791249,0.435600034618,0.0,0.0,0.0,0.435600034618,0.0,0.0,0.0,1.74240013847,1,43.4123556376753,141.12557611374257,369.00907866501814,-1.9477211273513186,20.355466062592228,1.2247816104200282,0,Fixed-Wing
1970-01-01 00:00:42.393931744,4508,1538768441357778503,base_link,0,1,40.5914906,-79.9009131,369.500763231,0.435600034618,0.0,0.0,0.0,0.435600034618,0.0,0.0,0.0,1.74240013847,1,43.60702369984848,149.24352356694905,369.49886409025385,0.48679185339631353,20.29994361892094,1.2247697555281551,0,Fixed-Wing
1970-01-01 00:00:42.769225408,4510,1538768441734225799,base_link,0,1,40.591562,-79.9009033,370.120743575,0.435600034618,0.0,0.0,0.0,0.435600034618,0.0,0.0,0.0,1.74240013847,1,44.43662321084301,157.172690134665,370.11864779373303,2.074517406838026,19.827873387636792,1.5498467203780595,0,Fixed-Wing
1970-01-01 00:00:43.246186752,4512,1538768442212541031,base_link,0,1,40.5916317,-79.9008898,370.860728414,0.435600034618,0.0,0.0,0.0,0.435600034618,0.0,0.0,0.0,1.74240013847,1,45.57945488005093,164.91307421710695,370.8584286715068,2.8577936214251616,19.35579915589385,1.8499146731026248,0,Fixed-Wing
1970-01-01 00:00:43.581834016,4514,1538768442548189607,base_link,0,1,40.5916997,-79.9008767,371.590713572,0.435600034618,0.0,0.0,0.0,0.435600034618,0.0,0.0,0.0,1.74240013847,1,46.68842268804919,172.46467061708648,371.58820561550107,2.7731127981951857,18.88371192793081,1.8248985846318966,0,Fixed-Wing
1970-01-01 00:00:43.983516832,4516,1538768442949917959,base_link,0,1,40.5917664,-79.9008666,372.290696237,0.435600034618,0.0,0.0,0.0,0.435600034618,0.0,0.0,0.0,1.74240013847,1,47.54341795405745,179.87189825055088,372.2879768904245,2.138022670688339,18.522699758600655,1.7498656537219832,0,Fixed-Wing
1970-01-01 00:00:44.411696320,4518,1538768443378208679,base_link,0,1,40.5918317,-79.9008587,372.870677263,0.396899993992,0.0,0.0,0.0,0.396899993992,0.0,0.0,0.0,1.58759997597,1,48.21216639024482,187.12364941191714,372.8677437704924,1.6722891627591008,18.133911381260962,1.4497796450810039,0,Fixed-Wing
1970-01-01 00:00:44.816038880,4520,1538768443782134855,base_link,0,1,40.5918958,-79.9008534,373.310656161,0.396899993992,0.0,0.0,0.0,0.396899993992,0.0,0.0,0.0,1.58759997597,1,48.66080542013245,194.24213326657298,373.30750593898676,1.121878044230133,17.800659801589987,1.0996803413212877,0,Fixed-Wing
1970-01-01 00:00:45.181894016,4522,1538768444148043463,base_link,0,1,40.5919592,-79.9008493,373.310634146,0.396899993992,0.0,0.0,0.0,0.396899993992,0.0,0.0,0.0,1.58759997597,1,49.00785256081976,201.2828668375169,373.3072624395371,0.8678348104208773,17.60623548623138,-0.0006089008493436305,0,Fixed-Wing
1970-01-01 00:00:45.580414144,4524,1538768444546573319,base_link,0,1,40.5920228,-79.9008472,373.090610034,0.396899993992,0.0,0.0,0.0,0.396899993992,0.0,0.0,0.0,1.58759997597,1,49.185583658340676,208.3458026896121,373.08700961094905,0.4444388535156764,17.66175506900524,-0.5507697639111252,0,Fixed-Wing
1970-01-01 00:00:45.997809216,4526,1538768444963890599,base_link,0,1,40.5920863,-79.9008457,372.620585374,0.396899993992,0.0,0.0,0.0,0.396899993992,0.0,0.0,0.0,1.58759997597,1,49.31251853660298,215.39762408084934,372.6167491580377,0.31741654979320855,17.633961968585247,-1.1759451185580432,0,Fixed-Wing
1970-01-01 00:00:46.387193440,4528,1538768445350803623,base_link,0,1,40.5921503,-79.9008425,372.070562256,0.396899993992,0.0,0.0,0.0,0.396899993992,0.0,0.0,0.0,1.58759997597,1,49.583368383110376,222.50496893288073,372.0664793739459,0.677293939753428,17.772805331411327,-1.3760184648456306,0,Fixed-Wing
1970-01-01 00:00:46.777564352,4530,1538768445743894215,base_link,0,1,40.5922149,-79.9008353,371.550542979,0.396899993992,0.0,0.0,0.0,0.396899993992,0.0,0.0,0.0,1.58759997597,1,50.19284348534724,229.6789475105773,371.5462004209414,1.5240687727853566,17.93943130206695,-1.301022638170916,0,Fixed-Wing
1970-01-01 00:00:47.224530912,4532,1538768446190811879,base_link,0,1,40.5922792,-79.9008221,370.950529947,0.396899993992,0.0,0.0,0.0,0.396899993992,0.0,0.0,0.0,1.58759997597,1,51.31025541969521,236.81960979426526,370.9459167469956,2.7942283929681677,17.85611973915469,-1.501084455978485,0,Fixed-Wing
1970-01-01 00:00:47.594015648,4534,1538768446559704455,base_link,0,1,40.592343,-79.9008011,370.270525072,0.396899993992,0.0,0.0,0.0,0.396899993992,0.0,0.0,0.0,1.58759997597,1,53.087984104360956,243.90474633435716,370.2656296963826,4.445433069931848,17.717270667896713,-1.701142912260574,0,Fixed-Wing
1970-01-01 00:00:48.014030592,4536,1538768446980130343,base_link,0,1,40.5924055,-79.9007709,369.510530103,0.396899993992,0.0,0.0,0.0,0.396899993992,0.0,0.0,0.0,1.58759997597,1,55.64454681872745,250.84551624603196,369.50534312342063,6.393005037175525,17.356263845148305,-1.9011917303374475,0,Fixed-Wing
1970-01-01 00:00:48.435501792,4538,1538768447400960903,base_link,0,1,40.5924654,-79.9007303,368.760546794,0.396899993992,0.0,0.0,0.0,0.396899993992,0.0,0.0,0.0,1.58759997597,1,59.081530519759994,257.4975563482619,368.75506322499933,8.594607904557504,16.634258820279975,-1.876168788250306,0,Fixed-Wing
1970-01-01 00:00:48.782542976,4540,1538768447748821031,base_link,0,1,40.5925198,-79.9006767,368.240578976,0.396899993992,0.0,0.0,0.0,0.396899993992,0.0,0.0,0.0,1.58759997597,1,63.619043686774674,263.538826826425,368.23480447272857,11.346619572429809,15.106952933641123,-1.3009721237078349,0,Fixed-Wing
1970-01-01 00:00:49.216271840,4542,1538768448182241127,base_link,0,1,40.5925656,-79.9006109,367.990627104,0.36000002861,0.0,0.0,0.0,0.36000002861,0.0,0.0,0.0,1.44000011444,1,69.18936379680888,268.6250689028946,367.98458199593523,13.929282595734442,12.718784887395856,-0.6257126201383842,0,Fixed-Wing
1970-01-01 00:00:49.581767456,4544,1538768448548082439,base_link,0,1,40.5926004,-79.9005344,368.130690635,0.36000002861,0.0,0.0,0.0,0.36000002861,0.0,0.0,0.0,1.44000011444,1,75.66551163278352,272.4897635637452,368.12440776152886,16.19441819448523,9.664152690299082,0.34965182694080443,0,Fixed-Wing
1970-01-01 00:00:49.980680608,4546,1538768448946987975,base_link,0,1,40.592624,-79.9004512,368.520765582,0.36000002861,0.0,0.0,0.0,0.36000002861,0.0,0.0,0.0,1.44000011444,1,82.70886483308998,275.1106934641873,368.51428261008687,17.61278619731547,6.553963241915711,0.9749308541085486,0,Fixed-Wing
1970-01-01 00:00:50.432914688,4548,1538768449399319239,base_link,0,1,40.5926382,-79.9003656,368.900846835,0.36000002861,0.0,0.0,0.0,0.36000002861,0.0,0.0,0.0,1.44000011444,1,89.95540062332229,276.687739043991,368.89419754056706,18.12086969300404,3.9435998494715343,0.9500248324085953,0,Fixed-Wing
1970-01-01 00:00:50.832680800,4550,1538768449798886567,base_link,0,1,40.5926439,-79.9002799,369.080931685,0.36000002861,0.0,0.0,0.0,0.36000002861,0.0,0.0,0.0,1.44000011444,1,97.21040906708164,277.3208371089885,369.0741485358074,18.142056623554268,1.5831409477307121,0.4499899855972665,0,Fixed-Wing
1970-01-01 00:00:51.229693536,4552,1538768450196003559,base_link,0,1,40.5926398,-79.900196,369.181018735,0.36000002861,0.0,0.0,0.0,0.36000002861,0.0,0.0,0.0,1.44000011444,1,104.31304993989849,276.86562228022495,369.17414336820207,17.761042442652787,-1.1383216523219066,0.2500495933849885,0,Fixed-Wing
1970-01-01 00:00:51.612012704,4554,1538768450578496775,base_link,0,1,40.5926257,-79.9001151,369.291106848,0.36000002861,0.0,0.0,0.0,0.36000002861,0.0,0.0,0.0,1.44000011444,1,111.16174079397366,275.2998859743824,369.28418390342836,17.12600863734727,-3.9153195945050343,0.27517013059837375,0,Fixed-Wing
1970-01-01 00:00:52.053944704,4556,1538768451020204103,base_link,0,1,40.5926035,-79.9000392,369.391193212,0.36000002861,0.0,0.0,0.0,0.36000002861,0.0,0.0,0.0,1.44000011444,1,117.58716887177094,272.8346236314702,369.38426140174397,16.067587091266013,-6.164697031538343,0.25025630986650016,0,Fixed-Wing
1970-01-01 00:00:52.383357984,4558,1538768451349614759,base_link,0,1,40.5925748,-79.8999681,369.421277376,0.36000002861,0.0,0.0,0.0,0.36000002861,0.0,0.0,0.0,1.44000011444,1,123.6062631267359,269.6475158576743,369.4143677896391,15.051498512040398,-7.969761874958493,0.07528479093549055,0,Fixed-Wing
1970-01-01 00:00:52.796244256,4560,1538768451762585479,base_link,0,1,40.5925414,-79.8999012,369.411359212,0.36000002861,0.0,0.0,0.0,0.36000002861,0.0,0.0,0.0,1.44000011444,1,129.26981536572643,265.93845838749786,369.40449362324046,14.162421202777029,-9.27496241604513,-0.02469158889376717,0,Fixed-Wing
1970-01-01 00:00:53.207634464,4562,1538768452174021767,base_link,0,1,40.5925048,-79.8998386,369.441438004,0.36000002861,0.0,0.0,0.0,0.36000002861,0.0,0.0,0.0,1.44000011444,1,134.56935920942544,261.8740323616955,369.4346315410526,13.252172652410636,-10.163605965997334,0.07536363543928291,0,Fixed-Wing
1970-01-01 00:00:53.587804032,4564,1538768452552509351,base_link,0,1,40.592467,-79.8997787,369.371514559,0.396899993992,0.0,0.0,0.0,0.396899993992,0.0,0.0,0.0,1.58759997597,1,139.64033755726297,257.67633876971945,369.3647706299678,12.680616023599711,-10.496858194488814,-0.1746959517000379,0,Fixed-Wing
1970-01-01 00:00:53.966936672,4566,1538768452932883303,base_link,0,1,40.5924287,-79.8997205,369.451589607,0.396899993992,0.0,0.0,0.0,0.396899993992,0.0,0.0,0.0,1.58759997597,1,144.5674104233637,253.4231256869971,369.4449068863467,12.320762355840785,-10.635691629713278,0.20039073863196097,0,Fixed-Wing
1970-01-01 00:00:54.389485376,4568,1538768453355676231,base_link,0,1,40.5923909,-79.8996628,369.551663957,0.396899993992,0.0,0.0,0.0,0.396899993992,0.0,0.0,0.0,1.58759997597,1,149.45216026106758,249.22544196050305,369.545034617065,12.214928326341283,-10.496833524616312,0.2503819222763872,0,Fixed-Wing
1970-01-01 00:00:54.818764736,4570,1538768453783204551,base_link,0,1,40.5923549,-79.8996043,369.771738399,0.396899993992,0.0,0.0,0.0,0.396899993992,0.0,0.0,0.0,1.58759997597,1,154.40463955969824,245.22766183727424,369.76514659802433,12.384294320156698,-9.996949545458383,0.5504175567874529,0,Fixed-Wing
1970-01-01 00:00:55.218033280,4572,1538768454183950759,base_link,0,1,40.5923206,-79.899545,369.911812971,0.396899993992,0.0,0.0,0.0,0.396899993992,0.0,0.0,0.0,1.58759997597,1,159.42484356116108,241.4186724036105,369.9052435067541,12.55364841576105,-9.52485479785885,0.35032985428804225,0,Fixed-Wing
1970-01-01 00:00:55.603415552,4574,1538768454569506823,base_link,0,1,40.5922884,-79.8994846,370.001887814,0.396899993992,0.0,0.0,0.0,0.396899993992,0.0,0.0,0.0,1.58759997597,1,164.53816851559495,237.84289662946182,369.9953233479267,12.786509013337994,-8.94167485408519,0.22525591691075278,0,Fixed-Wing
1970-01-01 00:00:55.977964192,4576,1538768454943546631,base_link,0,1,40.5922582,-79.8994231,370.071962968,0.396899993992,0.0,0.0,0.0,0.396899993992,0.0,0.0,0.0,1.58759997597,1,169.7446150096071,234.4892306525329,370.0653867436087,13.019371077799804,-8.386261507699198,0.17520228977740504,0,Fixed-Wing
1970-01-01 00:00:56.394911776,4578,1538768455360984295,base_link,0,1,40.5922292,-79.899361,369.972038253,0.396899993992,0.0,0.0,0.0,0.396899993992,0.0,0.0,0.0,1.58759997597,1,175.00185240183782,231.2688262607706,369.96543802522115,13.146380075595737,-8.053024235464655,-0.24993427953879924,0,Fixed-Wing
1970-01-01 00:00:56.834875104,4580,1538768455800678119,base_link,0,1,40.5922009,-79.8992984,369.542113774,0.396899993992,0.0,0.0,0.0,0.396899993992,0.0,0.0,0.0,1.58759997597,1,180.30141122688156,228.1261516305541,369.5354796026397,13.252210115138116,-7.8586512383508484,-1.07516484766547,0,Fixed-Wing
1970-01-01 00:00:57.213998464,4582,1538768456179686823,base_link,0,1,40.5921728,-79.899235,369.042190042,0.396899993992,0.0,0.0,0.0,0.396899993992,0.0,0.0,0.0,1.58759997597,1,185.66869644256357,225.00569091283103,369.0355132260429,13.421568431312872,-7.803102569950145,-1.2502284986167311,0,Fixed-Wing
1970-01-01 00:00:57.622235264,4584,1538768456583435559,base_link,0,1,40.5921448,-79.8991706,368.442267304,0.396899993992,0.0,0.0,0.0,0.396899993992,0.0,0.0,0.0,1.58759997597,1,191.12063859146826,221.89633849440898,368.43553888207555,13.633263688183776,-7.77532487727444,-1.50031093765278,0,Fixed-Wing
1970-01-01 00:00:58.011667936,4586,1538768456977878823,base_link,0,1,40.5921166,-79.8991054,367.78234548,0.396899993992,0.0,0.0,0.0,0.396899993992,0.0,0.0,0.0,1.58759997597,1,196.6403082693316,218.76477989567155,367.77555795998126,13.802624850871053,-7.8308542103961685,-1.650364896459844,0,Fixed-Wing
1970-01-01 00:00:58.363493216,4588,1538768457329994087,base_link,0,1,40.5920872,-79.8990401,367.32242427,0.396899993992,0.0,0.0,0.0,0.396899993992,0.0,0.0,0.0,1.58759997597,1,202.16845704796668,215.4999701278034,367.31557558454676,13.823827903563604,-8.164065436029368,-1.1502434994610966,0,Fixed-Wing
1970-01-01 00:00:58.823796704,4590,1538768457790195463,base_link,0,1,40.5920567,-79.8989749,367.11250343,0.396899993992,0.0,0.0,0.0,0.396899993992,0.0,0.0,0.0,1.58759997597,1,207.68815574030796,212.1130153672051,367.105591469434,13.802697405204501,-8.469504277565177,-0.525091560672105,0,Fixed-Wing
1970-01-01 00:00:59.195177568,4592,1538768458161353991,base_link,0,1,40.5920258,-79.8989093,366.772583181,0.396899993992,0.0,0.0,0.0,0.396899993992,0.0,0.0,0.0,1.58759997597,1,213.24171868993548,208.68164066480375,366.7656016983464,13.887379218873518,-8.580581901478727,-0.8501869744625493,0,Fixed-Wing
1970-01-01 00:00:59.633224096,4594,1538768458599471239,base_link,0,1,40.5919942,-79.8988439,366.402663035,0.396899993992,0.0,0.0,0.0,0.396899993992,0.0,0.0,0.0,1.58759997597,1,218.77835607091276,205.17253232598478,366.3956084391933,13.845054716122238,-8.77496458819449,-0.9252144514956014,0,Fixed-Wing
1970-01-01 00:01:00.019340064,4596,1538768458985788167,base_link,0,1,40.5919622,-79.8987781,366.232743481,0.396899993992,0.0,0.0,0.0,0.396899993992,0.0,0.0,0.0,1.58759997597,1,224.34886908572537,201.61901491230645,366.225609253789,13.929764978276081,-8.886015037955293,-0.4251042395706975,0,Fixed-Wing
1970-01-01 00:01:00.407189600,4598,1538768459372473479,base_link,0,1,40.5919308,-79.8987113,366.022824715,0.396899993992,0.0,0.0,0.0,0.396899993992,0.0,0.0,0.0,1.58759997597,1,230.00404041303707,198.13213468828576,366.0155988923482,14.141463684200316,-8.719380405153025,-0.5251571929002817,0,Fixed-Wing
1970-01-01 00:01:00.835782560,4600,1538768459801472039,base_link,0,1,40.5918998,-79.8986439,365.892906413,0.396899993992,0.0,0.0,0.0,0.396899993992,0.0,0.0,0.0,1.58759997597,1,235.7100123040655,194.68968402216265,365.88557884359557,14.268496851783976,-8.608278734991519,-0.3251314047327148,0,Fixed-Wing
1970-01-01 00:01:01.160816352,4602,1538768460127127367,base_link,0,1,40.5918698,-79.8985753,365.952988938,0.396899993992,0.0,0.0,0.0,0.396899993992,0.0,0.0,0.0,1.58759997597,1,241.51758105866054,191.3582992986777,365.9455454827587,14.522552524618789,-8.330544444823568,0.1499540864294117,0,Fixed-Wing
1970-01-01 00:01:01.584953184,4604,1538768460551276295,base_link,0,1,40.5918403,-79.8985063,366.063071681,0.396899993992,0.0,0.0,0.0,0.396899993992,0.0,0.0,0.0,1.58759997597,1,247.35901797215627,188.08244786174424,366.05550236286683,14.60724409476301,-8.191676511461528,0.27496094050548436,0,Fixed-Wing
1970-01-01 00:01:01.976663872,4606,1538768460942644423,base_link,0,1,40.5918104,-79.8984383,366.293153586,0.396899993992,0.0,0.0,0.0,0.396899993992,0.0,0.0,0.0,1.58759997597,1,253.11580953669434,184.762180548696,366.2854560187403,14.395577805796641,-8.302743968612774,0.5750278966578823,0,Fixed-Wing
1970-01-01 00:01:02.385650208,4608,1538768461351850247,base_link,0,1,40.5917799,-79.898372,366.503234021,0.396899993992,0.0,0.0,0.0,0.396899993992,0.0,0.0,0.0,1.58759997597,1,258.7286912650162,181.37528043948257,366.49540901674425,14.035713249116947,-8.469367614937305,0.5250137484469314,0,Fixed-Wing
1970-01-01 00:01:02.812789984,4610,1538768461778765639,base_link,0,1,40.5917493,-79.8983073,366.70331288,0.396899993992,0.0,0.0,0.0,0.396899993992,0.0,0.0,0.0,1.58759997597,1,264.2061271930529,177.9772740248349,366.69535961784464,13.697014073610148,-8.49714032169956,0.5000015031267749,0,Fixed-Wing
1970-01-01 00:01:03.233439520,4612,1538768462199658471,base_link,0,1,40.5917187,-79.8982434,366.923390937,0.396899993992,0.0,0.0,0.0,0.396899993992,0.0,0.0,0.0,1.58759997597,1,269.61584364425704,174.57926953849113,366.91530576383053,13.527673046271902,-8.497135499734384,0.550002865681137,0,Fixed-Wing
1970-01-01 00:01:03.613052896,4614,1538768462579528583,base_link,0,1,40.5916885,-79.8981801,366.953468231,0.396899993992,0.0,0.0,0.0,0.396899993992,0.0,0.0,0.0,1.58759997597,1,274.9747613130633,171.2256827477458,366.94524574226364,13.400644333098953,-8.386063492736533,0.07486866324857666,0,Fixed-Wing
1970-01-01 00:01:04.003120704,4616,1538768462969453415,base_link,0,1,40.5916586,-79.8981173,366.883544904,0.396899993992,0.0,0.0,0.0,0.396899993992,0.0,0.0,0.0,1.58759997597,1,280.29134963986945,167.90541129155434,366.87517981661625,13.294794515644263,-8.302754329060889,-0.17520861627252843,0,Fixed-Wing
1970-01-01 00:01:04.361764096,4618,1538768463327945159,base_link,0,1,40.5916289,-79.8980545,366.703621508,0.396899993992,0.0,0.0,0.0,0.396899993992,0.0,0.0,0.0,1.58759997597,1,285.607936816034,164.60735135849646,366.69510708567964,13.294791638320946,-8.247211635553603,-0.4502944009417736,0,Fixed-Wing
1970-01-01 00:01:04.831967360,4620,1538768463798310023,base_link,0,1,40.5915992,-79.8979915,366.523698333,0.396899993992,0.0,0.0,0.0,0.396899993992,0.0,0.0,0.0,1.58759997597,1,290.9414598394795,161.30929607840181,366.5150276716845,13.337141844074718,-8.24720000023667,-0.45031111276605384,0,Fixed-Wing
1970-01-01 00:01:05.202956096,4622,1538768464169087847,base_link,0,1,40.5915698,-79.8979283,366.423775252,0.396899993992,0.0,0.0,0.0,0.396899993992,0.0,0.0,0.0,1.58759997597,1,296.29192111860897,158.04456320567374,366.4149405753523,13.379498072341812,-8.163873150107715,-0.2502803109081633,0,Fixed-Wing
1970-01-01 00:01:05.606391776,4624,1538768464572798343,base_link,0,1,40.591541,-79.8978646,366.503852447,0.435600034618,0.0,0.0,0.0,0.435600034618,0.0,0.0,0.0,1.74240013847,1,301.68472136708914,154.84647183086122,366.494843978491,13.485371964191476,-7.997227743967294,0.19980845996174276,0,Fixed-Wing
1970-01-01 00:01:06.015446176,4626,1538768464981950983,base_link,0,1,40.591512,-79.8978012,366.713929434,0.435600034618,0.0,0.0,0.0,0.435600034618,0.0,0.0,0.0,1.74240013847,1,307.0521363424855,151.6261758626524,366.70474276155824,13.421892911718789,-8.052753108799276,0.5248781772123461,0,Fixed-Wing
1970-01-01 00:01:06.398135104,4628,1538768465364556807,base_link,0,1,40.5914835,-79.8977383,366.864005716,0.435600034618,0.0,0.0,0.0,0.435600034618,0.0,0.0,0.0,1.74240013847,1,312.3772223630731,148.46140659993665,366.8546354751299,13.316044062484634,-7.913901632197392,0.3748254903017252,0,Fixed-Wing
1970-01-01 00:01:06.781593600,4630,1538768465747540135,base_link,0,1,40.5914557,-79.8976757,367.044081412,0.435600034618,0.0,0.0,0.0,0.435600034618,0.0,0.0,0.0,1.74240013847,1,317.676914112238,145.37437730901553,367.034521076277,13.252542508539474,-7.719503103078577,0.4498264594825645,0,Fixed-Wing
1970-01-01 00:01:07.189015680,4632,1538768466155224487,base_link,0,1,40.5914279,-79.8976135,367.294156713,0.435600034618,0.0,0.0,0.0,0.435600034618,0.0,0.0,0.0,1.74240013847,1,322.94275110953606,142.28735172329078,367.2844020999919,13.167884464361187,-7.719493837771307,0.6248587739807954,0,Fixed-Wing
1970-01-01 00:01:07.590193568,4634,1538768466552434279,base_link,0,1,40.5914006,-79.8975516,367.574231512,0.435600034618,0.0,0.0,0.0,0.435600034618,0.0,0.0,0.0,1.74240013847,1,328.1831947340789,139.25585538391,367.56427687148323,13.104385157646462,-7.58063600745385,0.6998618942018908,0,Fixed-Wing
1970-01-01 00:01:07.989821856,4636,1538768466956127175,base_link,0,1,40.5913736,-79.8974898,367.634306096,0.435600034618,0.0,0.0,0.0,0.435600034618,0.0,0.0,0.0,1.74240013847,1,333.415164353439,136.25767311771716,367.624145413046,13.083194847112136,-7.497329997981565,0.1497087811021861,0,Fixed-Wing
1970-01-01 00:01:08.405523008,4638,1538768467371776263,base_link,0,1,40.591346,-79.8974281,367.554380845,0.435600034618,0.0,0.0,0.0,0.435600034618,0.0,0.0,0.0,1.74240013847,1,338.638668130001,133.19285970490859,367.5440102662768,13.06202494764187,-7.6639495194012905,-0.20038796391392902,0,Fixed-Wing
1970-01-01 00:01:08.774349696,4640,1538768467740671783,base_link,0,1,40.5913173,-79.8973668,367.25445566,0.435600034618,0.0,0.0,0.0,0.435600034618,0.0,0.0,0.0,1.74240013847,1,343.8283068279058,130.00588631320085,367.24387375637787,12.977341080032003,-7.969425835728278,-0.7505289069741139,0,Fixed-Wing
1970-01-01 00:01:09.212283392,4642,1538768468178559047,base_link,0,1,40.5912871,-79.8973062,366.924530403,0.435600034618,0.0,0.0,0.0,0.435600034618,0.0,0.0,0.0,1.74240013847,1,348.95869530333493,126.65233484902714,366.9137379163359,12.82917848319362,-8.38597515422282,-0.82554598660159,0,Fixed-Wing
1970-01-01 00:01:09.571240864,4644,1538768468537692263,base_link,0,1,40.5912561,-79.8972458,366.624605293,0.435600034618,0.0,0.0,0.0,0.435600034618,0.0,0.0,0.0,1.74240013847,1,354.07216221876115,123.20994512522913,366.61359899625677,12.78686400456668,-8.60812634108031,-0.7505349339312851,0,Fixed-Wing
1970-01-01 00:01:09.990666848,4646,1538768468957084039,base_link,0,1,40.5912244,-79.8971854,366.284680493,0.435600034618,0.0,0.0,0.0,0.435600034618,0.0,0.0,0.0,1.74240013847,1,359.1856348709269,119.68982181388807,366.2734558917001,12.786878350001851,-8.802508905579026,-0.8505704039926473,0,Fixed-Wing
1970-01-01 00:01:10.398371232,4648,1538768469364443879,base_link,0,1,40.5911924,-79.8971248,365.904756039,0.435600034618,0.0,0.0,0.0,0.435600034618,0.0,0.0,0.0,1.74240013847,1,364.31604269881,116.13638678153077,365.8933067335521,12.829226876426903,-8.885809033151537,-0.9506105480070393,0,Fixed-Wing
1970-01-01 00:01:10.831554112,4650,1538768469797793895,base_link,0,1,40.5911607,-79.8970636,365.73483209,0.435600034618,0.0,0.0,0.0,0.435600034618,0.0,0.0,0.0,1.74240013847,1,369.49725995904845,112.61627767806857,365.7231484465485,12.95628222115139,-8.80247337699976,-0.4255020930321921,0,Fixed-Wing
1970-01-01 00:01:11.213481824,4652,1538768470179882791,base_link,0,1,40.5911302,-79.8970008,365.754909291,0.435600034618,0.0,0.0,0.0,0.435600034618,0.0,0.0,0.0,1.74240013847,1,374.81393875938585,109.22944532449802,365.7429749270309,13.295020756032507,-8.469198183472255,0.049578595854912075,0,Fixed-Wing
1970-01-01 00:01:11.600153152,4654,1538768470566285639,base_link,0,1,40.5911019,-79.896936,365.764987629,0.435600034618,0.0,0.0,0.0,0.435600034618,0.0,0.0,0.0,1.74240013847,1,380.2999250419435,106.08694049999667,365.7527821691494,13.718395305220389,-7.858226617907838,0.024524236355298396,0,Fixed-Wing
1970-01-01 00:01:11.986119488,4656,1538768470951863015,base_link,0,1,40.5910774,-79.8968685,365.795067147,0.435600034618,0.0,0.0,0.0,0.435600034618,0.0,0.0,0.0,1.74240013847,1,386.0144715731802,103.36645098138396,365.78256367864697,14.289938812794931,-6.802924527663689,0.07447239184191483,0,Fixed-Wing
1970-01-01 00:01:12.387883712,4658,1538768471354227143,base_link,0,1,40.5910579,-79.896797,365.855148669,0.435600034618,0.0,0.0,0.0,0.435600034618,0.0,0.0,0.0,1.74240013847,1,392.067626555338,101.20124608838438,365.842311332294,15.136671623300378,-5.414365823954946,0.14940648573902654,0,Fixed-Wing
1970-01-01 00:01:12.814295232,4660,1538768471780708199,base_link,0,1,40.5910446,-79.8967218,365.825231381,0.435600034618,0.0,0.0,0.0,0.435600034618,0.0,0.0,0.0,1.74240013847,1,398.4339770478568,99.7245862688203,365.8120234197123,15.919856195345814,-3.692572692083213,-0.0757387161332443,0,Fixed-Wing
1970-01-01 00:01:13.251391584,4662,1538768472217772519,base_link,0,1,40.5910384,-79.8966436,365.745314183,0.435600034618,0.0,0.0,0.0,0.435600034618,0.0,0.0,0.0,1.74240013847,1,405.05425776135843,99.03641692858562,365.73170058973005,16.554840493877578,-1.720853563977694,-0.2008572892779818,0,Fixed-Wing
1970-01-01 00:01:13.595026176,4664,1538768472561353639,base_link,0,1,40.5910411,-79.8965631,365.645395596,0.435600034618,0.0,0.0,0.0,0.435600034618,0.0,0.0,0.0,1.74240013847,1,411.86919685460595,99.33663022857084,365.6313415314088,17.041608135152583,0.7507209301955902,-0.2509603858996247,0,Fixed-Wing
1970-01-01 00:01:13.994144224,4666,1538768472960571495,base_link,0,1,40.5910541,-79.8964815,365.635473795,0.384400005913,0.0,0.0,0.0,0.384400005913,0.0,0.0,0.0,1.53760002365,1,418.7772005261794,100.78069603928108,365.620947859334,17.274327760873852,3.6110672935990054,-0.025990677856388377,0,Fixed-Wing
1970-01-01 00:01:14.469599232,4668,1538768473435930535,base_link,0,1,40.5910768,-79.8964013,365.62554647,0.384400005913,0.0,0.0,0.0,0.384400005913,0.0,0.0,0.0,1.53760002365,1,425.5666189790324,103.30196969733711,365.61053136878405,16.977790579777444,6.304760335223886,-0.02604773830950616,0,Fixed-Wing
1970-01-01 00:01:14.780960864,4670,1538768473747424103,base_link,0,1,40.5911086,-79.8963245,365.635611822,0.384400005913,0.0,0.0,0.0,0.384400005913,0.0,0.0,0.0,1.53760002365,1,432.0681389564923,106.83380997399308,365.62010193186126,16.257864409752205,8.831808643800876,0.02393239079070892,0,Fixed-Wing
1970-01-01 00:01:15.197016768,4672,1538768474163336487,base_link,0,1,40.591149,-79.8962527,365.725668422,0.384400005913,0.0,0.0,0.0,0.384400005913,0.0,0.0,0.0,1.53760002365,1,438.1463132298804,111.32068305717738,365.70966758274335,15.199235492343266,11.219987704886954,0.22397011973516742,0,Fixed-Wing
1970-01-01 00:01:15.613258272,4674,1538768474579602375,base_link,0,1,40.5911979,-79.8961887,365.805713442,0.384400005913,0.0,0.0,0.0,0.384400005913,0.0,0.0,0.0,1.53760002365,1,443.5640932439524,116.75146714497737,365.789241347883,13.5478369944287,13.580355308327063,0.1989841588887922,0,Fixed-Wing
1970-01-01 00:01:15.995852064,4676,1538768474958492103,base_link,0,1,40.5912549,-79.8961345,365.975745,0.384400005913,0.0,0.0,0.0,0.384400005913,0.0,0.0,0.0,1.53760002365,1,448.15217273340096,123.08173162492307,365.95883335129076,11.473066990368958,15.829618604515373,0.42408603002697126,0,Fixed-Wing
1970-01-01 00:01:16.403839168,4678,1538768475370102535,base_link,0,1,40.5913193,-79.8960924,365.975761036,0.384400005913,0.0,0.0,0.0,0.384400005913,0.0,0.0,0.0,1.53760002365,1,451.71582620279503,130.23372152239122,365.9584559999881,8.911361513863639,17.884445855134175,-0.000943614160261482,0,Fixed-Wing
1970-01-01 00:01:16.813069184,4680,1538768475779384263,base_link,0,1,40.5913893,-79.8960634,365.95576129,0.384400005913,0.0,0.0,0.0,0.384400005913,0.0,0.0,0.0,1.53760002365,1,454.1704205100741,138.00753859495052,365.9381183350953,6.138020273266018,19.43940253203125,-0.050856876451094955,0,Fixed-Wing
1970-01-01 00:01:17.188343008,4682,1538768476154866087,base_link,0,1,40.5914632,-79.8960507,365.845743201,0.384400005913,0.0,0.0,0.0,0.384400005913,0.0,0.0,0.0,1.53760002365,1,455.2450614251025,146.21437444266746,365.8278404501931,2.687274106097516,20.52222017433595,-0.2757636531687642,0,Fixed-Wing
1970-01-01 00:01:17.593946496,4684,1538768476560449863,base_link,0,1,40.5915388,-79.896055,365.835706982,0.36000002861,0.0,0.0,0.0,0.36000002861,0.0,0.0,0.0,1.44000011444,1,454.88052168789426,154.60991382950732,365.8176317381333,-0.9115772373299502,20.994096991347483,-0.0255281621900653,0,Fixed-Wing
1970-01-01 00:01:17.981210368,4686,1538768476947533991,base_link,0,1,40.5916132,-79.8960744,366.065655808,0.36000002861,0.0,0.0,0.0,0.36000002861,0.0,0.0,0.0,1.44000011444,1,453.23768434894595,162.87211874341205,366.04749121913164,-4.108120377465145,20.660677454125345,0.5747924005960414,0,Fixed-Wing
1970-01-01 00:01:18.383758272,4688,1538768477350209671,base_link,0,1,40.5916851,-79.8961021,366.735597202,0.36000002861,0.0,0.0,0.0,0.36000002861,0.0,0.0,0.0,1.44000011444,1,450.89224443025057,170.85666296578984,366.7173892144831,-5.865066063254255,19.966352143980476,1.6751637793234513,0,Fixed-Wing
