time,field.header.seq,field.header.stamp,field.header.frame_id,field.status.status,field.status.service,lat,lon,alt,field.position_covariance0,field.position_covariance1,field.position_covariance2,field.position_covariance3,field.position_covariance4,field.position_covariance5,field.position_covariance6,field.position_covariance7,field.position_covariance8,field.position_covariance_type,x,y,z,vel_x,vel_y,vel_z,track_id,uav_category
1970-01-01 00:00:00.000000000,7825,1532985838201242204,base_link,0,1,40.5915589,-79.8967803,392.73495494,0.50409996953,0.0,0.0,0.0,0.50409996953,0.0,0.0,0.0,2.01639987812,1,386.63133139354954,148.03238722311085,392.721531832547,-17.297473109632733,4.331597078678793,-1.6248380627884988,0,Fixed-Wing
1970-01-01 00:00:00.372553067,7827,1532985838574040554,base_link,0,1,40.5915745,-79.896862,392.084864692,0.50409996953,0.0,0.0,0.0,0.50409996953,0.0,0.0,0.0,2.01639987812,1,379.71467730856625,149.76444128897674,392.07181596057006,-17.297473109632733,4.331597078678793,-1.6248380627884988,0,Fixed-Wing
1970-01-01 00:00:00.782293363,7829,1532985838981848574,base_link,0,1,40.5915939,-79.8969452,391.35477133,0.50409996953,0.0,0.0,0.0,0.50409996953,0.0,0.0,0.0,2.01639987812,1,372.671015742156,151.91849400938528,391.34208636424137,-17.615099011942192,5.386949896611465,-1.8249399080407027,0,Fixed-Wing
1970-01-01 00:00:01.162522639,7831,1532985839362849657,base_link,0,1,40.5916192,-79.8970296,390.444674284,0.50409996953,0.0,0.0,0.0,0.50409996953,0.0,0.0,0.0,2.01639987812,1,365.5257284071711,154.7277552955507,390.43233450386583,-17.869249209070347,7.02552432987489,-2.2751475132245536,0,Fixed-Wing
1970-01-01 00:00:01.603774962,7833,1532985839805270063,base_link,0,1,40.5916515,-79.897113,389.274575351,0.50409996953,0.0,0.0,0.0,0.50409996953,0.0,0.0,0.0,2.01639987812,1,358.4650539864352,158.31438999290077,389.2625474795144,-17.65764550719841,8.969613988096143,-2.925454901907948,0,Fixed-Wing
1970-01-01 00:00:01.974875132,7835,1532985840176323742,base_link,0,1,40.5916913,-79.8971929,388.044476885,0.50409996953,0.0,0.0,0.0,0.50409996953,0.0,0.0,0.0,2.01639987812,1,351.7006472377579,162.73393849780985,388.0327135453216,-16.91672626680827,11.052601515284092,-3.0756228581966694,0,Fixed-Wing
1970-01-01 00:00:02.371038360,7837,1532985840572566929,base_link,0,1,40.5917376,-79.8972682,387.074380436,0.50409996953,0.0,0.0,0.0,0.50409996953,0.0,0.0,0.0,2.01639987812,1,345.3256554028239,167.87535939631405,387.06283134862974,-15.942860302687174,12.857891784737868,-2.4255241061154535,0,Fixed-Wing
1970-01-01 00:00:02.765220066,7839,1532985840966586350,base_link,0,1,40.5917879,-79.8973391,386.154286847,0.50409996953,0.0,0.0,0.0,0.50409996953,0.0,0.0,0.0,2.01639987812,1,339.3231486083958,173.4610135846109,386.14290962336884,-15.011333311062698,13.968849957602798,-2.3005807591584806,0,Fixed-Wing
1970-01-01 00:00:03.190855377,7841,1532985841392255129,base_link,0,1,40.5918404,-79.8974066,385.234195848,0.50409996953,0.0,0.0,0.0,0.50409996953,0.0,0.0,0.0,2.01639987812,1,333.6084759621479,179.29099996582727,385.2229580383493,-14.29150499855674,14.579886664790296,-2.3006554337577243,0,Fixed-Wing
1970-01-01 00:00:03.535303515,7843,1532985841736754524,base_link,0,1,40.5918936,-79.8974726,384.204106122,0.50409996953,0.0,0.0,0.0,0.50409996953,0.0,0.0,0.0,2.01639987812,1,328.02079045518406,185.1987283941453,384.19298848980065,-13.973929968774087,14.774307399542403,-2.575793201577156,0,Fixed-Wing
1970-01-01 00:00:03.977359527,7845,1532985842178944184,base_link,0,1,40.5919463,-79.8975384,383.024016838,0.50409996953,0.0,0.0,0.0,0.50409996953,0.0,0.0,0.0,2.01639987812,1,322.4500418340319,191.0509290210515,383.01300982151054,-13.931573458922827,14.635441028612682,-2.9509426138574733,0,Fixed-Wing
1970-01-01 00:00:04.377328685,7847,1532985842578810763,base_link,0,1,40.5919984,-79.8976049,381.663927117,0.50409996953,0.0,0.0,0.0,0.50409996953,0.0,0.0,0.0,2.01639987812,1,316.82003808087114,196.8364919914548,381.6530254767435,-14.079761302341378,14.468790642850223,-3.401108736116045,0,Fixed-Wing
1970-01-01 00:00:04.776699834,7849,1532985842978176216,base_link,0,1,40.5920498,-79.8976731,380.033835979,0.50409996953,0.0,0.0,0.0,0.50409996953,0.0,0.0,0.0,2.01639987812,1,311.046118945477,202.544305322284,380.02303897714,-14.439671227524597,14.274350920508663,-4.076342014438597,0,Fixed-Wing
1970-01-01 00:00:05.171981438,7851,1532985843373509109,base_link,0,1,40.5921008,-79.8977421,378.013744218,0.50409996953,0.0,0.0,0.0,0.50409996953,0.0,0.0,0.0,2.01639987812,1,305.20446938987686,208.2076836620405,378.00304620381405,-14.609054444875536,14.16322593814535,-5.051686877636084,0,Fixed-Wing
1970-01-01 00:00:05.586034984,7853,1532985843787363255,base_link,0,1,40.5921517,-79.8978128,375.72365079,0.50409996953,0.0,0.0,0.0,0.50409996953,0.0,0.0,0.0,2.01639987812,1,299.21890390394077,213.85994292265224,375.713048497551,-14.968965740777742,14.135418855393052,-5.726927103555148,0,Fixed-Wing
1970-01-01 00:00:05.984907671,7855,1532985844186068440,base_link,0,1,40.5922032,-79.8978852,373.203555405,0.50409996953,0.0,0.0,0.0,0.50409996953,0.0,0.0,0.0,2.01639987812,1,293.089422479678,219.57882090239616,373.19304250969117,-15.328877056663604,14.302021881744894,-6.302141942555122,0,Fixed-Wing
1970-01-01 00:00:06.393983404,7857,1532985844582059464,base_link,0,1,40.5922562,-79.8979588,370.693458204,0.50409996953,0.0,0.0,0.0,0.50409996953,0.0,0.0,0.0,2.01639987812,1,286.8583616003581,225.46427464372638,370.6830223478285,-15.582911430907675,14.718601881460552,-6.2771689491769855,0,Fixed-Wing
1970-01-01 00:00:06.787902921,7859,1532985844988869472,base_link,0,1,40.5923108,-79.8980335,368.393359247,0.50409996953,0.0,0.0,0.0,0.50409996953,0.0,0.0,0.0,2.01639987812,1,280.5341960140726,231.52741707961275,368.3829865347613,-15.815751781940055,15.162973593303645,-5.752030843077566,0,Fixed-Wing
1970-01-01 00:00:07.165373263,7861,1532985845363801221,base_link,0,1,40.5923663,-79.898109,366.373259135,0.50409996953,0.0,0.0,0.0,0.50409996953,0.0,0.0,0.0,2.01639987812,1,274.1423286132949,237.6905157067865,366.3629366991641,-15.985063460862287,15.412948438032217,-5.051829581476762,0,Fixed-Wing
1970-01-01 00:00:07.579908065,7863,1532985845780650769,base_link,0,1,40.5924236,-79.8981834,364.693159436,0.50409996953,0.0,0.0,0.0,0.50409996953,0.0,0.0,0.0,2.01639987812,1,267.8436046662194,244.0535266591092,364.68286334336614,-15.752126210284795,15.912897983876299,-4.201601429977513,0,Fixed-Wing
1970-01-01 00:00:08.013137754,7865,1532985846214382481,base_link,0,1,40.5924826,-79.8982554,363.523061521,0.50409996953,0.0,0.0,0.0,0.50409996953,0.0,0.0,0.0,2.01639987812,1,261.748083596299,250.60535589351056,363.512763440842,-15.243947507084592,16.385103058285587,-2.926237361419872,0,Fixed-Wing
1970-01-01 00:00:08.405761897,7867,1532985846607045372,base_link,0,1,40.5925441,-79.8983222,362.752967919,0.50409996953,0.0,0.0,0.0,0.50409996953,0.0,0.0,0.0,2.01639987812,1,256.0927930356829,257.434849974022,362.7426264253205,-14.142999663926812,17.079499532370697,-1.9259925612931124,0,Fixed-Wing
1970-01-01 00:00:08.777277843,7869,1532985846978736754,base_link,0,1,40.5926086,-79.8983814,362.062880872,0.50409996953,0.0,0.0,0.0,0.50409996953,0.0,0.0,0.0,2.01639987812,1,251.08089087287652,264.59752881159216,362.05244452228294,-12.533985627165151,17.912742644568,-1.7260372951810463,0,Fixed-Wing
1970-01-01 00:00:09.167865426,7871,1532985847367025327,base_link,0,1,40.5926769,-79.89843,361.482803112,0.50409996953,0.0,0.0,0.0,0.50409996953,0.0,0.0,0.0,2.01639987812,1,246.96634112392698,272.18224285351863,361.4722072408389,-10.28984719580244,18.968186867884096,-1.451082944103775,0,Fixed-Wing
1970-01-01 00:00:09.580879066,7873,1532985847782359510,base_link,0,1,40.5927493,-79.8984659,361.072736658,0.50409996953,0.0,0.0,0.0,0.50409996953,0.0,0.0,0.0,2.01639987812,1,243.92691944920188,280.2223150698766,361.06190856813134,-7.6011195646658365,20.106966642136573,-1.0260929881523524,0,Fixed-Wing
1970-01-01 00:00:10.011347676,7875,1532985848209150378,base_link,0,1,40.592824,-79.8984902,360.562681127,0.50409996953,0.0,0.0,0.0,0.50409996953,0.0,0.0,0.0,2.01639987812,1,241.86949758646037,288.5178352362426,360.5515605272825,-5.145291192631278,20.745802124131973,-1.276300853660209,0,Fixed-Wing
1970-01-01 00:00:10.366314933,7877,1532985848567414234,base_link,0,1,40.5929003,-79.8985,359.962639764,0.50409996953,0.0,0.0,0.0,0.50409996953,0.0,0.0,0.0,2.01639987812,1,241.03957613547573,296.9910738654951,359.95116067873596,-2.075504110098764,21.190248281926344,-1.5015063797695334,0,Fixed-Wing
1970-01-01 00:00:10.773465182,7879,1532985848971606087,base_link,0,1,40.5929764,-79.8984914,359.622617283,0.50409996953,0.0,0.0,0.0,0.50409996953,0.0,0.0,0.0,2.01639987812,1,241.7673263832165,305.4421634721644,359.6107106184904,1.8199898659316824,21.134857030921218,-0.8514125023335047,0,Fixed-Wing
1970-01-01 00:00:11.179379265,7881,1532985849379451061,base_link,0,1,40.5930482,-79.8984649,359.652614852,0.50409996953,0.0,0.0,0.0,0.50409996953,0.0,0.0,0.0,2.01639987812,1,244.01043433781985,313.41579505189833,359.640235130413,5.609663147820754,19.940808972363005,0.07383619952384533,0,Fixed-Wing
1970-01-01 00:00:11.576608144,7883,1532985849778068334,base_link,0,1,40.5931122,-79.8984213,359.972633082,0.50409996953,0.0,0.0,0.0,0.50409996953,0.0,0.0,0.0,2.01639987812,1,247.70118161582997,320.5232818824477,359.95975723872607,9.22998331439391,17.77471604303793,0.7990749585812575,0,Fixed-Wing
1970-01-01 00:00:11.990335534,7885,1532985850191778253,base_link,0,1,40.5931652,-79.8983635,360.44267032,0.50409996953,0.0,0.0,0.0,0.50409996953,0.0,0.0,0.0,2.01639987812,1,252.59407262629395,326.40924391699065,360.4293036404315,12.236357296747611,14.719873043509574,1.174262317795829,0,Fixed-Wing
1970-01-01 00:00:12.366225739,7887,1532985850567685065,base_link,0,1,40.5932048,-79.8982952,361.132723771,0.50409996953,0.0,0.0,0.0,0.50409996953,0.0,0.0,0.0,2.01639987812,1,258.3758956741574,330.80715075786486,361.1188987060582,14.459437679875558,10.99847908887803,1.7245697063426166,0,Fixed-Wing
1970-01-01 00:00:12.767001154,7889,1532985850968184732,base_link,0,1,40.5932317,-79.8982215,361.75278794,0.50409996953,0.0,0.0,0.0,0.50409996953,0.0,0.0,0.0,2.01639987812,1,264.61489774967555,333.7947105245153,361.7385514356018,15.602771124049761,7.471421021220819,1.5496548323648944,0,Fixed-Wing
1970-01-01 00:00:13.176237335,7891,1532985851377670967,base_link,0,1,40.593246,-79.8981449,362.252860237,0.50409996953,0.0,0.0,0.0,0.50409996953,0.0,0.0,0.0,2.01639987812,1,271.09944153287336,335.3830187364057,362.2382682893269,16.216832639010182,3.9721111172279753,1.249713912758423,0,Fixed-Wing
1970-01-01 00:00:13.535801627,7893,1532985851736987861,base_link,0,1,40.5932472,-79.898068,362.782938214,0.50409996953,0.0,0.0,0.0,0.50409996953,0.0,0.0,0.0,2.01639987812,1,277.60943557416283,335.51654912486987,362.7680596143476,16.28047976514442,0.33393867546341965,1.324925474899412,0,Fixed-Wing
1970-01-01 00:00:13.973097871,7895,1532985852174602951,base_link,0,1,40.5932386,-79.8979932,363.073018074,0.50409996953,0.0,0.0,0.0,0.50409996953,0.0,0.0,0.0,2.01639987812,1,283.94168554824563,334.56175235760406,363.05791140570955,15.83596957493854,-2.387797799921985,0.724874123421576,0,Fixed-Wing
1970-01-01 00:00:14.400415251,7897,1532985852601725087,base_link,0,1,40.5932206,-79.8979229,363.513097204,0.50409996953,0.0,0.0,0.0,0.50409996953,0.0,0.0,0.0,2.01639987812,1,289.893037088728,332.5630613842314,363.49782799196777,14.88340199938077,-4.99841439829111,1.100162770580623,0,Fixed-Wing
1970-01-01 00:00:14.771132216,7899,1532985852972594420,base_link,0,1,40.5931971,-79.8978564,363.913174724,0.50409996953,0.0,0.0,0.0,0.50409996953,0.0,0.0,0.0,2.01639987812,1,295.5227253918468,329.9535718287502,363.897783388456,14.07897241098563,-6.525926388859143,1.000226067518347,0,Fixed-Wing
1970-01-01 00:00:15.188892178,7901,1532985853390062892,base_link,0,1,40.5931707,-79.897793,364.353250283,0.50409996953,0.0,0.0,0.0,0.50409996953,0.0,0.0,0.0,2.01639987812,1,300.8900020963258,327.0220256742669,364.33775971625,13.422721929848885,-7.33133971336158,1.1003121748440088,0,Fixed-Wing
1970-01-01 00:00:15.619662413,7903,1532985853820738097,base_link,0,1,40.5931437,-79.8977313,364.803324366,0.50409996953,0.0,0.0,0.0,0.50409996953,0.0,0.0,0.0,2.01639987812,1,306.1133730573297,324.0238461384558,364.7877390032132,13.062836109696686,-7.497979407577853,1.125328015613231,0,Fixed-Wing
1970-01-01 00:00:15.967098776,7905,1532985854168604527,base_link,0,1,40.593118,-79.8976694,365.063398133,0.50409996953,0.0,0.0,0.0,0.50409996953,0.0,0.0,0.0,2.01639987812,1,311.35366472414296,321.17002912334505,365.04770417794725,13.105152155885804,-7.1369512588266915,0.6501323565055136,0,Fixed-Wing
1970-01-01 00:00:16.379636408,7907,1532985854580044127,base_link,0,1,40.5930943,-79.8976056,365.073473033,0.50409996953,0.0,0.0,0.0,0.50409996953,0.0,0.0,0.0,2.01639987812,1,316.75478409862194,318.5383147432619,365.0576458164356,13.50735716924207,-6.581507208890918,0.024862487310288242,0,Fixed-Wing
1970-01-01 00:00:16.781418819,7909,1532985854982258910,base_link,0,1,40.593074,-79.8975373,365.023551145,0.50409996953,0.0,0.0,0.0,0.50409996953,0.0,0.0,0.0,2.01639987812,1,322.5368369819747,316.28419600508204,365.00754703102774,14.460012462588063,-5.6371994002471855,-0.12528924864101706,0,Fixed-Wing
1970-01-01 00:00:17.225475423,7911,1532985855426527715,base_link,0,1,40.5930593,-79.8974626,365.023633506,0.50409996953,0.0,0.0,0.0,0.50409996953,0.0,0.0,0.0,2.01639987812,1,328.8606627287158,314.65200170211904,365.007387867568,15.814901896242679,-4.081863386300378,-0.0003980429888276081,0,Fixed-Wing
1970-01-01 00:00:17.565295510,7913,1532985855766765169,base_link,0,1,40.5930489,-79.8973833,365.083718812,0.50409996953,0.0,0.0,0.0,0.50409996953,0.0,0.0,0.0,2.01639987812,1,335.57388762296085,313.49735865219276,365.06718101346917,16.788728431458264,-2.887582183802729,0.14953333225251864,0,Fixed-Wing
1970-01-01 00:00:17.980973006,7915,1532985856182517633,base_link,0,1,40.5930407,-79.8973007,365.093806597,0.50409996953,0.0,0.0,0.0,0.50409996953,0.0,0.0,0.0,2.01639987812,1,342.56646358300395,312.5870473351539,365.07694239892794,17.487341877991565,-2.276546627083793,0.024411702596560024,0,Fixed-Wing
1970-01-01 00:00:18.364090060,7917,1532985856565391318,base_link,0,1,40.5930337,-79.8972157,364.873896355,0.50409996953,0.0,0.0,0.0,0.50409996953,0.0,0.0,0.0,2.01639987812,1,349.7621953633282,311.81000373948456,364.8566803201819,17.99540289928914,-1.9432648410572078,-0.5508411057382663,0,Fixed-Wing
1970-01-01 00:00:18.787879273,7919,1532985856987383304,base_link,0,1,40.5930253,-79.8971293,364.393988135,0.50409996953,0.0,0.0,0.0,0.50409996953,0.0,0.0,0.0,2.01639987812,1,357.0764386115427,310.87748673835904,364.3764130358597,18.291781596825167,-2.3320795796719347,-1.2010735731364934,0,Fixed-Wing
1970-01-01 00:00:19.162430882,7921,1532985857363723917,base_link,0,1,40.5930164,-79.8970406,363.994082488,0.50409996953,0.0,0.0,0.0,0.50409996953,0.0,0.0,0.0,2.01639987812,1,364.5853972821597,309.8894642721716,363.9761314064055,18.778734499436073,-2.470890090874247,-1.0010419252852447,0,Fixed-Wing
1970-01-01 00:00:19.577398288,7923,1532985857778615267,base_link,0,1,40.593008,-79.8969505,363.894178081,0.50409996953,0.0,0.0,0.0,0.50409996953,0.0,0.0,0.0,2.01639987812,1,372.2128892726104,308.956996174728,363.8758324331314,19.07516784527458,-2.3319572791908065,-0.25083208901531034,0,Fixed-Wing
1970-01-01 00:00:19.980836769,7925,1532985858181132973,base_link,0,1,40.5930003,-79.8968597,364.074274118,0.50409996953,0.0,0.0,0.0,0.50409996953,0.0,0.0,0.0,2.01639987812,1,379.8996544164106,308.1022891697704,364.0555173687114,19.22340075725604,-2.137488914902682,0.4493639992997261,0,Fixed-Wing
1970-01-01 00:00:20.383310157,7927,1532985858584416938,base_link,0,1,40.5929942,-79.8967694,364.024368999,0.50409996953,0.0,0.0,0.0,0.50409996953,0.0,0.0,0.0,2.01639987812,1,387.54407084893023,307.4252605824152,364.0051857711169,19.11749323526595,-1.6931429041181643,-0.12587147560925038,0,Fixed-Wing
1970-01-01 00:00:20.817339335,7929,1532985859018818143,base_link,0,1,40.5929889,-79.8966807,363.864461929,0.50409996953,0.0,0.0,0.0,0.50409996953,0.0,0.0,0.0,2.01639987812,1,395.05302834604623,306.83706928049793,363.84484709708744,18.778731564693082,-1.4709747087573983,-0.40098201650418713,0,Fixed-Wing
1970-01-01 00:00:21.165788055,7931,1532985859367104927,base_link,0,1,40.592983,-79.8965937,364.174553381,0.50409996953,0.0,0.0,0.0,0.50409996953,0.0,0.0,0.0,2.01639987812,1,402.4181056220724,306.18226898036215,364.1545103395595,18.41890957204599,-1.6375534246202483,0.7744194727522633,0,Fixed-Wing
1970-01-01 00:00:21.570732669,7933,1532985859772062756,base_link,0,1,40.5929771,-79.8965085,364.694643005,0.50409996953,0.0,0.0,0.0,0.50409996953,0.0,0.0,0.0,2.01639987812,1,409.63081855965925,305.52747760407203,364.6741729635643,18.03787012513434,-1.637531107474073,1.299595173382897,0,Fixed-Wing
1970-01-01 00:00:22.011421562,7935,1532985860211201204,base_link,0,1,40.5929671,-79.8964267,365.224730856,0.50409996953,0.0,0.0,0.0,0.50409996953,0.0,0.0,0.0,2.01639987812,1,416.55573143666436,304.41736255551217,365.2038661799994,17.318127060395664,-2.776224597201211,1.3246801206285488,0,Fixed-Wing
1970-01-01 00:00:22.421743879,7937,1532985860623050160,base_link,0,1,40.5929532,-79.896348,365.354817158,0.50409996953,0.0,0.0,0.0,0.50409996953,0.0,0.0,0.0,2.01639987812,1,423.21821357907055,302.87411532891366,365.3335881683837,16.66182872320956,-3.859420620955847,0.32441446084125874,0,Fixed-Wing
1970-01-01 00:00:22.773444330,7939,1532985860974840457,base_link,0,1,40.5929338,-79.8962725,365.284902471,0.50409996953,0.0,0.0,0.0,0.50409996953,0.0,0.0,0.0,2.01639987812,1,429.60982285783274,300.72006058088147,365.26334896866297,15.984417937959533,-5.386954967381978,-0.17565728363505545,0,Fixed-Wing
1970-01-01 00:00:23.222100393,7941,1532985861420831363,base_link,0,1,40.5929096,-79.8962005,364.9349862,0.640000019073,0.0,0.0,0.0,0.640000019073,0.0,0.0,0.0,2.56000007629,1,435.70515335186366,298.03292930627686,364.9131462637138,15.243470906508241,-6.720096218985432,-0.8758023456645124,0,Fixed-Wing
1970-01-01 00:00:23.565126406,7943,1532985861766512966,base_link,0,1,40.5928792,-79.8961329,364.585068002,0.640000019073,0.0,0.0,0.0,0.640000019073,0.0,0.0,0.0,2.56000007629,1,441.4280438405568,294.65725631433554,364.56299235468333,14.312056540815442,-8.442031665540407,-0.8756803146824451,0,Fixed-Wing
1970-01-01 00:00:23.992687228,7945,1532985862193892781,base_link,0,1,40.5928411,-79.8960738,364.365144303,0.640000019073,0.0,0.0,0.0,0.640000019073,0.0,0.0,0.0,2.56000007629,1,446.4314264862569,290.42644740731544,364.342915441688,12.512679643629903,-10.580593217761256,-0.5503780350752199,0,Fixed-Wing
1970-01-01 00:00:24.412070160,7947,1532985862611895489,base_link,0,1,40.5927954,-79.8960248,364.475213424,0.640000019073,0.0,0.0,0.0,0.640000019073,0.0,0.0,0.0,2.56000007629,1,450.57986651545036,285.3516070035567,364.4529228922828,10.374601500990249,-12.691384351615524,0.2751114766104095,0,Fixed-Wing
1970-01-01 00:00:24.757828939,7949,1532985862959331680,base_link,0,1,40.5927454,-79.8959864,364.715273487,0.640000019073,0.0,0.0,0.0,0.640000019073,0.0,0.0,0.0,2.56000007629,1,453.83099979319286,279.79919445512536,364.6929993770327,8.130577264182904,-13.885717800836117,0.6003938447974201,0,Fixed-Wing
1970-01-01 00:00:25.164354974,7951,1532985863365795384,base_link,0,1,40.5926917,-79.8959595,365.15532332,0.640000019073,0.0,0.0,0.0,0.640000019073,0.0,0.0,0.0,2.56000007629,1,456.1086357169117,273.8358380048385,365.1331464191287,5.696012213419111,-14.913424406454379,1.100739104687799,0,Fixed-Wing
1970-01-01 00:00:25.574098646,7953,1532985863775501684,base_link,0,1,40.5926365,-79.8959437,365.55536242,0.640000019073,0.0,0.0,0.0,0.640000019073,0.0,0.0,0.0,2.56000007629,1,457.44660252137857,267.705843442219,365.5333507054464,3.3460463017940385,-15.330160335661931,1.0008485021637719,0,Fixed-Wing
1970-01-01 00:00:26.017373166,7955,1532985864215338949,base_link,0,1,40.5925811,-79.8959368,366.025392499,0.640000019073,0.0,0.0,0.0,0.640000019073,0.0,0.0,0.0,2.56000007629,1,458.03113993302674,261.55359446931647,366.00359476777794,1.4618368990738642,-15.38581514486778,1.1760070582109385,0,Fixed-Wing
1970-01-01 00:00:26.373314913,7957,1532985864574325635,base_link,0,1,40.5925264,-79.8959333,366.205418819,0.640000019073,0.0,0.0,0.0,0.640000019073,0.0,0.0,0.0,2.56000007629,1,458.3278222407161,255.4790520514382,366.18384660999055,0.7419561794339742,-15.19148317026562,0.4507817443702567,0,Fixed-Wing
1970-01-01 00:00:26.811105008,7959,1532985865009576756,base_link,0,1,40.5924724,-79.8959326,366.055441993,0.50409996953,0.0,0.0,0.0,0.50409996953,0.0,0.0,0.0,2.01639987812,1,458.38743946326207,249.48221854535555,366.03410346344697,0.14909337537910744,-14.997145301745968,-0.37448425479495634,0,Fixed-Wing
1970-01-01 00:00:27.158079498,7961,1532985865358751753,base_link,0,1,40.5924183,-79.895934,365.925463072,0.50409996953,0.0,0.0,0.0,0.50409996953,0.0,0.0,0.0,2.01639987812,1,458.26928092626605,243.47426996957637,365.9043657510131,-0.2954960724144906,-15.024942357493607,-0.32445378423691407,0,Fixed-Wing
1970-01-01 00:00:27.567846748,7963,1532985865769232058,base_link,0,1,40.5923639,-79.895934,365.595485724,0.50409996953,0.0,0.0,0.0,0.50409996953,0.0,0.0,0.0,2.01639987812,1,458.2696286416733,237.43300579403916,365.5746166785598,0.0008695820020717488,-15.10825947641631,-0.8246510008460263,0,Fixed-Wing
1970-01-01 00:00:27.970655927,7965,1532985866171998457,base_link,0,1,40.5923091,-79.8959333,365.015509276,0.50409996953,0.0,0.0,0.0,0.50409996953,0.0,0.0,0.0,2.01639987812,1,458.32922056270104,231.34731588995487,364.99486013362747,0.14903010022815597,-15.219361294647669,-1.4498806970660316,0,Fixed-Wing
1970-01-01 00:00:28.411224049,7967,1532985866612656715,base_link,0,1,40.5922532,-79.8959326,364.655533302,0.50409996953,0.0,0.0,0.0,0.50409996953,0.0,0.0,0.0,2.01639987812,1,458.3888358686577,225.13947730334024,364.63510256353163,0.14908858228812333,-15.524836098719886,-0.8996975731705382,0,Fixed-Wing
1970-01-01 00:00:28.778136758,7969,1532985866976817541,base_link,0,1,40.592197,-79.8959322,364.535557161,0.50409996953,0.0,0.0,0.0,0.50409996953,0.0,0.0,0.0,2.01639987812,1,458.42307360874065,218.89833045606778,364.5153417402536,0.08562324805364777,-15.608134863697648,-0.2995031405050622,0,Fixed-Wing
1970-01-01 00:00:29.173543689,7971,1532985867374969988,base_link,0,1,40.5921407,-79.8959322,364.465580668,0.50409996953,0.0,0.0,0.0,0.50409996953,0.0,0.0,0.0,2.01639987812,1,458.4234530734262,212.64607825621096,364.44557724108984,0.0009489819952299768,-15.635907618463296,-0.17447013157875518,0,Fixed-Wing
1970-01-01 00:00:29.593830572,7973,1532985867795307202,base_link,0,1,40.5920847,-79.8959336,364.415602629,0.50409996953,0.0,0.0,0.0,0.50409996953,0.0,0.0,0.0,2.01639987812,1,458.30531271648414,206.42713533220095,364.3958124774153,-0.295450606934929,-15.552606314656217,-0.12445391238179265,0,Fixed-Wing
1970-01-01 00:00:30.035819515,7975,1532985868237071588,base_link,0,1,40.5920286,-79.8959354,364.255624238,0.50409996953,0.0,0.0,0.0,0.50409996953,0.0,0.0,0.0,2.01639987812,1,458.1533022966369,200.19708178755275,364.23604406029926,-0.3801543517117412,-15.58039224400285,-0.3995558929039219,0,Fixed-Wing
1970-01-01 00:00:30.343644107,7977,1532985868545056518,base_link,0,1,40.5919718,-79.8959365,364.135646873,0.50409996953,0.0,0.0,0.0,0.50409996953,0.0,0.0,0.0,2.01639987812,1,458.06055897436534,193.8892968112306,364.11626868435883,-0.23193658427616234,-15.774786431225921,-0.29953953444396225,0,Fixed-Wing
1970-01-01 00:00:30.783280734,7979,1532985868983502240,base_link,0,1,40.5919144,-79.895937,363.535670391,0.50409996953,0.0,0.0,0.0,0.50409996953,0.0,0.0,0.0,2.01639987812,1,458.0185792446027,187.51486968095384,363.51648626116685,-0.10498475676205403,-15.941448064413631,-1.4999622952546037,0,Fixed-Wing
1970-01-01 00:00:31.182353727,7981,1532985869382247388,base_link,0,1,40.5918563,-79.8959384,362.805693296,0.50409996953,0.0,0.0,0.0,0.50409996953,0.0,0.0,0.0,2.01639987812,1,457.90040374594884,181.0626987848878,362.78670451174366,-0.2955384908752724,-16.13587309733544,-1.825070334795949,0,Fixed-Wing
1970-01-01 00:00:31.556214430,7983,1532985869757731472,base_link,0,1,40.5917978,-79.8959397,362.285716487,0.50409996953,0.0,0.0,0.0,0.50409996953,0.0,0.0,0.0,2.01639987812,1,457.7907115377215,174.5661147779207,362.2669171168558,-0.2743231046161317,-16.24694336080205,-1.2999072059017043,0,Fixed-Wing
1970-01-01 00:00:31.962056149,7985,1532985870163508589,base_link,0,1,40.59174,-79.8959402,362.035740223,0.50409996953,0.0,0.0,0.0,0.50409996953,0.0,0.0,0.0,2.01639987812,1,457.7487593122524,168.14727983124106,362.01711672250855,-0.104915972813618,-16.052505087165976,-0.6247118261093936,0,Fixed-Wing
1970-01-01 00:00:32.367800945,7987,1532985870568708118,base_link,0,1,40.5916834,-79.8959404,362.045763779,0.50409996953,0.0,0.0,0.0,0.50409996953,0.0,0.0,0.0,2.01639987812,1,457.73221458103706,161.86171643137334,362.02730446613873,-0.0413757923682575,-15.719213734304642,0.02547795788624505,0,Fixed-Wing
1970-01-01 00:00:32.771324649,7989,1532985870972659178,base_link,0,1,40.591628,-79.8959414,362.295786026,0.50409996953,0.0,0.0,0.0,0.50409996953,0.0,0.0,0.0,2.01639987812,1,457.6479531356765,155.70941760055217,362.27748628190517,-0.2107247329987352,-15.38593983174613,0.6256657015903838,0,Fixed-Wing
1970-01-01 00:00:33.206026361,7991,1532985871406863683,base_link,0,1,40.5915741,-79.8959436,362.585806426,0.50409996953,0.0,0.0,0.0,0.50409996953,0.0,0.0,0.0,2.01639987812,1,457.46209554917795,149.72369157617914,362.5676636624371,-0.46480083652875587,-14.96936722237014,0.7256883711550883,0,Fixed-Wing
1970-01-01 00:00:33.613429773,7993,1532985871814485733,base_link,0,1,40.5915211,-79.8959469,362.625825333,0.50409996953,0.0,0.0,0.0,0.50409996953,0.0,0.0,0.0,2.01639987812,1,457.1830906266241,143.8379008224062,362.6078383212043,-0.6977477962658353,-14.719444697017586,0.1004705557306286,0,Fixed-Wing
1970-01-01 00:00:33.984978739,7995,1532985872186178623,base_link,0,1,40.5914684,-79.8959501,362.415844231,0.50409996953,0.0,0.0,0.0,0.50409996953,0.0,0.0,0.0,2.01639987812,1,456.9125310679926,137.98542085984883,362.3980061873259,-0.6766272582785005,-14.636139603509603,-0.5247574403321663,0,Fixed-Wing
1970-01-01 00:00:34.377393855,7997,1532985872578516848,base_link,0,1,40.5914152,-79.895953,361.99586366,0.50409996953,0.0,0.0,0.0,0.50409996953,0.0,0.0,0.0,2.01639987812,1,456.66735670538515,132.07741237587953,361.97816852750515,-0.6131428422278243,-14.775007775047321,-1.0499485071730643,0,Fixed-Wing
1970-01-01 00:00:34.758183977,7999,1532985872959332761,base_link,0,1,40.591361,-79.8959549,361.555884551,0.50409996953,0.0,0.0,0.0,0.50409996953,0.0,0.0,0.0,2.01639987812,1,456.5068448088883,126.05835719256082,361.53832298467523,-0.4014152188785491,-15.052718250706395,-1.0999851020467266,0,Fixed-Wing
1970-01-01 00:00:35.153932011,8001,1532985873355439421,base_link,0,1,40.5913055,-79.8959557,361.325907133,0.50409996953,0.0,0.0,0.0,0.50409996953,0.0,0.0,0.0,2.01639987812,1,456.4394797858152,119.89494454413764,361.30846950224213,-0.16846941611063734,-15.413733756200656,-0.5748277104350218,0,Fixed-Wing
1970-01-01 00:00:35.623055804,8003,1532985873824494003,base_link,0,1,40.5912494,-79.8959559,361.2159306,0.50409996953,0.0,0.0,0.0,0.50409996953,0.0,0.0,0.0,2.01639987812,1,456.42292185975293,113.66490626356847,361.19860849665235,-0.04140879062249044,-15.580354070921874,-0.27474524049311133,0,Fixed-Wing
1970-01-01 00:00:36.006021097,8005,1532985874203633300,base_link,0,1,40.5911932,-79.8959572,361.155952996,0.50409996953,0.0,0.0,0.0,0.50409996953,0.0,0.0,0.0,2.01639987812,1,456.31324473603627,107.42375817177395,361.1387471567281,-0.27428538060761737,-15.608137976053202,-0.14970387486847364,0,Fixed-Wing
1970-01-01 00:00:36.405561265,8007,1532985874606574539,base_link,0,1,40.5911369,-79.8959626,360.925971242,0.50409996953,0.0,0.0,0.0,0.50409996953,0.0,0.0,0.0,2.01639987812,1,455.8564592880075,101.17148109235782,360.9089005032922,-1.1423491629144031,-15.635969838360776,-0.5748106321780019,0,Fixed-Wing
1970-01-01 00:00:36.766857791,8009,1532985874968314261,base_link,0,1,40.5910807,-79.8959742,360.765983095,0.50409996953,0.0,0.0,0.0,0.50409996953,0.0,0.0,0.0,2.01639987812,1,454.8747990905334,94.93027878427287,360.7490785156691,-2.4549790491143946,-15.608273562539733,-0.39968986438699106,0,Fixed-Wing
1970-01-01 00:00:37.210772913,8011,1532985875411706192,base_link,0,1,40.5910254,-79.8959944,360.855985754,0.50409996953,0.0,0.0,0.0,0.50409996953,0.0,0.0,0.0,2.01639987812,1,453.1650913286688,88.7889832515373,360.8392913588268,-4.275712457615927,-15.358422299364957,0.22560825067885704,0,Fixed-Wing
1970-01-01 00:00:37.569966992,8013,1532985875770629541,base_link,0,1,40.590972,-79.8960232,360.975978794,0.50409996953,0.0,0.0,0.0,0.50409996953,0.0,0.0,0.0,2.01639987812,1,450.7273118049938,82.85864372158537,360.95953687205997,-6.09650638009072,-14.830854238185228,0.3007152744880345,0,Fixed-Wing
1970-01-01 00:00:37.969119250,8015,1532985876170588646,base_link,0,1,40.5909209,-79.8960602,361.005962453,0.50409996953,0.0,0.0,0.0,0.50409996953,0.0,0.0,0.0,2.01639987812,1,447.5953110368872,77.18368233121888,360.9898121397147,-7.832645438101841,-14.19219334116887,0.07571372251810377,0,Fixed-Wing
1970-01-01 00:00:38.378881301,8017,1532985876579747545,base_link,0,1,40.590873,-79.8961055,361.025936247,0.50409996953,0.0,0.0,0.0,0.50409996953,0.0,0.0,0.0,2.01639987812,1,443.7606216838654,71.86404767334042,361.0101157958675,-9.589959994052531,-13.303576601799238,0.05077627737562717,0,Fixed-Wing
1970-01-01 00:00:38.804848839,8019,1532985877006235073,base_link,0,1,40.5908291,-79.8961595,360.995899424,0.50409996953,0.0,0.0,0.0,0.50409996953,0.0,0.0,0.0,2.01639987812,1,439.1893715756179,66.988580278368,360.9804481111755,-11.43198356507199,-12.192783551879803,-0.07419425229004321,0,Fixed-Wing
1970-01-01 00:00:39.160719535,8021,1532985877361574194,base_link,0,1,40.5907912,-79.8962227,361.025850622,0.50409996953,0.0,0.0,0.0,0.50409996953,0.0,0.0,0.0,2.01639987812,1,433.8392256607988,62.77938483627318,361.01080785191743,-13.379880496715412,-10.526541312930174,0.07592497653436714,0,Fixed-Wing
1970-01-01 00:00:39.564722852,8023,1532985877765983080,base_link,0,1,40.5907612,-79.896294,361.235790164,0.50409996953,0.0,0.0,0.0,0.50409996953,0.0,0.0,0.0,2.01639987812,1,427.80330384952106,59.44746875029776,361.2211865016658,-15.094899056625904,-8.332602468271595,0.5261241912854332,0,Fixed-Wing
1970-01-01 00:00:39.968439926,8025,1532985878169542470,base_link,0,1,40.5907409,-79.8963714,361.665719339,0.50409996953,0.0,0.0,0.0,0.50409996953,0.0,0.0,0.0,2.01639987812,1,421.2509145902473,57.192737573128284,361.6515718250288,-16.38650359314707,-5.638731014641129,1.0763265686244055,0,Fixed-Wing
1970-01-01 00:00:40.361214738,8027,1532985878562758784,base_link,0,1,40.5907296,-79.8964518,362.235641627,0.50409996953,0.0,0.0,0.0,0.50409996953,0.0,0.0,0.0,2.01639987812,1,414.4444992063458,55.93746989250869,362.22195052164136,-17.021783311621373,-3.139228691232281,1.426428161035797,0,Fixed-Wing
1970-01-01 00:00:40.770567258,8029,1532985878972065675,base_link,0,1,40.590726,-79.8965326,362.865560249,0.50409996953,0.0,0.0,0.0,0.50409996953,0.0,0.0,0.0,2.01639987812,1,407.6041740778334,55.537309873459066,362.8523128096085,-17.10658629415529,-1.0007377966304176,1.576437767664485,0,Fixed-Wing
1970-01-01 00:00:41.154461651,8031,1532985879354186058,base_link,0,1,40.5907274,-79.8966123,363.54547789,0.50409996953,0.0,0.0,0.0,0.50409996953,0.0,0.0,0.0,2.01639987812,1,400.8569442588271,55.69242324321584,363.5326560882751,-16.873769444703317,0.3879143454835416,1.7014324301115509,0,Fixed-Wing
1970-01-01 00:00:41.562462093,8033,1532985879763750510,base_link,0,1,40.5907314,-79.8966902,364.095396286,0.50409996953,0.0,0.0,0.0,0.50409996953,0.0,0.0,0.0,2.01639987812,1,394.2620749022877,56.13628580667725,364.08298104695723,-16.49273969099433,1.1100310441309151,1.3762768901558122,0,Fixed-Wing
1970-01-01 00:00:41.969425623,8035,1532985880170836783,base_link,0,1,40.5907364,-79.8967669,364.4553155,0.50409996953,0.0,0.0,0.0,0.50409996953,0.0,0.0,0.0,2.01639987812,1,387.768777821005,56.6912102413398,364.4432928292832,-16.23872327231106,1.387779462224883,0.901083571520372,0,Fixed-Wing
1970-01-01 00:00:42.383200523,8037,1532985880584303545,base_link,0,1,40.5907409,-79.8968436,364.625234937,0.50409996953,0.0,0.0,0.0,0.50409996953,0.0,0.0,0.0,2.01639987812,1,381.27547247512763,57.19061250032715,364.6135986857321,-16.23874394077348,1.248927160384993,0.4259083852021629,0,Fixed-Wing
1970-01-01 00:00:42.731135437,8039,1532985880932608800,base_link,0,1,40.5907441,-79.8969207,364.615154525,0.50409996953,0.0,0.0,0.0,0.50409996953,0.0,0.0,0.0,2.01639987812,1,374.7483010418526,57.545649027803506,364.6039013475285,-16.323437743426013,0.8878909818972849,-0.024251530400459843,0,Fixed-Wing
1970-01-01 00:00:43.209417149,8041,1532985881410856209,base_link,0,1,40.5907457,-79.8969984,364.435074186,0.50409996953,0.0,0.0,0.0,0.50409996953,0.0,0.0,0.0,2.01639987812,1,368.17033426623465,57.723003426510445,364.42420193349005,-16.450468972323,0.4435356900627432,-0.449400207666219,0,Fixed-Wing
1970-01-01 00:00:43.562707426,8043,1532985881763972035,base_link,0,1,40.5907458,-79.8970772,364.244993365,0.50409996953,0.0,0.0,0.0,0.50409996953,0.0,0.0,0.0,2.01639987812,1,361.49925160030784,57.733780469135326,364.23450204412484,-16.68333729115277,0.026951702761883512,-0.47440983673293563,0,Fixed-Wing
1970-01-01 00:00:43.960017680,8045,1532985882160511945,base_link,0,1,40.5907448,-79.8971572,364.09491179,0.50409996953,0.0,0.0,0.0,0.50409996953,0.0,0.0,0.0,2.01639987812,1,354.7265874703631,57.62240141169002,364.0848011819031,-16.9373766894946,-0.27854165142061654,-0.3743785083008537,0,Fixed-Wing
1970-01-01 00:00:44.368498968,8047,1532985882569891856,base_link,0,1,40.5907432,-79.8972378,363.884829865,0.50409996953,0.0,0.0,0.0,0.50409996953,0.0,0.0,0.0,2.01639987812,1,347.9031283395891,57.44439418504501,363.87509615468053,-17.064407064319166,-0.4451683109174538,-0.5244395664101206,0,Fixed-Wing
1970-01-01 00:00:44.757720376,8049,1532985882959158925,base_link,0,1,40.590742,-79.8973192,363.604746962,0.50409996953,0.0,0.0,0.0,0.50409996953,0.0,0.0,0.0,2.01639987812,1,341.0119369548904,57.310810428266564,363.59538607333036,-17.2337948675145,-0.3340721412938103,-0.6995112884352825,0,Fixed-Wing
1970-01-01 00:00:45.167482745,8051,1532985883368610404,base_link,0,1,40.5907411,-79.8974017,363.374662816,0.50409996953,0.0,0.0,0.0,0.50409996953,0.0,0.0,0.0,2.01639987812,1,334.0276229650186,57.21054503406012,363.3656718799659,-17.466679979172454,-0.25074811300425276,-0.5744793701986586,0,Fixed-Wing
1970-01-01 00:00:45.585150415,8053,1532985883786100295,base_link,0,1,40.5907405,-79.8974847,363.254578042,0.50409996953,0.0,0.0,0.0,0.50409996953,0.0,0.0,0.0,2.01639987812,1,327.0009843329237,57.14360102452949,363.24595129037505,-17.572527308203878,-0.16741652690440512,-0.299402522328353,0,Fixed-Wing
1970-01-01 00:00:45.984764988,8055,1532985884186167378,base_link,0,1,40.5907405,-79.8975682,363.134492513,0.50409996953,0.0,0.0,0.0,0.50409996953,0.0,0.0,0.0,2.01639987812,1,319.9320138508538,57.14329322901085,363.1262237375714,-17.678392662698304,-0.0007697485867405794,-0.29941993623754104,0,Fixed-Wing
1970-01-01 00:00:46.336534449,8057,1532985884537713176,base_link,0,1,40.5907407,-79.8976517,363.134406912,0.50409996953,0.0,0.0,0.0,0.50409996953,0.0,0.0,0.0,2.01639987812,1,312.8630485792137,57.16520368326823,363.12648809035795,-17.67837963222622,0.05479462883068098,0.0006611050892932691,0,Fixed-Wing
1970-01-01 00:00:46.786089211,8059,1532985884987199590,base_link,0,1,40.5907409,-79.8977352,363.294321323,0.50409996953,0.0,0.0,0.0,0.50409996953,0.0,0.0,0.0,2.01639987812,1,305.79409100930803,57.187122277877876,363.28674463036816,-17.678360371389466,0.05481498658208274,0.40077661213211807,0,Fixed-Wing
1970-01-01 00:00:47.202115193,8061,1532985885403525903,base_link,0,1,40.5907416,-79.897818,363.504236251,0.50409996953,0.0,0.0,0.0,0.50409996953,0.0,0.0,0.0,2.01639987812,1,298.7843940213515,57.26457657803536,363.4969905945453,-17.530158898519613,0.19370112452323687,0.5257923653661797,0,Fixed-Wing
1970-01-01 00:00:47.566027619,8063,1532985885767483477,base_link,0,1,40.5907417,-79.8979005,363.774151752,0.50409996953,0.0,0.0,0.0,0.50409996953,0.0,0.0,0.0,2.01639987812,1,291.800099544904,57.275407594962246,363.7672288757974,-17.466631179141643,0.02708668407309004,0.6758237936605878,0,Fixed-Wing
1970-01-01 00:00:47.979668890,8065,1532985886180639661,base_link,0,1,40.5907414,-79.8979829,363.934067535,0.50409996953,0.0,0.0,0.0,0.50409996953,0.0,0.0,0.0,2.01639987812,1,284.8242671181026,57.24182354570593,363.92745982787847,-17.44546891276153,-0.08398846924916985,0.40071262071215275,0,Fixed-Wing
1970-01-01 00:00:48.386668087,8067,1532985886588110826,base_link,0,1,40.5907407,-79.8980659,363.923982884,0.50409996953,0.0,0.0,0.0,0.50409996953,0.0,0.0,0.0,2.01639987812,1,277.79763358062075,57.163821658293955,363.9176853335658,-17.572514567371165,-0.19507055484218896,-0.02444448579554904,0,Fixed-Wing
1970-01-01 00:00:48.807237198,8069,1532985887007820220,base_link,0,1,40.5907399,-79.8981498,363.813897366,0.50409996953,0.0,0.0,0.0,0.50409996953,0.0,0.0,0.0,2.01639987812,1,270.6948036441554,57.074717493951624,363.8079055720632,-17.763069877246956,-0.22283561787686018,-0.27454206170241596,0,Fixed-Wing
1970-01-01 00:00:49.158609959,8071,1532985887360090776,base_link,0,1,40.590739,-79.8982348,363.563810777,0.50409996953,0.0,0.0,0.0,0.50409996953,0.0,0.0,0.0,2.01639987812,1,263.4988443071841,56.97451031972153,363.55812077964504,-17.99597198297257,-0.25060251392368105,-0.6246728081181253,0,Fixed-Wing
1970-01-01 00:00:49.560395801,8073,1532985887760875726,base_link,0,1,40.5907385,-79.8983214,363.213722394,0.50409996953,0.0,0.0,0.0,0.50409996953,0.0,0.0,0.0,2.01639987812,1,256.16742658669506,56.91872548620617,363.20833112420246,-18.334732273364796,-0.13950916813264672,-0.8747693732699233,0,Fixed-Wing
1970-01-01 00:00:49.970727484,8075,1532985888169636441,base_link,0,1,40.5907387,-79.8984091,362.993632604,0.50409996953,0.0,0.0,0.0,0.50409996953,0.0,0.0,0.0,2.01639987812,1,248.74288794763393,56.94068256376835,362.98853457748123,-18.56761316709671,0.0549112264443689,-0.549676882750996,0,Fixed-Wing
1970-01-01 00:00:50.380514176,8077,1532985888581473716,base_link,0,1,40.590739,-79.8984968,362.943542784,0.50409996953,0.0,0.0,0.0,0.50409996953,0.0,0.0,0.0,2.01639987812,1,241.31835592585452,56.97375378835275,362.9387292705404,-18.56759661830721,0.0827059747274806,-0.12455530476738783,0,Fixed-Wing
1970-01-01 00:00:50.751489363,8079,1532985888952745522,base_link,0,1,40.5907398,-79.8985838,362.993453482,0.50409996953,0.0,0.0,0.0,0.50409996953,0.0,0.0,0.0,2.01639987812,1,233.95308678615638,57.06236133313115,362.98891318421613,-18.41938939316555,0.22159364980280355,0.12550214116191674,0,Fixed-Wing
1970-01-01 00:00:51.162397809,8081,1532985889363819781,base_link,0,1,40.5907405,-79.8986702,363.203364849,0.50409996953,0.0,0.0,0.0,0.50409996953,0.0,0.0,0.0,2.01639987812,1,226.6386186724517,57.139873902629006,363.1990875703237,-18.292343950344897,0.19384684705552013,0.5256133597778083,0,Fixed-Wing
1970-01-01 00:00:51.605742550,8083,1532985889807196552,base_link,0,1,40.5907411,-79.8987554,363.553277497,0.50409996953,0.0,0.0,0.0,0.50409996953,0.0,0.0,0.0,2.01639987812,1,219.42574527643055,57.20629266704731,363.5492514706299,-18.038271406652658,0.16610297079839853,0.8757053013046893,0,Fixed-Wing
1970-01-01 00:00:51.968802967,8085,1532985890170325060,base_link,0,1,40.5907415,-79.8988398,363.853191059,0.50409996953,0.0,0.0,0.0,0.50409996953,0.0,0.0,0.0,2.01639987812,1,212.28059680022642,57.25050942328008,363.84940609002183,-17.868901944916725,0.11057921106566242,0.7506398894425534,0,Fixed-Wing
1970-01-01 00:00:52.359447932,8087,1532985890560910893,base_link,0,1,40.5907416,-79.8989235,364.043105476,0.50409996953,0.0,0.0,0.0,0.50409996953,0.0,0.0,0.0,2.01639987812,1,205.19470590943743,57.2614179663893,364.03955196613555,-17.720707965910965,0.027280564963735147,0.47552518003255545,0,Fixed-Wing
1970-01-01 00:00:52.746660097,8089,1532985890948064534,base_link,0,1,40.5907419,-79.8990074,364.223019615,0.50409996953,0.0,0.0,0.0,0.50409996953,0.0,0.0,0.0,2.01639987812,1,198.0918820629915,57.29454317525153,364.219690029782,-17.76305464705824,0.08284098098665972,0.4504972019217453,0,Fixed-Wing
1970-01-01 00:00:53.151261290,8091,1532985891352634369,base_link,0,1,40.590742,-79.899091,364.682934157,0.50409996953,0.0,0.0,0.0,0.50409996953,0.0,0.0,0.0,2.01639987812,1,191.0144643034469,57.30546785554324,364.67982003924055,-17.699517986181768,0.027320921540290984,1.1507133894153445,0,Fixed-Wing
1970-01-01 00:00:53.569759812,8093,1532985891771047232,base_link,0,1,40.590741,-79.8991736,365.302850196,0.50409996953,0.0,0.0,0.0,0.50409996953,0.0,0.0,0.0,2.01639987812,1,184.02171144981494,57.19424516596817,365.2999423651961,-17.4877842612681,-0.2781505997651015,1.5508292197505384,0,Fixed-Wing
1970-01-01 00:00:53.953111133,8095,1532985892153584044,base_link,0,1,40.5907398,-79.899255,365.772767555,0.50409996953,0.0,0.0,0.0,0.50409996953,0.0,0.0,0.0,2.01639987812,1,177.13054335131582,57.06081960328589,365.77005573417375,-17.233736632361225,-0.3336765225320462,1.1756802145165237,0,Fixed-Wing
1970-01-01 00:00:54.370284377,8097,1532985892571658767,base_link,0,1,40.5907392,-79.8993363,365.842684776,0.50409996953,0.0,0.0,0.0,0.50409996953,0.0,0.0,0.0,2.01639987812,1,170.24782763785362,56.994028439469474,365.84016070685567,-17.212598535661296,-0.16703428361176514,0.17532160274572128,0,Fixed-Wing
1970-01-01 00:00:54.775534700,8099,1532985892977035770,base_link,0,1,40.5907393,-79.8994185,365.512600793,0.50409996953,0.0,0.0,0.0,0.50409996953,0.0,0.0,0.0,2.01639987812,1,163.28890725838136,57.00497505012754,365.5102583124302,-17.40317452008118,0.02737576596618084,-0.825034435185525,0,Fixed-Wing
1970-01-01 00:00:55.181874788,8101,1532985893383314549,base_link,0,1,40.59074,-79.8995026,365.06251463,0.50409996953,0.0,0.0,0.0,0.50409996953,0.0,0.0,0.0,2.01639987812,1,156.1691325471751,57.08255513699345,365.06034949247123,-17.805446116079793,0.19401569746266253,-1.1251517886261058,0,Fixed-Wing
1970-01-01 00:00:55.552785793,8103,1532985893753281389,base_link,0,1,40.590741,-79.8995887,364.772426312,0.50409996953,0.0,0.0,0.0,0.50409996953,0.0,0.0,0.0,2.01639987812,1,148.88004550272075,57.19345577681213,364.7704342306762,-18.22886985471187,0.2773452035529008,-0.7250328530755252,0,Fixed-Wing
1970-01-01 00:00:55.968654954,8105,1532985894162128840,base_link,0,1,40.5907419,-79.8996753,364.792337537,0.50409996953,0.0,0.0,0.0,0.50409996953,0.0,0.0,0.0,2.01639987812,1,141.54863728147203,57.29326028223079,364.7905112284237,-18.334708517246376,0.24959550202858585,0.050209440054862164,0,Fixed-Wing
1970-01-01 00:00:56.379870794,8107,1532985894580840888,base_link,0,1,40.5907429,-79.8997614,364.892249244,0.50409996953,0.0,0.0,0.0,0.50409996953,0.0,0.0,0.0,2.01639987812,1,134.25955982901314,57.404178723064916,364.8905793049246,-18.228845866627193,0.27738972111619264,0.2502546521972691,0,Fixed-Wing
1970-01-01 00:00:56.798086360,8109,1532985894999529385,base_link,0,1,40.5907443,-79.8998462,365.082162122,0.50409996953,0.0,0.0,0.0,0.50409996953,0.0,0.0,0.0,2.01639987812,1,127.08053915859688,57.55952793206848,365.08063763864766,-17.95361101975983,0.38850414265704775,0.47530625016711336,0,Fixed-Wing
1970-01-01 00:00:57.209297974,8111,1532985895410517972,base_link,0,1,40.5907457,-79.8999301,365.32207593,0.50409996953,0.0,0.0,0.0,0.50409996953,0.0,0.0,0.0,2.01639987812,1,119.97771174847564,57.71488574377153,365.32068740194507,-17.763063559254338,0.38852565666676353,0.6003270186122981,0,Fixed-Wing
1970-01-01 00:00:57.561360783,8113,1532985895762619947,base_link,0,1,40.5907472,-79.9000134,365.601990321,0.50409996953,0.0,0.0,0.0,0.50409996953,0.0,0.0,0.0,2.01639987812,1,112.92567960743295,57.88135670714041,365.6007288458673,-17.63603251358005,0.41631791571875537,0.7003399745470186,0,Fixed-Wing
1970-01-01 00:00:57.958586602,8115,1532985896159629650,base_link,0,1,40.590749,-79.9000969,366.021904394,0.50409996953,0.0,0.0,0.0,0.50409996953,0.0,0.0,0.0,2.01639987812,1,105.8567173555261,58.08115111000302,366.02076216118815,-17.67837208034425,0.49965464059772163,1.0504378110633243,0,Fixed-Wing
1970-01-01 00:00:58.380175926,8117,1532985896580943663,base_link,0,1,40.5907532,-79.9001806,366.391817267,0.50409996953,0.0,0.0,0.0,0.50409996953,0.0,0.0,0.0,2.01639987812,1,98.77081858943822,58.54747732148482,366.3907842587117,-17.72072766080522,1.166209124283945,0.9253675553587613,0,Fixed-Wing
1970-01-01 00:00:58.779491805,8119,1532985896979204790,base_link,0,1,40.5907602,-79.9002646,366.251728673,0.50409996953,0.0,0.0,0.0,0.50409996953,0.0,0.0,0.0,2.01639987812,1,91.65951126346451,59.32475199533155,366.25079446921825,-17.784270506230133,1.9438427315387274,-0.3500926299961912,0,Fixed-Wing
1970-01-01 00:00:59.155923378,8121,1532985897356755431,base_link,0,1,40.5907733,-79.9003498,365.68163631,0.50409996953,0.0,0.0,0.0,0.50409996953,0.0,0.0,0.0,2.01639987812,1,84.44660246013477,60.779447778219264,365.6807878062249,-18.038359954809096,3.6379672711732987,-1.4254977629784162,0,Fixed-Wing
1970-01-01 00:00:59.575351491,8123,1532985897776628957,base_link,0,1,40.5907943,-79.900436,364.991539632,0.50409996953,0.0,0.0,0.0,0.50409996953,0.0,0.0,0.0,2.01639987812,1,77.14902900776679,63.111462009891824,364.9907607339866,-18.250093037320056,5.832003880491063,-1.7256500875003022,0,Fixed-Wing
1970-01-01 00:00:59.985429688,8125,1532985898186089878,base_link,0,1,40.5908248,-79.9005211,364.401440114,0.50409996953,0.0,0.0,0.0,0.50409996953,0.0,0.0,0.0,2.01639987812,1,69.94457688768867,66.49848228070161,364.4007096710734,-18.017211108944558,8.470409440210533,-1.4756256809502604,0,Fixed-Wing
1970-01-01 00:01:00.363210410,8127,1532985898564719734,base_link,0,1,40.5908658,-79.900602,364.131340503,0.50409996953,0.0,0.0,0.0,0.50409996953,0.0,0.0,0.0,2.01639987812,1,63.095690040372766,71.05156523363607,364.13063217164245,-17.12799781755318,11.386550343076937,-0.6754217034022834,0,Fixed-Wing
1970-01-01 00:01:00.802624841,8129,1532985899003762058,base_link,0,1,40.5909166,-79.900675,364.061244868,0.50409996953,0.0,0.0,0.0,0.50409996953,0.0,0.0,0.0,2.01639987812,1,56.91560425022036,76.69297473608492,364.06052909689845,-15.455430683236601,14.108285302411693,-0.175316856298994,0,Fixed-Wing
1970-01-01 00:01:01.157617399,8131,1532985899359011561,base_link,0,1,40.5909751,-79.9007372,364.211157046,0.50409996953,0.0,0.0,0.0,0.50409996953,0.0,0.0,0.0,2.01639987812,1,51.64982999895839,83.1895016373281,364.21040440290574,-13.168880125197187,16.246800548293013,0.3748147650014095,0,Fixed-Wing
1970-01-01 00:01:01.566223506,8133,1532985899767630851,base_link,0,1,40.5910405,-79.900786,364.461080022,0.50409996953,0.0,0.0,0.0,0.50409996953,0.0,0.0,0.0,2.01639987812,1,47.51847642831816,90.4523025550044,364.4602603484499,-10.331870933040474,18.1631323513593,0.624850750988811,0,Fixed-Wing
1970-01-01 00:01:02.066419078,8135,1532985900267714973,base_link,0,1,40.591111,-79.9008214,364.571014549,0.50409996953,0.0,0.0,0.0,0.50409996953,0.0,0.0,0.0,2.01639987812,1,44.521540956399875,98.28147807118489,364.5701003522787,-7.4948681978124725,19.579546887525787,0.27469271836450265,0,Fixed-Wing
1970-01-01 00:01:02.358483471,8137,1532985900557768249,base_link,0,1,40.5911853,-79.9008416,364.630963001,0.50409996953,0.0,0.0,0.0,0.50409996953,0.0,0.0,0.0,2.01639987812,1,42.81140626121231,106.53266064007872,364.62992769738435,-4.27678015126996,20.6349207079735,0.14961885912907028,0,Fixed-Wing
1970-01-01 00:01:02.741712827,8139,1532985900943170282,base_link,0,1,40.5912603,-79.9008473,364.850925956,0.50409996953,0.0,0.0,0.0,0.50409996953,0.0,0.0,0.0,2.01639987812,1,42.32881145429781,114.86159028805906,364.84974896536136,-1.206894344127407,20.829354026934954,0.5497387067560573,0,Fixed-Wing
1970-01-01 00:01:03.157266494,8141,1532985901354381759,base_link,0,1,40.5913335,-79.9008402,365.260902719,0.50409996953,0.0,0.0,0.0,0.50409996953,0.0,0.0,0.0,2.01639987812,1,42.92983651958648,122.9906361850908,365.2595697792609,1.5030699493295836,20.32947594070935,1.024897937802902,0,Fixed-Wing
1970-01-01 00:01:03.559573719,8143,1532985901760414344,base_link,0,1,40.591404,-79.9008254,365.820888469,0.50409996953,0.0,0.0,0.0,0.50409996953,0.0,0.0,0.0,2.01639987812,1,44.182725524478805,130.81984871833038,365.81939083399095,3.133279994228863,19.579639461417152,1.4000251453116348,0,Fixed-Wing
1970-01-01 00:01:03.985549624,8145,1532985902187007111,base_link,0,1,40.5914716,-79.9008071,366.590879008,0.624100033903,0.0,0.0,0.0,0.624100033903,0.0,0.0,0.0,2.49640013561,1,45.73191640196279,138.32701731101753,366.5892116931211,3.8742847648180936,18.774257793723258,1.9252019034678294,0,Fixed-Wing
1970-01-01 00:01:04.402613833,8147,1532985902603080781,base_link,0,1,40.5915388,-79.9007871,366.940871464,0.50409996953,0.0,0.0,0.0,0.50409996953,0.0,0.0,0.0,2.01639987812,1,47.42501911369672,145.7897584488437,366.93902518772876,4.234185817048075,18.663151658250122,0.8748289913036769,0,Fixed-Wing
1970-01-01 00:01:04.751887415,8149,1532985902953249067,base_link,0,1,40.5916058,-79.9007674,366.980863718,0.50409996953,0.0,0.0,0.0,0.50409996953,0.0,0.0,0.0,2.01639987812,1,49.09271921914839,153.23028275949468,366.9788300103285,4.170657860657152,18.607590838535433,0.09954565315734736,0,Fixed-Wing
1970-01-01 00:01:05.181408426,8151,1532985903382863416,base_link,0,1,40.5916733,-79.9007482,366.600855277,0.50409996953,0.0,0.0,0.0,0.50409996953,0.0,0.0,0.0,2.01639987812,1,50.71808374021745,160.72632293962545,366.59862393499225,4.064783166991507,18.746427369564135,-0.950836095522927,0,Fixed-Wing
1970-01-01 00:01:05.569546575,8153,1532985903770811880,base_link,0,1,40.5917421,-79.9007311,366.22084418,0.624100033903,0.0,0.0,0.0,0.624100033903,0.0,0.0,0.0,2.49640013561,1,52.16566401232173,168.3667295628055,366.2184035939264,3.6201724884755486,19.107465327498133,-0.9508717718876742,0,Fixed-Wing
1970-01-01 00:01:05.975501303,8155,1532985904176828075,base_link,0,1,40.5918125,-79.9007185,365.880827863,0.50409996953,0.0,0.0,0.0,0.50409996953,0.0,0.0,0.0,2.01639987812,1,53.23228397334489,176.18481788268605,365.8781667982679,2.6674501669892696,19.55181953879574,-0.8508791608630011,0,Fixed-Wing
1970-01-01 00:01:06.379189904,8157,1532985904580185526,base_link,0,1,40.5918835,-79.9007106,365.870806538,0.50409996953,0.0,0.0,0.0,0.50409996953,0.0,0.0,0.0,2.01639987812,1,53.90101670494627,184.06954371664057,365.86791665388427,1.6723962627421272,19.71846956836562,-0.025634012438280774,0,Fixed-Wing
1970-01-01 00:01:06.757735981,8159,1532985904958819503,base_link,0,1,40.591954,-79.9007051,366.010783002,0.50409996953,0.0,0.0,0.0,0.50409996953,0.0,0.0,0.0,2.01639987812,1,54.36657347520219,191.89874651453792,366.0076578674317,1.1642848717840155,19.57961511484464,0.3494709803244552,0,Fixed-Wing
1970-01-01 00:01:07.163671660,8161,1532985905364875591,base_link,0,1,40.5920233,-79.9007015,366.350758052,0.50409996953,0.0,0.0,0.0,0.50409996953,0.0,0.0,0.0,2.01639987812,1,54.67128429329564,199.5946919702975,366.34739355936193,0.7620342317868639,19.24635928565787,0.8496259785933494,0,Fixed-Wing
1970-01-01 00:01:07.567433153,8163,1532985905768548512,base_link,0,1,40.5920914,-79.9006996,366.81073189,0.50409996953,0.0,0.0,0.0,0.50409996953,0.0,0.0,0.0,2.01639987812,1,54.83208030751517,207.157378280751,366.807124290955,0.40212575299045467,18.913098947028374,1.149714857747198,0,Fixed-Wing
1970-01-01 00:01:07.982496527,8165,1532985906183738632,base_link,0,1,40.5921587,-79.9006978,366.92070598,0.50409996953,0.0,0.0,0.0,0.50409996953,0.0,0.0,0.0,2.01639987812,1,54.9844080078446,214.63121195406222,366.9168493537959,0.38094782071306477,18.69089235944936,0.2744052688804475,0,Fixed-Wing
1970-01-01 00:01:08.368994723,8167,1532985906568398139,base_link,0,1,40.5922251,-79.9006958,366.660680666,0.50409996953,0.0,0.0,0.0,0.50409996953,0.0,0.0,0.0,2.01639987812,1,55.15366424111154,222.0050859954663,366.65656957119893,0.4232834413288047,18.440908910267375,-0.6509191417027431,0,Fixed-Wing
1970-01-01 00:01:08.756383465,8169,1532985906957345360,base_link,0,1,40.5922916,-79.9006933,366.150655842,0.50409996953,0.0,0.0,0.0,0.50409996953,0.0,0.0,0.0,2.01639987812,1,55.365246046679204,229.3900560672568,366.14628096317506,0.5291330963391676,18.468658351669987,-1.27615222143441,0,Fixed-Wing
1970-01-01 00:01:09.170587483,8171,1532985907369148093,base_link,0,1,40.5923587,-79.9006899,365.410631707,0.50409996953,0.0,0.0,0.0,0.50409996953,0.0,0.0,0.0,2.01639987812,1,55.653015522593314,236.8416485043415,365.4059813209888,0.7196665772551004,18.63527049650428,-1.8513739441717678,0,Fixed-Wing
1970-01-01 00:01:09.586035312,8173,1532985907787024693,base_link,0,1,40.5924265,-79.9006846,364.63060924,0.50409996953,0.0,0.0,0.0,0.50409996953,0.0,0.0,0.0,2.01639987812,1,56.1016301044196,244.37097566079797,364.6256702146738,1.121915100912268,18.829672905746875,-1.9514363755643165,0,Fixed-Wing
1970-01-01 00:01:09.990544264,8175,1532985908192075858,base_link,0,1,40.5924958,-79.9006767,364.050588824,0.50409996953,0.0,0.0,0.0,0.50409996953,0.0,0.0,0.0,2.01639987812,1,56.770349919860124,252.06688926727603,364.04534366518425,1.6723639614382981,19.24627963557215,-1.4513061895628308,0,Fixed-Wing
1970-01-01 00:01:10.342791380,8177,1532985908543978223,base_link,0,1,40.5925659,-79.900667,363.510569932,0.50409996953,0.0,0.0,0.0,0.50409996953,0.0,0.0,0.0,2.01639987812,1,57.59144863363815,259.8516463405643,363.5050042625148,2.0534398203844493,19.468463289580885,-1.351304571966724,0,Fixed-Wing
1970-01-01 00:01:10.776449779,8179,1532985908977957533,base_link,0,1,40.5926358,-79.9006536,362.850554908,0.50409996953,0.0,0.0,0.0,0.50409996953,0.0,0.0,0.0,2.01639987812,1,58.72577125674029,267.61418921392647,362.84465716155074,2.836763965593728,19.412909040206515,-1.6514251083841585,0,Fixed-Wing
1970-01-01 00:01:11.193660509,8181,1532985909394950322,base_link,0,1,40.592705,-79.9006333,362.410547209,0.50409996953,0.0,0.0,0.0,0.50409996953,0.0,0.0,0.0,2.01639987812,1,60.444218773845876,275.29900832260114,362.404305574569,4.297569222376522,19.218534026920768,-1.1012506395452526,0,Fixed-Wing
1970-01-01 00:01:11.553830029,8183,1532985909754405382,base_link,0,1,40.5927721,-79.9006055,362.100548016,0.50409996953,0.0,0.0,0.0,0.50409996953,0.0,0.0,0.0,2.01639987812,1,62.79758331851619,282.750627992481,362.09395690791393,5.885397683393928,18.635338601477613,-0.7761336117315725,0,Fixed-Wing
1970-01-01 00:01:11.982673970,8185,1532985910184026532,base_link,0,1,40.5928351,-79.9005668,361.7905616,0.50409996953,0.0,0.0,0.0,0.50409996953,0.0,0.0,0.0,2.01639987812,1,66.07369290860007,289.74694120982673,361.7836226955034,8.193039125914687,17.496688175623632,-0.7760974639203474,0,Fixed-Wing
1970-01-01 00:01:12.367738610,8187,1532985910568991144,base_link,0,1,40.5928919,-79.9005173,361.560588715,0.50409996953,0.0,0.0,0.0,0.50409996953,0.0,0.0,0.0,2.01639987812,1,70.26408293825537,296.0547429365063,361.5533147216909,10.479511909407686,15.77482832125728,-0.5759643224900921,0,Fixed-Wing
1970-01-01 00:01:12.761663967,8189,1532985910962858425,base_link,0,1,40.5929397,-79.9004575,361.630629991,0.50409996953,0.0,0.0,0.0,0.50409996953,0.0,0.0,0.0,2.01639987812,1,75.32643031564547,301.36309840324475,361.6230490996878,12.660141241144128,13.275369103918761,0.1743948032383295,0,Fixed-Wing
1970-01-01 00:01:13.155099953,8191,1532985911356308425,base_link,0,1,40.5929786,-79.9003895,361.64068325,0.50409996953,0.0,0.0,0.0,0.50409996953,0.0,0.0,0.0,2.01639987812,1,81.08295488726765,305.68309608360687,361.63282580473594,14.396170136476508,10.803640429550276,0.024450014500206875,0,Fixed-Wing
1970-01-01 00:01:13.609119353,8193,1532985911810119323,base_link,0,1,40.5930093,-79.9003155,361.420745967,0.50409996953,0.0,0.0,0.0,0.50409996953,0.0,0.0,0.0,2.01639987812,1,87.34741251647698,309.0924636489359,361.41264122487394,15.666431493652436,8.526296538404297,-0.5506472931164443,0,Fixed-Wing
1970-01-01 00:01:14.009894819,8195,1532985912209939858,base_link,0,1,40.5930306,-79.9002366,361.240817513,0.50409996953,0.0,0.0,0.0,0.50409996953,0.0,0.0,0.0,2.01639987812,1,94.02668885822915,311.4579513130855,361.2325025910347,16.703828396464235,5.915715714427648,-0.45049862788503364,0,Fixed-Wing
1970-01-01 00:01:14.395752769,8197,1532985912597223532,base_link,0,1,40.5930418,-79.9001557,361.440895226,0.50409996953,0.0,0.0,0.0,0.50409996953,0.0,0.0,0.0,2.01639987812,1,100.87529238895527,312.70183704782164,361.4324148097238,17.12728928694965,3.1107642197644827,0.4999492796046699,0,Fixed-Wing
1970-01-01 00:01:14.762708095,8199,1532985912960442011,base_link,0,1,40.5930451,-79.9000762,361.980974749,0.50409996953,0.0,0.0,0.0,0.50409996953,0.0,0.0,0.0,2.01639987812,1,107.60539500804214,313.06843050990057,361.97236647598714,16.83093698895093,0.916793072859401,1.3503349036883312,0,Fixed-Wing
1970-01-01 00:01:15.192931398,8201,1532985913391962083,base_link,0,1,40.5930437,-79.9000003,362.761052539,0.50409996953,0.0,0.0,0.0,0.50409996953,0.0,0.0,0.0,2.01639987812,1,114.03075116034476,312.91309107361366,362.7523404352123,16.06881360534837,-0.3884797026169044,1.9505932232757903,0,Fixed-Wing
1970-01-01 00:01:15.568465860,8203,1532985913769810837,base_link,0,1,40.5930397,-79.8999274,363.691128348,0.50409996953,0.0,0.0,0.0,0.50409996953,0.0,0.0,0.0,2.01639987812,1,120.2021505530311,312.46902417724607,363.6823249142534,15.433707357949155,-1.1105420488604592,2.325746136923916,0,Fixed-Wing
1970-01-01 00:01:16.002392560,8205,1532985914203525514,base_link,0,1,40.5930354,-79.8998557,364.371203069,0.50409996953,0.0,0.0,0.0,0.50409996953,0.0,0.0,0.0,2.01639987812,1,126.27196164344679,311.99163255558267,364.3623059557305,15.179650858203852,-1.1938819893299004,1.7005265313971112,0,Fixed-Wing
1970-01-01 00:01:16.407038920,8207,1532985914605536060,base_link,0,1,40.5930316,-79.8997837,364.7812779,0.50409996953,0.0,0.0,0.0,0.50409996953,0.0,0.0,0.0,2.01639987812,1,132.36716484099898,311.56975921586604,364.77227805857484,15.243152557868767,-1.0550394250975357,1.0252762878579909,0,Fixed-Wing
1970-01-01 00:01:16.766711380,8209,1532985914967895276,base_link,0,1,40.5930284,-79.8997102,364.791354022,0.50409996953,0.0,0.0,0.0,0.50409996953,0.0,0.0,0.0,2.01639987812,1,138.58934269057136,311.2145050534981,364.78223959633146,15.560696358952084,-0.8884352528176802,0.024912252276702844,0,Fixed-Wing
1970-01-01 00:01:17.175197999,8211,1532985915376060949,base_link,0,1,40.5930256,-79.8996343,364.391432433,0.50409996953,0.0,0.0,0.0,0.50409996953,0.0,0.0,0.0,2.01639987812,1,145.01468393173607,310.90366096638843,364.382190563176,16.068776314918075,-0.7773725810202738,-1.0004602382191061,0,Fixed-Wing
1970-01-01 00:01:17.552819031,8213,1532985915754032237,base_link,0,1,40.5930229,-79.8995557,363.761513563,0.50409996953,0.0,0.0,0.0,0.50409996953,0.0,0.0,0.0,2.01639987812,1,151.66858876700726,310.60392111713605,363.75213180292764,16.64037821582582,-0.7496026140131687,-1.5756786921794756,0,Fixed-Wing
1970-01-01 00:01:17.949056288,8215,1532985916150309045,base_link,0,1,40.5930206,-79.8994742,363.021597494,0.50409996953,0.0,0.0,0.0,0.50409996953,0.0,0.0,0.0,2.01639987812,1,158.56798975219124,310.34860807380204,363.01206064236703,17.254325797916728,-0.6384981014442698,-1.850802547261209,0,Fixed-Wing
1970-01-01 00:01:18.349303626,8217,1532985916550058804,base_link,0,1,40.5930189,-79.89939,362.361683941,0.50409996953,0.0,0.0,0.0,0.50409996953,0.0,0.0,0.0,2.01639987812,1,165.69595971071996,310.15994187547295,362.35197536358964,17.825941151460427,-0.4718247366713461,-1.650770331930495,0,Fixed-Wing
1970-01-01 00:01:18.785696427,8219,1532985916987094681,base_link,0,1,40.5930175,-79.8993046,362.191771499,0.50409996953,0.0,0.0,0.0,0.50409996953,0.0,0.0,0.0,2.01639987812,1,172.92552748729932,310.00462447074386,362.1818788587115,18.080021448687326,-0.3884246051269541,-0.42538482957530993,0,Fixed-Wing
