time,field.header.seq,field.header.stamp,field.header.frame_id,field.status.status,field.status.service,lat,lon,alt,field.position_covariance0,field.position_covariance1,field.position_covariance2,field.position_covariance3,field.position_covariance4,field.position_covariance5,field.position_covariance6,field.position_covariance7,field.position_covariance8,field.position_covariance_type,x,y,z,vel_x,vel_y,vel_z,track_id,uav_category
1970-01-01 00:00:00.000000000,5021,1538768543965894919,base_link,0,1,40.5911038,-79.8969552,368.774967151,0.396899993992,0.0,0.0,0.0,0.396899993992,0.0,0.0,0.0,1.58759997597,1,373.8660952123369,71.28283260659083,368.76362660984796,15.025573581044494,-5.939930475263185,0.6493167665785314,0,Fixed-Wing
1970-01-01 00:00:00.402640160,5023,1538768544368537543,base_link,0,1,40.5910824,-79.8968842,369.035048945,0.396899993992,0.0,0.0,0.0,0.396899993992,0.0,0.0,0.0,1.58759997597,1,379.87694069327154,68.90661687933607,369.0233799384668,15.025573581044494,-5.939930475263185,0.6493167665785314,0,Fixed-Wing
1970-01-01 00:00:00.808914944,5025,1538768544774759015,base_link,0,1,40.5910642,-79.8968108,368.985131863,0.396899993992,0.0,0.0,0.0,0.396899993992,0.0,0.0,0.0,1.58759997597,1,386.09093239411993,66.88578093902277,368.97311184127057,15.533387079945298,-5.051572064646635,-0.12565736311087541,0,Fixed-Wing
1970-01-01 00:00:01.183693056,5027,1538768545148445287,base_link,0,1,40.5910501,-79.8967342,368.695216345,0.396899993992,0.0,0.0,0.0,0.396899993992,0.0,0.0,0.0,1.58759997597,1,392.57579406834463,65.32027705950293,368.68281732345827,16.210492610069227,-3.9133585795451915,-0.7256619141845438,0,Fixed-Wing
1970-01-01 00:00:01.579235488,5029,1538768545545112775,base_link,0,1,40.5910427,-79.8966537,368.29530201,0.36000002861,0.0,0.0,0.0,0.36000002861,0.0,0.0,0.0,1.44000011444,1,399.39077715303665,64.4988468929775,368.2824888866271,17.035711551296036,-2.053364946406571,-1.0007185184297602,0,Fixed-Wing
1970-01-01 00:00:02.002751232,5031,1538768545968732551,base_link,0,1,40.5910434,-79.8965704,367.805387137,0.396899993992,0.0,0.0,0.0,0.396899993992,0.0,0.0,0.0,1.58759997597,1,406.44274836637953,64.5769597669973,367.7921283952411,17.628121150939233,0.19526217067702684,-1.2257755864674211,0,Fixed-Wing
1970-01-01 00:00:02.399975616,5033,1538768546365876039,base_link,0,1,40.5910543,-79.8964855,367.375469608,0.396899993992,0.0,0.0,0.0,0.396899993992,0.0,0.0,0.0,1.58759997597,1,413.6301120722047,65.78782214450786,367.3617370813429,17.966567691374614,3.026845692092939,-1.0758680082746832,0,Fixed-Wing
1970-01-01 00:00:02.829206112,5035,1538768546795017863,base_link,0,1,40.5910768,-79.8964018,366.965545957,0.36000002861,0.0,0.0,0.0,0.36000002861,0.0,0.0,0.0,1.44000011444,1,420.7158116152978,68.28689380023295,366.9513243310203,17.71243333331605,6.247038817833896,-1.0259267183177827,0,Fixed-Wing
1970-01-01 00:00:03.212458592,5037,1538768547177977767,base_link,0,1,40.5911121,-79.8963232,366.655611678,0.36000002861,0.0,0.0,0.0,0.36000002861,0.0,0.0,0.0,1.44000011444,1,427.3696756726254,72.20741910134382,366.6409050468045,16.63295526540432,9.800308721133261,-0.775968673750469,0,Fixed-Wing
1970-01-01 00:00:03.610896064,5039,1538768547576778215,base_link,0,1,40.5911598,-79.8962536,366.455662939,0.36000002861,0.0,0.0,0.0,0.36000002861,0.0,0.0,0.0,1.44000011444,1,433.261539450847,77.5049568556843,366.44049706225303,14.728149810198433,13.242487030930535,-0.5009686120959483,0,Fixed-Wing
1970-01-01 00:00:03.972820384,5041,1538768547938805799,base_link,0,1,40.5912182,-79.8961959,366.285697487,0.36000002861,0.0,0.0,0.0,0.36000002861,0.0,0.0,0.0,1.44000011444,1,438.14589998178377,83.99070085273704,366.2701161354631,12.209649838233483,16.212698191067258,-0.4259086613369711,0,Fixed-Wing
1970-01-01 00:00:04.398079872,5043,1538768548363749415,base_link,0,1,40.5912854,-79.8961544,366.045711717,0.36000002861,0.0,0.0,0.0,0.36000002861,0.0,0.0,0.0,1.44000011444,1,441.65873558757045,91.45362655695558,366.0297855506817,8.781188942600076,18.655402081832985,-0.6007648835529811,0,Fixed-Wing
1970-01-01 00:00:04.781514112,5045,1538768548747427495,base_link,0,1,40.5913588,-79.896131,365.985704785,0.36000002861,0.0,0.0,0.0,0.36000002861,0.0,0.0,0.0,1.44000011444,1,443.6392343314198,99.60498980888164,365.96951899209,4.950739408833976,20.376319557060544,-0.15065095475640397,0,Fixed-Wing
1970-01-01 00:00:05.208334240,5047,1538768549171925575,base_link,0,1,40.5914344,-79.8961267,366.265677356,0.36000002861,0.0,0.0,0.0,0.36000002861,0.0,0.0,0.0,1.44000011444,1,444.00278106279825,108.00057811907828,366.24932933783373,0.9087736791440099,20.986819626479896,0.6994541703068596,0,Fixed-Wing
1970-01-01 00:00:05.600649248,5049,1538768549566337223,base_link,0,1,40.5915083,-79.8961352,366.90563754,0.396899993992,0.0,0.0,0.0,0.396899993992,0.0,0.0,0.0,1.58759997597,1,443.2827493879091,116.20732024771846,366.88919494273034,-1.799894698016274,20.514752559463087,1.5995000634850258,0,Fixed-Wing
1970-01-01 00:00:05.973557280,5051,1538768549939202215,base_link,0,1,40.5915795,-79.8961496,367.825592836,0.396899993992,0.0,0.0,0.0,0.396899993992,0.0,0.0,0.0,1.58759997597,1,442.0632785227499,124.11419844881874,367.80908543235375,-3.048364705515744,19.765169572869492,2.299490526279588,0,Fixed-Wing
1970-01-01 00:00:06.394374624,5053,1538768550360153447,base_link,0,1,40.5916489,-79.8961633,368.605549634,0.396899993992,0.0,0.0,0.0,0.396899993992,0.0,0.0,0.0,1.58759997597,1,440.9030720780619,131.82118541262952,368.5889674217405,-2.9002188392890105,19.265492696525552,1.9495051491890873,0,Fixed-Wing
1970-01-01 00:00:06.773227904,5055,1538768550739044711,base_link,0,1,40.5917171,-79.8961737,369.105510346,0.396899993992,0.0,0.0,0.0,0.396899993992,0.0,0.0,0.0,1.58759997597,1,440.0222247712634,139.39492192296552,369.08882745903486,-2.2018925730075183,18.932400704767776,1.2495220172291197,0,Fixed-Wing
1970-01-01 00:00:07.182227264,5057,1538768551147902343,base_link,0,1,40.5917846,-79.896181,369.305474556,0.396899993992,0.0,0.0,0.0,0.396899993992,0.0,0.0,0.0,1.58759997597,1,439.40379983382786,146.89093162226442,369.2886656060517,-1.545903888440236,18.738103592628995,0.4995441642653189,0,Fixed-Wing
1970-01-01 00:00:07.604237696,5059,1538768551570174631,base_link,0,1,40.5918521,-79.8961846,369.145442583,0.396899993992,0.0,0.0,0.0,0.396899993992,0.0,0.0,0.0,1.58759997597,1,439.0985820226909,154.3869516392374,369.12847715395344,-0.7629663237942358,18.738129384170566,-0.40043008616187376,0,Fixed-Wing
1970-01-01 00:00:07.982321024,5061,1538768551947694951,base_link,0,1,40.5919196,-79.8961845,368.725414426,0.396899993992,0.0,0.0,0.0,0.396899993992,0.0,0.0,0.0,1.58759997597,1,439.1065772955994,161.88298320809804,368.7082621481538,0.01998613369251653,18.738158260929865,-1.0504298454399972,0,Fixed-Wing
1970-01-01 00:00:08.392862112,5063,1538768552358805959,base_link,0,1,40.5919874,-79.8961817,368.155388935,0.396899993992,0.0,0.0,0.0,0.396899993992,0.0,0.0,0.0,1.58759997597,1,439.3431334993696,169.41233908574145,368.1380243736272,0.5913298981110658,18.82146049440785,-1.425448327862796,0,Fixed-Wing
1970-01-01 00:00:08.828190240,5065,1538768552793934983,base_link,0,1,40.5920555,-79.8961776,367.575364673,0.396899993992,0.0,0.0,0.0,0.396899993992,0.0,0.0,0.0,1.58759997597,1,439.68974018132536,176.9750156563572,367.5577704069229,0.8664278960299922,18.90475368928619,-1.4504862419210367,0,Fixed-Wing
1970-01-01 00:00:09.193360992,5067,1538768553159387079,base_link,0,1,40.5921237,-79.8961748,367.14533906,0.396899993992,0.0,0.0,0.0,0.396899993992,0.0,0.0,0.0,1.58759997597,1,439.92630224020843,184.5487940539772,367.12751334168905,0.5913445343928913,18.932505412245256,-1.0755324210114259,0,Fixed-Wing
1970-01-01 00:00:09.628551136,5069,1538768553594054727,base_link,0,1,40.5921916,-79.8961765,366.835308983,0.396899993992,0.0,0.0,0.0,0.396899993992,0.0,0.0,0.0,1.58759997597,1,439.7819198858897,192.0892369312071,366.81727003433366,-0.3609188916104509,18.849175152621626,-0.7755287766888708,0,Fixed-Wing
1970-01-01 00:00:10.028303072,5071,1538768553994182919,base_link,0,1,40.5922585,-79.8961869,366.59527043,0.396899993992,0.0,0.0,0.0,0.396899993992,0.0,0.0,0.0,1.58759997597,1,438.9010386370196,199.51858553179542,366.5770634440826,-2.201977419489708,18.571467926008403,-0.6004549289973639,0,Fixed-Wing
1970-01-01 00:00:10.402478400,5073,1538768554367790951,base_link,0,1,40.592324,-79.8962081,366.215221418,0.396899993992,0.0,0.0,0.0,0.396899993992,0.0,0.0,0.0,1.58759997597,1,437.1058707135233,206.7924021431339,366.1969052869061,-4.487459844106749,18.182677803871293,-0.9502979873976374,0,Fixed-Wing
1970-01-01 00:00:10.790934688,5075,1538768554756915975,base_link,0,1,40.5923863,-79.8962428,365.965159931,0.435600034618,0.0,0.0,0.0,0.435600034618,0.0,0.0,0.0,1.74240013847,1,434.1678771810338,213.71078836761095,365.94681556341703,-7.344231047541342,17.29419290641971,-0.6251602297990817,0,Fixed-Wing
1970-01-01 00:00:11.158913120,5077,1538768555124627175,base_link,0,1,40.592443,-79.8962912,365.655086764,0.435600034618,0.0,0.0,0.0,0.435600034618,0.0,0.0,0.0,1.74240013847,1,430.0701321150355,220.0072126469932,365.6368050133501,-10.243312725441418,15.739447405096605,-0.7749469431056321,0,Fixed-Wing
1970-01-01 00:00:11.614201920,5079,1538768555580172711,base_link,0,1,40.5924911,-79.8963532,365.335003266,0.448900022364,0.0,0.0,0.0,0.448900022364,0.0,0.0,0.0,1.79560008945,1,424.8211256299228,225.3485217961594,365.31688584186594,-13.121171292724286,13.351904302724455,-0.7997159578247559,0,Fixed-Wing
1970-01-01 00:00:12.010160000,5081,1538768555975886183,base_link,0,1,40.5925282,-79.8964275,365.094911764,0.448900022364,0.0,0.0,0.0,0.448900022364,0.0,0.0,0.0,1.79560008945,1,418.5309320722964,229.46820198357472,365.07706234845,-15.723872197165708,10.298144908685178,-0.5994972850681317,0,Fixed-Wing
1970-01-01 00:00:12.411879008,5083,1538768556377829127,base_link,0,1,40.5925508,-79.8965111,365.004816778,0.532900027847,0.0,0.0,0.0,0.532900027847,0.0,0.0,0.0,2.13160011139,1,411.45354389666704,231.97758924169403,364.98733618048936,-17.691657044226417,6.272825180717272,-0.22429242992751866,0,Fixed-Wing
1970-01-01 00:00:12.799317568,5085,1538768556765162215,base_link,0,1,40.5925582,-79.8965991,365.054723611,0.532900027847,0.0,0.0,0.0,0.532900027847,0.0,0.0,0.0,2.13160011139,1,404.0037747658724,232.79897145884138,365.0376885443403,-18.622514019299683,2.0532450852471253,0.12586800815653337,0,Fixed-Wing
1970-01-01 00:00:13.176731136,5087,1538768557141147335,base_link,0,1,40.5925508,-79.8966855,365.404638234,0.532900027847,0.0,0.0,0.0,0.532900027847,0.0,0.0,0.0,2.13160011139,1,396.6895628231154,231.9768035641704,365.3880916217162,-18.28365578217475,-2.055209077746953,0.8759179118538237,0,Fixed-Wing
1970-01-01 00:00:13.569579392,5089,1538768557534631111,base_link,0,1,40.5925298,-79.8967663,366.25456424,0.462400009727,0.0,0.0,0.0,0.462400009727,0.0,0.0,0.0,1.84960003891,1,389.8495316604127,229.64437261760656,366.23852336553585,-17.098325328410592,-5.8304797422360375,2.125861458749545,0,Fixed-Wing
1970-01-01 00:00:14.012056192,5091,1538768557978047815,base_link,0,1,40.5925011,-79.8968395,367.504501227,0.462400009727,0.0,0.0,0.0,0.462400009727,0.0,0.0,0.0,1.84960003891,1,383.6529486230744,226.45689081079746,367.4889497874059,-15.489869881682914,-7.967887808522384,3.12574566574434,0,Fixed-Wing
1970-01-01 00:00:14.470421824,5093,1538768558435189543,base_link,0,1,40.5924695,-79.8969073,368.894444952,0.462400009727,0.0,0.0,0.0,0.462400009727,0.0,0.0,0.0,1.84960003891,1,377.91352565907346,222.94738880860584,368.8793595979996,-14.3470868336019,-8.772855787760815,3.4756682704865844,0,Fixed-Wing
1970-01-01 00:00:14.853972320,5095,1538768558819702951,base_link,0,1,40.5924379,-79.8969719,370.214391959,0.435600034618,0.0,0.0,0.0,0.435600034618,0.0,0.0,0.0,1.74240013847,1,372.4449905815004,219.4379008255293,370.1997498072716,-13.669936525438771,-8.772820743565097,3.3006372078661372,0,Fixed-Wing
1970-01-01 00:00:15.208507872,5097,1538768559174247111,base_link,0,1,40.5924075,-79.8970357,371.084339293,0.384400005913,0.0,0.0,0.0,0.384400005913,0.0,0.0,0.0,1.53760002365,1,367.04414068578467,216.06166649741087,371.07012531480433,-13.500740913345725,-8.439720748919344,2.175715757966664,0,Fixed-Wing
1970-01-01 00:00:15.610197280,5099,1538768559575976391,base_link,0,1,40.5923787,-79.8970991,371.33428638,0.384400005913,0.0,0.0,0.0,0.384400005913,0.0,0.0,0.0,1.53760002365,1,361.67710322479724,212.86310012417275,371.3204863580409,-13.41621849007335,-7.995596384465899,0.6258384596493369,0,Fixed-Wing
1970-01-01 00:00:16.010913856,5101,1538768559976695271,base_link,0,1,40.5923513,-79.897163,371.154232381,0.384400005913,0.0,0.0,0.0,0.384400005913,0.0,0.0,0.0,1.53760002365,1,356.2677011547547,209.81999470899132,371.14083743676605,-13.522119157892611,-7.606983822111808,-0.44907627286918367,0,Fixed-Wing
1970-01-01 00:00:16.402472512,5103,1538768560368147399,base_link,0,1,40.5923249,-79.8972276,370.744177257,0.384400005913,0.0,0.0,0.0,0.384400005913,0.0,0.0,0.0,1.53760002365,1,350.7990176628894,206.88793564944928,370.73118099890206,-13.670307523142144,-7.329396385725567,-1.0240361309565442,0,Fixed-Wing
1970-01-01 00:00:16.818629952,5105,1538768560784578919,base_link,0,1,40.5922987,-79.8972926,370.034121647,0.384400005913,0.0,0.0,0.0,0.384400005913,0.0,0.0,0.0,1.53760002365,1,345.296450769198,203.9780803058946,370.02151916196954,-13.755007345975631,-7.273892784876256,-1.7739727601234014,0,Fixed-Wing
1970-01-01 00:00:17.215492704,5107,1538768561179176519,base_link,0,1,40.5922724,-79.8973578,369.124065881,0.384400005913,0.0,0.0,0.0,0.384400005913,0.0,0.0,0.0,1.53760002365,1,339.77693938952575,201.05711734762215,369.111852348642,-13.797364219348077,-7.301658975636099,-2.273933955088436,0,Fixed-Wing
1970-01-01 00:00:17.589417056,5109,1538768561555093063,base_link,0,1,40.5922448,-79.8974229,368.194010765,0.384400005913,0.0,0.0,0.0,0.384400005913,0.0,0.0,0.0,1.53760002365,1,334.26589632588644,197.99179088101408,368.1821841288988,-13.776195599049364,-7.662530757117572,-2.3239323462924495,0,Fixed-Wing
1970-01-01 00:00:17.987502336,5111,1538768561952117447,base_link,0,1,40.5922157,-79.8974874,367.383956891,0.448900022364,0.0,0.0,0.0,0.448900022364,0.0,0.0,0.0,1.79560008945,1,328.80565772730586,194.75989664693262,367.37251340399723,-13.649197453712466,-8.078907497185204,-2.0239693553950557,0,Fixed-Wing
1970-01-01 00:00:18.380046976,5113,1538768562345432583,base_link,0,1,40.5921852,-79.8975512,366.633904323,0.448900022364,0.0,0.0,0.0,0.448900022364,0.0,0.0,0.0,1.79560008945,1,323.4046850977421,191.37253822401306,366.62283935172184,-13.501047716518405,-8.467528135664999,-1.8739930464012322,0,Fixed-Wing
1970-01-01 00:00:18.784970816,5115,1538768562750976679,base_link,0,1,40.5921538,-79.8976138,366.053853362,0.448900022364,0.0,0.0,0.0,0.448900022364,0.0,0.0,0.0,1.79560008945,1,318.1053093681174,187.88524670552653,366.0431584314797,-13.247081498208255,-8.717335269351215,-1.4490537725936592,0,Fixed-Wing
1970-01-01 00:00:19.208252416,5117,1538768563170274855,base_link,0,1,40.592121,-79.8976744,365.923805035,0.448900022364,0.0,0.0,0.0,0.448900022364,0.0,0.0,0.0,1.79560008945,1,312.9752713073051,184.24250637079294,365.9134700465179,-12.823780714507505,-9.105917480292241,-0.3241877331618754,0,Fixed-Wing
1970-01-01 00:00:19.607093088,5119,1538768563570073159,base_link,0,1,40.5920876,-79.8977331,366.043758908,0.448900022364,0.0,0.0,0.0,0.448900022364,0.0,0.0,0.0,1.79560008945,1,308.00609077243433,180.53315202446743,366.03377179257075,-12.421678115170094,-9.272435441181058,0.3007235409692005,0,Fixed-Wing
1970-01-01 00:00:20.001465056,5121,1538768563967036743,base_link,0,1,40.5920541,-79.8977902,366.303714464,0.448900022364,0.0,0.0,0.0,0.448900022364,0.0,0.0,0.0,1.79560008945,1,303.17236282336444,176.81270502568572,366.2940630722807,-12.083081356835665,-9.30016423012069,0.6506615064705238,0,Fixed-Wing
1970-01-01 00:00:20.425257120,5123,1538768564389706887,base_link,0,1,40.5920209,-79.8978462,366.583671027,0.448900022364,0.0,0.0,0.0,0.448900022364,0.0,0.0,0.0,1.79560008945,1,298.43175161191556,173.1255808813782,366.5743442710542,-11.85031337150162,-9.216865632041511,0.7006311822375204,0,Fixed-Wing
1970-01-01 00:00:20.817667584,5125,1538768564783559047,base_link,0,1,40.5919883,-79.8979016,366.72362796,0.448900022364,0.0,0.0,0.0,0.448900022364,0.0,0.0,0.0,1.79560008945,1,293.74192027186615,169.50508917811436,366.71461607450834,-11.723376704011361,-9.050301602245364,0.3506435676696659,0,Fixed-Wing
1970-01-01 00:00:21.209800320,5127,1538768565174602759,base_link,0,1,40.5919563,-79.897957,366.64358465,0.448900022364,0.0,0.0,0.0,0.448900022364,0.0,0.0,0.0,1.79560008945,1,289.0520716299036,165.95122600712574,366.63488039519314,-11.723419954361068,-8.883747343368857,-0.19931876811428378,0,Fixed-Wing
1970-01-01 00:00:21.601183776,5129,1538768565567203783,base_link,0,1,40.5919253,-79.8980132,366.433540111,0.448900022364,0.0,0.0,0.0,0.448900022364,0.0,0.0,0.0,1.79560008945,1,284.29448316778223,162.50841241881406,366.425138238216,-11.892752148208213,-8.606151840215578,-0.5243016515235757,0,Fixed-Wing
1970-01-01 00:00:22.042590784,5131,1538768566008280807,base_link,0,1,40.5918958,-79.8980705,366.27349383,0.448900022364,0.0,0.0,0.0,0.448900022364,0.0,0.0,0.0,1.79560008945,1,279.44376403884655,159.23217850268423,366.26538884071897,-12.125554952956522,-8.189745341427068,-0.39933256215493773,0,Fixed-Wing
1970-01-01 00:00:22.414732704,5133,1538768566380445927,base_link,0,1,40.5918675,-79.8981288,366.253446034,0.448900022364,0.0,0.0,0.0,0.448900022364,0.0,0.0,0.0,1.79560008945,1,274.50838512499996,156.0892111422629,366.2456329299264,-12.337182723387333,-7.856613098210743,-0.0493847150481642,0,Fixed-Wing
1970-01-01 00:00:22.801791872,5135,1538768566767672135,base_link,0,1,40.5918401,-79.8981876,366.293397357,0.448900022364,0.0,0.0,0.0,0.448900022364,0.0,0.0,0.0,1.79560008945,1,269.5306725425475,153.04619417315718,366.2858701544822,-12.443006048011217,-7.606762729584558,0.10058275165751514,0,Fixed-Wing
1970-01-01 00:00:23.203931872,5137,1538768567169631783,base_link,0,1,40.5918135,-79.8982466,366.403348148,0.396899993992,0.0,0.0,0.0,0.396899993992,0.0,0.0,0.0,1.58759997597,1,264.53602419130453,150.09202349144527,366.39610011888294,-12.48534113064154,-7.38466977562775,0.2755466674684102,0,Fixed-Wing
1970-01-01 00:00:23.612118944,5139,1538768567577578023,base_link,0,1,40.5917875,-79.8983052,366.573299104,0.396899993992,0.0,0.0,0.0,0.396899993992,0.0,0.0,0.0,1.58759997597,1,259.5752346180516,147.20449008751814,366.5663220540491,-12.40070286108912,-7.218093655218182,0.4255112230150971,0,Fixed-Wing
1970-01-01 00:00:23.974325696,5141,1538768567939928135,base_link,0,1,40.5917617,-79.8983636,366.733250187,0.396899993992,0.0,0.0,0.0,0.396899993992,0.0,0.0,0.0,1.58759997597,1,254.63137118507566,144.33917068019596,366.726537774747,-12.358391847275447,-7.162564355459004,0.40049825067396383,0,Fixed-Wing
1970-01-01 00:00:24.428201056,5143,1538768568393596487,base_link,0,1,40.5917358,-79.8984215,366.833201828,0.396899993992,0.0,0.0,0.0,0.396899993992,0.0,0.0,0.0,1.58759997597,1,249.7298302542697,141.46274926230876,366.8267475296927,-12.252596435880234,-7.190316537272932,0.2504987112463344,0,Fixed-Wing
1970-01-01 00:00:24.812285664,5145,1538768568776583879,base_link,0,1,40.5917092,-79.8984787,366.893154481,0.396899993992,0.0,0.0,0.0,0.396899993992,0.0,0.0,0.0,1.58759997597,1,244.88754636549814,138.50859536348537,366.8869526554998,-12.104469013854985,-7.384627822706654,0.1504973885354288,0,Fixed-Wing
1970-01-01 00:00:25.170539040,5147,1538768569136098567,base_link,0,1,40.5916817,-79.898535,366.953108434,0.396899993992,0.0,0.0,0.0,0.396899993992,0.0,0.0,0.0,1.58759997597,1,240.12145317437,135.45449983782567,366.9471533029882,-11.9140117916117,-7.6344562823803175,0.15048619388623502,0,Fixed-Wing
1970-01-01 00:00:25.602981376,5149,1538768569568947495,base_link,0,1,40.5916539,-79.8985916,366.883062212,0.396899993992,0.0,0.0,0.0,0.396899993992,0.0,0.0,0.0,1.58759997597,1,235.32995510356062,132.36708807914812,366.877350384127,-11.977517481481604,-7.717738328515195,-0.17448941198834153,0,Fixed-Wing
1970-01-01 00:00:25.985346464,5151,1538768569951215943,base_link,0,1,40.5916259,-79.8986485,366.743015772,0.396899993992,0.0,0.0,0.0,0.396899993992,0.0,0.0,0.0,1.58759997597,1,230.51305417490016,129.25746679290006,366.73754352065765,-12.041018117294126,-7.773256456833318,-0.34948133683633903,0,Fixed-Wing
1970-01-01 00:00:26.387252320,5153,1538768570349962663,base_link,0,1,40.5915982,-79.8987061,366.562968498,0.396899993992,0.0,0.0,0.0,0.396899993992,0.0,0.0,0.0,1.58759997597,1,225.63688696100496,126.18116191042832,366.5577321055315,-12.189168644951895,-7.689973983846021,-0.44948246586263146,0,Fixed-Wing
1970-01-01 00:00:26.764286336,5155,1538768570730244263,base_link,0,1,40.5915713,-79.8987649,366.43291967,0.396899993992,0.0,0.0,0.0,0.396899993992,0.0,0.0,0.0,1.58759997597,1,220.65912639259324,123.19370029785816,366.4279157165614,-12.44312600061425,-7.467888572846678,-0.32450771038489684,0,Fixed-Wing
1970-01-01 00:00:27.180587520,5157,1538768571146469127,base_link,0,1,40.5915456,-79.8988247,366.372869326,0.396899993992,0.0,0.0,0.0,0.396899993992,0.0,0.0,0.0,1.58759997597,1,215.59670326266922,120.3395039192441,366.36809286950836,-12.65476071183707,-7.134759633672705,-0.14954178959920544,0,Fixed-Wing
1970-01-01 00:00:27.591454112,5159,1538768571557025063,base_link,0,1,40.5915208,-79.8988847,366.392818408,0.396899993992,0.0,0.0,0.0,0.396899993992,0.0,0.0,0.0,1.58759997597,1,210.5173447027352,117.58525921675184,366.38826286868436,-12.697094947602961,-6.884906053360176,0.05041982990744736,0,Fixed-Wing
1970-01-01 00:00:27.961349536,5161,1538768571927320103,base_link,0,1,40.5914961,-79.8989443,366.592767862,0.396899993992,0.0,0.0,0.0,0.396899993992,0.0,0.0,0.0,1.58759997597,1,205.47185078088413,114.8421273945533,366.58842671737364,-12.61244202931965,-6.857126700009587,0.5003583349938422,0,Fixed-Wing
1970-01-01 00:00:28.436608704,5163,1538768572393505031,base_link,0,1,40.5914708,-79.8990028,366.832718696,0.396899993992,0.0,0.0,0.0,0.396899993992,0.0,0.0,0.0,1.58759997597,1,200.5194789959265,112.03237058072511,366.8285850311662,-12.379660547187964,-7.02367210817938,0.6003342502207591,0,Fixed-Wing
1970-01-01 00:00:28.763898272,5165,1538768572729757991,base_link,0,1,40.5914447,-79.8990601,367.002671094,0.396899993992,0.0,0.0,0.0,0.396899993992,0.0,0.0,0.0,1.58759997597,1,195.66869219811872,109.13377638038813,366.998738240757,-12.125724107798415,-7.245742812204218,0.4253394266857843,0,Fixed-Wing
1970-01-01 00:00:29.213877440,5167,1538768573179189543,base_link,0,1,40.5914178,-79.8991165,367.10262475,0.396899993992,0.0,0.0,0.0,0.396899993992,0.0,0.0,0.0,1.58759997597,1,190.89409325974154,106.1463440389613,367.098886908346,-11.935273980359968,-7.467815402488307,0.25034600850661914,0,Fixed-Wing
1970-01-01 00:00:29.596451648,5169,1538768573561755623,base_link,0,1,40.5913903,-79.8991724,367.162579173,0.396899993992,0.0,0.0,0.0,0.396899993992,0.0,0.0,0.0,1.58759997597,1,186.1618195890764,103.09228362632462,367.15903122057756,-11.829471655818121,-7.6343685088195645,0.15034537017844984,0,Fixed-Wing
1970-01-01 00:00:29.989200800,5171,1538768573954977543,base_link,0,1,40.5913625,-79.8992282,367.112533829,0.396899993992,0.0,0.0,0.0,0.396899993992,0.0,0.0,0.0,1.58759997597,1,181.4380053907125,100.00490892398264,367.10917107554417,-11.808325142582628,-7.717645697170979,-0.12463758723078935,0,Fixed-Wing
1970-01-01 00:00:30.453413952,5173,1538768574419032487,base_link,0,1,40.5913347,-79.8992844,367.312488082,0.396899993992,0.0,0.0,0.0,0.396899993992,0.0,0.0,0.0,1.58759997597,1,176.68033124488213,96.91754028309884,367.30930647293883,-11.892966335526555,-7.7176305450786185,0.5002872140472119,0,Fixed-Wing
1970-01-01 00:00:30.756864928,5175,1538768574722832359,base_link,0,1,40.5913071,-79.8993406,367.492442257,0.396899993992,0.0,0.0,0.0,0.396899993992,0.0,0.0,0.0,1.58759997597,1,171.92265180969994,93.85238469230953,367.4894364237359,-11.89297955755081,-7.662103611353129,0.45027872342358727,0,Fixed-Wing
1970-01-01 00:00:31.236066112,5177,1538768575202029159,base_link,0,1,40.5912793,-79.8993964,367.522396929,0.396899993992,0.0,0.0,0.0,0.396899993992,0.0,0.0,0.0,1.58759997597,1,167.19882782056624,90.76502010941448,367.5195612818625,-11.808349616998523,-7.717620401146505,0.07530442661266074,0,Fixed-Wing
1970-01-01 00:00:31.603110176,5179,1538768575569019207,base_link,0,1,40.5912514,-79.8994524,367.492351445,0.36000002861,0.0,0.0,0.0,0.36000002861,0.0,0.0,0.0,1.44000011444,1,162.45806705545147,87.6665520690535,367.4896815766584,-11.85068721734715,-7.745376199841977,-0.0746916071204019,0,Fixed-Wing
1970-01-01 00:00:32.004459424,5181,1538768575969581543,base_link,0,1,40.5912239,-79.8995088,367.30230539,0.36000002861,0.0,0.0,0.0,0.36000002861,0.0,0.0,0.0,1.44000011444,1,157.6834344229241,84.61250521526577,367.29979651806093,-11.935358207102166,-7.634334615171257,-0.47466399343441534,0,Fixed-Wing
1970-01-01 00:00:32.387763456,5183,1538768576353339623,base_link,0,1,40.5911967,-79.8995659,367.272258502,0.36000002861,0.0,0.0,0.0,0.36000002861,0.0,0.0,0.0,1.44000011444,1,152.84954089688011,81.59177817860348,367.26990658214913,-12.08349525684616,-7.551043609685742,-0.07471718126841195,0,Fixed-Wing
1970-01-01 00:00:32.757953376,5185,1538768576723874151,base_link,0,1,40.5911698,-79.8996231,367.412211391,0.36000002861,0.0,0.0,0.0,0.36000002861,0.0,0.0,0.0,1.44000011444,1,148.0071809974696,78.6043719795963,367.4100111172037,-12.104659020976662,-7.467750053137509,0.3502254395288167,0,Fixed-Wing
1970-01-01 00:00:33.205638656,5187,1538768577171518151,base_link,0,1,40.5911431,-79.8996801,367.502164407,0.36000002861,0.0,0.0,0.0,0.36000002861,0.0,0.0,0.0,1.44000011444,1,143.18174701924715,75.63917902156629,367.5001100609987,-12.062348554829217,-7.412222642254174,0.22522427399941214,0,Fixed-Wing
1970-01-01 00:00:33.609166112,5189,1538768577574883879,base_link,0,1,40.5911168,-79.8997375,367.572116852,0.36000002861,0.0,0.0,0.0,0.36000002861,0.0,0.0,0.0,1.44000011444,1,138.32244467254728,72.71840923396704,367.57020363381656,-12.147010798142885,-7.301176098448047,0.17521597240753317,0,Fixed-Wing
1970-01-01 00:00:34.013593472,5191,1538768577979476743,base_link,0,1,40.5910911,-79.8997951,367.712068848,0.36000002861,0.0,0.0,0.0,0.36000002861,0.0,0.0,0.0,1.44000011444,1,133.44620710574793,69.86427448581651,367.7102913414949,-12.189344509186176,-7.134605573305057,0.35018337539985434,0,Fixed-Wing
1970-01-01 00:00:34.474474784,5193,1538768578437825543,base_link,0,1,40.591066,-79.899853,367.922020293,0.36000002861,0.0,0.0,0.0,0.36000002861,0.0,0.0,0.0,1.44000011444,1,128.54456848025734,67.07677457278794,367.9203733051333,-12.252840647560104,-6.9680355589266325,0.5251510811101905,0,Fixed-Wing
1970-01-01 00:00:34.797088352,5195,1538768578762992071,base_link,0,1,40.5910421,-79.8999121,368.051970016,0.36000002861,0.0,0.0,0.0,0.36000002861,0.0,0.0,0.0,1.44000011444,1,123.5413325782278,64.42253814102503,368.05044918283,-12.506807807273617,-6.634911001029672,0.32515636571425743,0,Fixed-Wing
1970-01-01 00:00:35.194722048,5197,1538768579160188903,base_link,0,1,40.5910205,-79.899973,368.301916947,0.36000002861,0.0,0.0,0.0,0.36000002861,0.0,0.0,0.0,1.44000011444,1,118.38570672768046,62.02372432361466,368.30051758236164,-12.887743632646,-5.996419910485103,0.6251069253692552,0,Fixed-Wing
1970-01-01 00:00:35.603590752,5199,1538768579569348583,base_link,0,1,40.5910014,-79.9000355,368.401861205,0.36000002861,0.0,0.0,0.0,0.36000002861,0.0,0.0,0.0,1.44000011444,1,113.0946174849762,59.90254153260605,368.40057803626905,-13.22636740410173,-5.302413480139804,0.25012549690511093,0,Fixed-Wing
1970-01-01 00:00:35.973412736,5201,1538768579939330471,base_link,0,1,40.5909854,-79.9001003,368.471801825,0.36000002861,0.0,0.0,0.0,0.36000002861,0.0,0.0,0.0,1.44000011444,1,107.60880614064291,58.12562191903359,368.4706299106498,-13.713122765749725,-4.441843744947293,0.1751117369988024,0,Fixed-Wing
1970-01-01 00:00:36.400896576,5203,1538768580366791911,base_link,0,1,40.590973,-79.9001673,368.491738702,0.36000002861,0.0,0.0,0.0,0.36000002861,0.0,0.0,0.0,1.44000011444,1,101.93673811180852,56.74849210669649,368.4906722539956,-14.178716753618726,-3.442471677495813,0.05010072304047694,0,Fixed-Wing
1970-01-01 00:00:36.798162432,5205,1538768580764081255,base_link,0,1,40.5909649,-79.9002361,368.39167195,0.36000002861,0.0,0.0,0.0,0.36000002861,0.0,0.0,0.0,1.44000011444,1,96.11227550079084,55.84888908508728,368.3907037580037,-14.559664161967598,-2.2487770543749503,-0.24989562567812368,0,Fixed-Wing
1970-01-01 00:00:37.216516448,5207,1538768581182269575,base_link,0,1,40.590962,-79.9003072,368.441600684,0.36000002861,0.0,0.0,0.0,0.36000002861,0.0,0.0,0.0,1.44000011444,1,90.09309328562044,55.526762273785835,368.44072304419785,-15.046413280564751,-0.8052344917182105,0.12503539935688757,0,Fixed-Wing
1970-01-01 00:00:37.579478240,5209,1538768581543864135,base_link,0,1,40.5909645,-79.9003794,368.531526046,0.36000002861,0.0,0.0,0.0,0.36000002861,0.0,0.0,0.0,1.44000011444,1,83.98078037008788,55.80432280166477,368.53072926392474,-15.279216169174049,0.6938302021016166,0.22499248758724244,0,Fixed-Wing
1970-01-01 00:00:37.985415104,5211,1538768581951255175,base_link,0,1,40.5909731,-79.9004524,368.52144805,0.36000002861,0.0,0.0,0.0,0.36000002861,0.0,0.0,0.0,1.44000011444,1,77.80073301592897,56.75930665907222,368.52072108315326,-15.448534910568956,2.387214953985856,-0.02501788759521822,0,Fixed-Wing
1970-01-01 00:00:38.388594080,5213,1538768582354252647,base_link,0,1,40.5909888,-79.9005258,368.471366688,0.36000002861,0.0,0.0,0.0,0.36000002861,0.0,0.0,0.0,1.44000011444,1,71.58681603528792,58.50276728347646,368.4706965928013,-15.53320029857201,4.358204845013976,-0.12504840841806933,0,Fixed-Wing
1970-01-01 00:00:38.859482880,5215,1538768582825501063,base_link,0,1,40.591013,-79.9005982,368.211282806,0.36000002861,0.0,0.0,0.0,0.36000002861,0.0,0.0,0.0,1.44000011444,1,65.45754961050747,61.19017753818366,368.21065318524666,-15.321595598402299,6.717837058469514,-0.6500418895928997,0,Fixed-Wing
1970-01-01 00:00:39.182185600,5217,1538768583148072743,base_link,0,1,40.591048,-79.900667,367.811198097,0.36000002861,0.0,0.0,0.0,0.36000002861,0.0,0.0,0.0,1.44000011444,1,59.63304580814834,65.07695990728348,367.8105869431256,-14.55976712976703,9.715960036845772,-1.0000630988350103,0,Fixed-Wing
1970-01-01 00:00:39.628030496,5219,1538768583594041767,base_link,0,1,40.5910937,-79.9007298,367.601115052,0.36000002861,0.0,0.0,0.0,0.36000002861,0.0,0.0,0.0,1.44000011444,1,54.31648904811842,70.15201308662898,367.6004973900257,-13.290029672033413,12.686332599272331,-0.5251700528193851,0,Fixed-Wing
1970-01-01 00:00:40.008530720,5221,1538768583973983815,base_link,0,1,40.5911495,-79.9007828,367.641037799,0.36000002861,0.0,0.0,0.0,0.36000002861,0.0,0.0,0.0,1.44000011444,1,49.82958085740878,76.34870776234109,367.6403853784017,-11.216120824389604,15.490148949013,0.09970975069054075,0,Fixed-Wing
1970-01-01 00:00:40.364735168,5223,1538768584330336647,base_link,0,1,40.5912135,-79.9008228,367.960970392,0.36000002861,0.0,0.0,0.0,0.36000002861,0.0,0.0,0.0,1.44000011444,1,46.443226919982855,83.4560456676439,367.9602542391454,-8.46501717930393,17.76652369457834,0.7995901938644409,0,Fixed-Wing
1970-01-01 00:00:40.782956096,5225,1538768584748892935,base_link,0,1,40.5912825,-79.9008489,368.530915085,0.36000002861,0.0,0.0,0.0,0.36000002861,0.0,0.0,0.0,1.44000011444,1,44.23361882600552,91.1186585927563,368.5301094987298,-5.523454080900051,19.15456896946163,1.4244921385168392,0,Fixed-Wing
1970-01-01 00:00:41.234844000,5227,1538768585200718951,base_link,0,1,40.5913531,-79.9008649,369.060869422,0.36000002861,0.0,0.0,0.0,0.36000002861,0.0,0.0,0.0,1.44000011444,1,42.879054988042896,98.9589618209067,369.05995596536656,-3.3860625234978983,19.59874919858312,1.3244804073500989,0,Fixed-Wing
1970-01-01 00:00:41.581937312,5229,1538768585547485575,base_link,0,1,40.5914238,-79.9008714,369.460833416,0.36000002861,0.0,0.0,0.0,0.36000002861,0.0,0.0,0.0,1.44000011444,1,42.32873890687981,106.81037428473712,369.459796675426,-1.3756491988648216,19.626519441333336,0.999499326467628,0,Fixed-Wing
1970-01-01 00:00:41.992550720,5231,1538768585958473095,base_link,0,1,40.5914932,-79.9008701,369.840805914,0.36000002861,0.0,0.0,0.0,0.36000002861,0.0,0.0,0.0,1.44000011444,1,42.438752277276954,114.51742302439985,369.8396344002386,0.2750052379559617,19.265647120326978,0.9494969885901772,0,Fixed-Wing
1970-01-01 00:00:42.382893632,5233,1538768586347275111,base_link,0,1,40.591562,-79.9008651,370.090782451,0.36000002861,0.0,0.0,0.0,0.36000002861,0.0,0.0,0.0,1.44000011444,1,42.861997002283275,122.15784058865745,370.08946601313824,1.0580033671706657,19.099086254302943,0.6245150194596073,0,Fixed-Wing
1970-01-01 00:00:42.762417472,5235,1538768586727571559,base_link,0,1,40.5916299,-79.9008588,370.260760706,0.36000002861,0.0,0.0,0.0,0.36000002861,0.0,0.0,0.0,1.44000011444,1,43.3952953276253,129.69831063784136,370.25929143174847,1.333109169665169,18.849243075544532,0.4245200332221707,0,Fixed-Wing
1970-01-01 00:00:43.225002816,5237,1538768587190471175,base_link,0,1,40.591697,-79.9008534,370.310738399,0.36000002861,0.0,0.0,0.0,0.36000002861,0.0,0.0,0.0,1.44000011444,1,43.85240086897956,137.14993618965852,370.309109748664,1.142646732095609,18.62715459619679,0.12453302765353594,0,Fixed-Wing
1970-01-01 00:00:43.589253248,5239,1538768587554968007,base_link,0,1,40.5917632,-79.9008499,370.170714553,0.36000002861,0.0,0.0,0.0,0.36000002861,0.0,0.0,0.0,1.44000011444,1,44.148656369624156,144.50160946439678,370.1689211505163,0.7405628439199936,18.377299513645504,-0.3504355757227085,0,Fixed-Wing
1970-01-01 00:00:43.986591136,5241,1538768587952327399,base_link,0,1,40.5918293,-79.9008491,369.930688023,0.36000002861,0.0,0.0,0.0,0.36000002861,0.0,0.0,0.0,1.44000011444,1,44.216336815377765,151.84217351704626,369.9287232105473,0.16918377304728596,18.34952930486996,-0.6004333055088112,0,Fixed-Wing
1970-01-01 00:00:44.364201888,5243,1538768588329995015,base_link,0,1,40.5918955,-79.9008503,369.690659438,0.36000002861,0.0,0.0,0.0,0.36000002861,0.0,0.0,0.0,1.44000011444,1,44.11470328513663,159.19384134542634,369.68851564344436,-0.2540577846799147,18.37728589914552,-0.6004573708767696,0,Fixed-Wing
1970-01-01 00:00:44.794212576,5245,1538768588759958567,base_link,0,1,40.5919618,-79.9008549,369.350627376,0.36000002861,0.0,0.0,0.0,0.36000002861,0.0,0.0,0.0,1.44000011444,1,43.72523609519969,166.55660964071475,369.34829778771405,-0.9735681841034721,18.40503422221327,-0.8504574674353778,0,Fixed-Wing
1970-01-01 00:00:45.195303104,5247,1538768589160809159,base_link,0,1,40.5920279,-79.9008614,369.000593487,0.36000002861,0.0,0.0,0.0,0.36000002861,0.0,0.0,0.0,1.44000011444,1,43.17492202876582,173.89716555231848,368.9980712576154,-1.3756441625580134,18.349508954341506,-0.8754765888963043,0,Fixed-Wing
1970-01-01 00:00:45.622539296,5249,1538768589587691463,base_link,0,1,40.592094,-79.9008668,368.720560739,0.36000002861,0.0,0.0,0.0,0.36000002861,0.0,0.0,0.0,1.44000011444,1,42.717731858515336,181.23772330949362,368.71783673014863,-1.1428582826522398,18.349513567797135,-0.7005145159289822,0,Fixed-Wing
1970-01-01 00:00:46.025442016,5251,1538768589991270631,base_link,0,1,40.5921601,-79.9008695,368.45053076,0.36000002861,0.0,0.0,0.0,0.36000002861,0.0,0.0,0.0,1.44000011444,1,42.489115342088745,188.57828212715276,368.44759495506395,-0.5714827140882834,18.349516218735438,-0.6755351953541883,0,Fixed-Wing
1970-01-01 00:00:46.394659296,5253,1538768590360375943,base_link,0,1,40.5922264,-79.9008661,368.150506924,0.36000002861,0.0,0.0,0.0,0.36000002861,0.0,0.0,0.0,1.44000011444,1,42.77690330350186,195.94105292652603,368.1473467247268,0.719396165425834,18.405040481783782,-0.7505436451192772,0,Fixed-Wing
1970-01-01 00:00:46.785545088,5255,1538768590751337255,base_link,0,1,40.5922926,-79.9008535,367.850492506,0.36000002861,0.0,0.0,0.0,0.36000002861,0.0,0.0,0.0,1.44000011444,1,43.84352925465649,203.29272242154883,367.8470944345378,2.666291582999311,18.377290065325315,-0.7505537937086635,0,Fixed-Wing
1970-01-01 00:00:47.201483776,5257,1538768591164497415,base_link,0,1,40.5923579,-79.9008303,367.510489256,0.36000002861,0.0,0.0,0.0,0.36000002861,0.0,0.0,0.0,1.44000011444,1,45.80750982503085,210.5444483913766,367.50684157819694,4.909448207494633,18.127456860241224,-0.8505449599936996,0,Fixed-Wing
1970-01-01 00:00:47.589724160,5259,1538768591555626695,base_link,0,1,40.5924211,-79.9007962,367.060497971,0.36000002861,0.0,0.0,0.0,0.36000002861,0.0,0.0,0.0,1.44000011444,1,48.69423948847502,217.5629662563688,367.05659282669177,7.21608450994816,17.54449635160451,-1.1255065143452077,0,Fixed-Wing
1970-01-01 00:00:47.978383072,5261,1538768591943783527,base_link,0,1,40.5924806,-79.9007495,366.640521032,0.36000002861,0.0,0.0,0.0,0.36000002861,0.0,0.0,0.0,1.44000011444,1,52.647633352085705,224.17059881780443,366.6363551617195,9.882471705676881,16.517388371281,-1.0504864875656803,0,Fixed-Wing
1970-01-01 00:00:48.384534016,5263,1538768592350426087,base_link,0,1,40.5925345,-79.9006899,366.460559523,0.36000002861,0.0,0.0,0.0,0.36000002861,0.0,0.0,0.0,1.44000011444,1,57.69308941734355,230.15635610430246,366.45613637242604,12.612347397536366,14.96285952314395,-0.45050079690197403,0,Fixed-Wing
1970-01-01 00:00:48.788629856,5265,1538768592754564327,base_link,0,1,40.5925803,-79.9006185,366.440613347,0.36000002861,0.0,0.0,0.0,0.36000002861,0.0,0.0,0.0,1.44000011444,1,63.737486792936565,235.24260619841493,366.4359467303672,15.109444720898646,12.71432201727441,-0.05046893208152194,0,Fixed-Wing
1970-01-01 00:00:49.180923648,5267,1538768593145498759,base_link,0,1,40.5926157,-79.9005383,366.620680396,0.36000002861,0.0,0.0,0.0,0.36000002861,0.0,0.0,0.0,1.44000011444,1,70.52686112357685,239.17393038050972,366.6157958647196,16.97169622773737,9.827303156663401,0.4495767542636042,0,Fixed-Wing
1970-01-01 00:00:49.583129504,5269,1538768593549131655,base_link,0,1,40.592639,-79.9004518,367.090758822,0.36000002861,0.0,0.0,0.0,0.36000002861,0.0,0.0,0.0,1.44000011444,1,77.84957838076599,241.76154298788146,367.0856914477364,18.30491688899173,6.468368510657005,1.174618559139707,0,Fixed-Wing
1970-01-01 00:00:50.006763136,5271,1538768593972564871,base_link,0,1,40.5926523,-79.9003641,367.54084258,0.36000002861,0.0,0.0,0.0,0.36000002861,0.0,0.0,0.0,1.44000011444,1,85.27389113763324,243.23863899880496,367.5356241123784,18.558879607008414,3.692361560248833,1.1247163781762517,0,Fixed-Wing
1970-01-01 00:00:50.362778592,5273,1538768594328207751,base_link,0,1,40.5926548,-79.9002777,367.970929453,0.36000002861,0.0,0.0,0.0,0.36000002861,0.0,0.0,0.0,1.44000011444,1,92.58816394573978,243.5163738583894,367.96559852802176,18.283807929953525,0.6942659866974319,1.0748258694567747,0,Fixed-Wing
1970-01-01 00:00:50.827310848,5275,1538768594793290503,base_link,0,1,40.592647,-79.9001954,368.371016392,0.36000002861,0.0,0.0,0.0,0.36000002861,0.0,0.0,0.0,1.44000011444,1,99.55536277904662,242.65026967826492,368.3656137659599,17.416211921545138,-2.1650385338614453,0.9999356014461888,0,Fixed-Wing
1970-01-01 00:00:51.189892768,5277,1538768595155712839,base_link,0,1,40.5926302,-79.9001192,368.751100829,0.36000002861,0.0,0.0,0.0,0.36000002861,0.0,0.0,0.0,1.44000011444,1,106.00617677556406,240.7846914775015,368.74566527646545,16.12538213962429,-4.663467496490167,0.9500313980455815,0,Fixed-Wing
1970-01-01 00:00:51.554071520,5279,1538768595518905447,base_link,0,1,40.5926061,-79.9000494,369.181181762,0.36000002861,0.0,0.0,0.0,0.36000002861,0.0,0.0,0.0,1.44000011444,1,111.91520958929746,238.10842922147805,369.1757461246166,14.771067999863526,-6.689969918142014,1.0750919234556842,0,Fixed-Wing
1970-01-01 00:00:52.014033280,5281,1538768595979970183,base_link,0,1,40.5925778,-79.8999868,369.461257106,0.36000002861,0.0,0.0,0.0,0.36000002861,0.0,0.0,0.0,1.44000011444,1,117.21472868443132,234.9657356865875,369.455843247879,13.247439875247437,-7.855928604544421,0.7001710406243558,0,Fixed-Wing
1970-01-01 00:00:52.464710144,5283,1538768596430632519,base_link,0,1,40.5925467,-79.8999286,369.841329136,0.36000002861,0.0,0.0,0.0,0.36000002861,0.0,0.0,0.0,1.44000011444,1,122.14177304678952,231.51209619903864,369.8359495633626,12.31634848017629,-8.633213814456157,0.9501683964483679,0,Fixed-Wing
1970-01-01 00:00:52.780441696,5285,1538768596746382951,base_link,0,1,40.592515,-79.899874,370.101397762,0.36000002861,0.0,0.0,0.0,0.36000002861,0.0,0.0,0.0,1.44000011444,1,126.76405931330453,227.99181858562616,370.0960552413168,11.554531326826513,-8.799792054845566,0.6501975496366282,0,Fixed-Wing
1970-01-01 00:00:53.179403712,5287,1538768597145432295,base_link,0,1,40.5924832,-79.8998212,370.131464609,0.36000002861,0.0,0.0,0.0,0.36000002861,0.0,0.0,0.0,1.44000011444,1,131.23396471521474,224.46042752036735,370.12615737431196,11.173618208909113,-8.827572836931255,0.07524761960694598,0,Fixed-Wing
1970-01-01 00:00:53.598195648,5289,1538768597564244199,base_link,0,1,40.5924514,-79.899769,370.06153086,0.36000002861,0.0,0.0,0.0,0.36000002861,0.0,0.0,0.0,1.44000011444,1,135.65307855580022,220.92903472560232,370.0562548998796,11.046652319600945,-8.827577160253638,-0.1747382754076551,0,Fixed-Wing
1970-01-01 00:00:54.009820448,5291,1538768597975704583,base_link,0,1,40.5924203,-79.8997163,369.931597345,0.36000002861,0.0,0.0,0.0,0.36000002861,0.0,0.0,0.0,1.44000011444,1,140.1145218249397,217.47538013964495,369.9263440584575,11.152465045181533,-8.633251556608863,-0.3247438173139458,0,Fixed-Wing
1970-01-01 00:00:54.397775808,5293,1538768598363732231,base_link,0,1,40.5923897,-79.899663,369.671664248,0.36000002861,0.0,0.0,0.0,0.36000002861,0.0,0.0,0.0,1.44000011444,1,144.6267587823774,214.077251240385,369.6664256278102,11.279436251378538,-8.494451566864258,-0.6497294793466256,0,Fixed-Wing
1970-01-01 00:00:54.767299968,5295,1538768598731733607,base_link,0,1,40.5923594,-79.8996086,369.321732162,0.36000002861,0.0,0.0,0.0,0.36000002861,0.0,0.0,0.0,1.44000011444,1,149.2321186463626,210.71243999606912,369.3164999248686,11.512219657448112,-8.411165966278176,-0.8747245980827428,0,Fixed-Wing
1970-01-01 00:00:55.208697056,5297,1538768599171686343,base_link,0,1,40.5923297,-79.899553,368.861801064,0.36000002861,0.0,0.0,0.0,0.36000002861,0.0,0.0,0.0,1.44000011444,1,153.93906573034883,207.41426198129585,368.8565654929122,11.76616167839352,-8.24459996543672,-1.1497182337720697,0,Fixed-Wing
1970-01-01 00:00:55.588275680,5299,1538768599553666439,base_link,0,1,40.5923003,-79.8994958,368.401871487,0.36000002861,0.0,0.0,0.0,0.36000002861,0.0,0.0,0.0,1.44000011444,1,158.78146576526566,204.14940605644014,368.3966229678975,12.104759349458769,-8.161303278553222,-1.149738464344146,0,Fixed-Wing
1970-01-01 00:00:55.984091648,5301,1538768599949713927,base_link,0,1,40.5922717,-79.899437,367.951943225,0.36000002861,0.0,0.0,0.0,0.36000002861,0.0,0.0,0.0,1.44000011444,1,163.75931787230166,200.9733990204095,367.94667013533183,12.443354823720568,-7.939203821684913,-1.1247667928178786,0,Fixed-Wing
1970-01-01 00:00:56.401656928,5303,1538768600367595815,base_link,0,1,40.5922443,-79.8993762,367.602016519,0.36000002861,0.0,0.0,0.0,0.36000002861,0.0,0.0,0.0,1.44000011444,1,168.90648598117056,197.9306656576237,367.5967047759518,12.866601445524076,-7.606053786451344,-0.8748237290177947,0,Fixed-Wing
1970-01-01 00:00:56.779983936,5305,1538768600745187783,base_link,0,1,40.5922179,-79.8993143,367.402090535,0.36000002861,0.0,0.0,0.0,0.36000002861,0.0,0.0,0.0,1.44000011444,1,174.1467813172275,194.9989954143242,367.3967285932556,13.09939565208799,-7.328424444743146,-0.49988921809569153,0,Fixed-Wing
1970-01-01 00:00:57.193370688,5307,1538768601158963207,base_link,0,1,40.5921923,-79.8992519,367.432164744,0.36000002861,0.0,0.0,0.0,0.36000002861,0.0,0.0,0.0,1.44000011444,1,179.4294130092869,192.1561789701181,367.4267430828545,13.205225694514805,-7.106312713462139,0.07502853357255344,0,Fixed-Wing
1970-01-01 00:00:57.559680992,5309,1538768601525529639,base_link,0,1,40.5921673,-79.8991896,367.592238616,0.36000002861,0.0,0.0,0.0,0.36000002861,0.0,0.0,0.0,1.44000011444,1,184.70358523588507,189.3800013829807,367.58674985875365,13.184079198377622,-6.939732645247355,0.39997594221379457,0,Fixed-Wing
1970-01-01 00:00:57.963049248,5311,1538768601928977191,base_link,0,1,40.5921422,-79.8991281,367.772311727,0.36000002861,0.0,0.0,0.0,0.36000002861,0.0,0.0,0.0,1.44000011444,1,189.91003729376854,186.5927210142798,367.7667526458003,13.014796128105539,-6.967486754359977,0.44996084662983676,0,Fixed-Wing
1970-01-01 00:00:58.396270016,5313,1538768602362259303,base_link,0,1,40.5921164,-79.899068,367.872383713,0.36000002861,0.0,0.0,0.0,0.36000002861,0.0,0.0,0.0,1.44000011444,1,194.99797391332186,183.72770200707492,367.8667547078077,12.718537898748673,-7.161813432135368,0.24997953211640042,0,Fixed-Wing
1970-01-01 00:00:58.777970240,5315,1538768602743923559,base_link,0,1,40.5920895,-79.8990087,367.732455351,0.36000002861,0.0,0.0,0.0,0.36000002861,0.0,0.0,0.0,1.44000011444,1,200.0181850711896,180.74052006139,367.7267566714044,12.549241597405638,-7.467189477290923,-0.34995922018807024,0,Fixed-Wing
1970-01-01 00:00:59.198618336,5317,1538768603164221159,base_link,0,1,40.5920617,-79.8989499,367.542526866,0.36000002861,0.0,0.0,0.0,0.36000002861,0.0,0.0,0.0,1.44000011444,1,204.99607285201915,177.6533918799878,367.5367573149306,12.443443999063966,-7.717029457986039,-0.4749497088394285,0,Fixed-Wing
1970-01-01 00:00:59.612263776,5319,1538768603577947719,base_link,0,1,40.5920333,-79.8988912,367.422598541,0.36000002861,0.0,0.0,0.0,0.36000002861,0.0,0.0,0.0,1.44000011444,1,209.96550297073142,174.49963743561233,367.4167548440885,12.42230201082456,-7.883578044189135,-0.2999754296237378,0,Fixed-Wing
1970-01-01 00:00:59.981932320,5321,1538768603947317063,base_link,0,1,40.5920048,-79.8988321,367.382670679,0.36000002861,0.0,0.0,0.0,0.36000002861,0.0,0.0,0.0,1.44000011444,1,214.96880280474124,171.334784327718,367.37674656666627,12.506967620843422,-7.911321859245219,-0.1000104424851523,0,Fixed-Wing
1970-01-01 00:01:00.408777408,5323,1538768604373468583,base_link,0,1,40.5919769,-79.8987723,367.492743297,0.36000002861,0.0,0.0,0.0,0.36000002861,0.0,0.0,0.0,1.44000011444,1,220.0313697526114,168.23657181116153,367.486729474144,12.655120219852847,-7.744737455801998,0.27492908846275504,0,Fixed-Wing
1970-01-01 00:01:00.806196608,5325,1538768604771734823,base_link,0,1,40.5919497,-79.8987111,367.532817067,0.36000002861,0.0,0.0,0.0,0.36000002861,0.0,0.0,0.0,1.44000011444,1,225.21245577301767,165.21610111364038,367.5267018160266,12.95138753379346,-7.55040282751305,0.09992061284372603,0,Fixed-Wing
1970-01-01 00:01:01.180119392,5327,1538768605145954119,base_link,0,1,40.591923,-79.8986487,367.402891869,0.36000002861,0.0,0.0,0.0,0.36000002861,0.0,0.0,0.0,1.44000011444,1,230.49512639514307,162.2511590207878,367.39666447389254,13.205323009705028,-7.4115955435882,-0.3250600366814244,0,Fixed-Wing
1970-01-01 00:01:01.572265568,5329,1538768605538104615,base_link,0,1,40.5918964,-79.8985858,367.222967153,0.36000002861,0.0,0.0,0.0,0.36000002861,0.0,0.0,0.0,1.44000011444,1,235.82012723246913,159.29732613603744,367.216620023887,13.311137701700723,-7.383825369775521,-0.4500649933520293,0,Fixed-Wing
1970-01-01 00:01:01.996467520,5331,1538768605962362119,base_link,0,1,40.5918695,-79.8985224,367.133043087,0.36000002861,0.0,0.0,0.0,0.36000002861,0.0,0.0,0.0,1.44000011444,1,241.1874649077527,156.31018508740533,367.1265696305543,13.416968948891688,-7.467087245137652,-0.22510291028348908,0,Fixed-Wing
1970-01-01 00:01:02.382572736,5333,1538768606348530151,base_link,0,1,40.5918422,-79.8984594,367.093118794,0.36000002861,0.0,0.0,0.0,0.36000002861,0.0,0.0,0.0,1.44000011444,1,246.52094736551098,153.27862711159443,367.08651547717756,13.332339579588755,-7.578118182413548,-0.1001251206169607,0,Fixed-Wing
1970-01-01 00:01:02.776923392,5335,1538768606740344327,base_link,0,1,40.5918147,-79.8983966,367.123194394,0.36000002861,0.0,0.0,0.0,0.36000002861,0.0,0.0,0.0,1.44000011444,1,251.83750621345501,150.22486359877036,367.1164565074798,13.290034891283737,-7.633626335360817,0.07484490415299494,0,Fixed-Wing
1970-01-01 00:01:03.191860064,5337,1538768607157889351,base_link,0,1,40.5917867,-79.8983344,367.053269603,0.36000002861,0.0,0.0,0.0,0.36000002861,0.0,0.0,0.0,1.44000011444,1,257.1032731636518,147.11557358179476,367.0463945869958,13.163068161005476,-7.772428368531206,-0.17513684968296317,0,Fixed-Wing
1970-01-01 00:01:03.607939904,5339,1538768607573948679,base_link,0,1,40.5917578,-79.8982731,366.993344283,0.36000002861,0.0,0.0,0.0,0.36000002861,0.0,0.0,0.0,1.44000011444,1,262.292856998633,143.9063377257243,366.98633166628167,12.97262989288896,-8.022267357771954,-0.15014191223932297,0,Fixed-Wing
1970-01-01 00:01:03.995032320,5341,1538768607961015527,base_link,0,1,40.5917285,-79.8982123,366.913418633,0.36000002861,0.0,0.0,0.0,0.36000002861,0.0,0.0,0.0,1.44000011444,1,267.4401174293926,140.65268262694622,366.9062653346025,12.866832226595815,-8.133304083276707,-0.20014531430322638,0,Fixed-Wing
1970-01-01 00:01:04.381666080,5343,1538768608347472231,base_link,0,1,40.5916988,-79.8981516,366.933493062,0.36000002861,0.0,0.0,0.0,0.36000002861,0.0,0.0,0.0,1.44000011444,1,272.5789224066161,137.35461205925435,366.9261945894584,12.845695759243323,-8.244331375263702,0.04981803079165443,0,Fixed-Wing
1970-01-01 00:01:04.792445248,5345,1538768608757981543,base_link,0,1,40.5916695,-79.8980903,366.883567953,0.36000002861,0.0,0.0,0.0,0.36000002861,0.0,0.0,0.0,1.44000011444,1,277.7685215455414,134.10096641616514,366.8761153202255,12.972668148828003,-8.133280446477272,-0.12518534158479797,0,Fixed-Wing
1970-01-01 00:01:05.180969504,5347,1538768609146958343,base_link,0,1,40.5916405,-79.8980284,366.673643346,0.36000002861,0.0,0.0,0.0,0.36000002861,0.0,0.0,0.0,1.44000011444,1,283.0089110816875,130.88063881870448,366.6660277363551,13.099631128174606,-8.049993869280032,-0.5251651302501598,0,Fixed-Wing
1970-01-01 00:01:05.575614560,5349,1538768609541641447,base_link,0,1,40.5916119,-79.8979658,366.523719303,0.36000002861,0.0,0.0,0.0,0.36000002861,0.0,0.0,0.0,1.44000011444,1,288.30856583160585,127.70473959775084,366.51593122101895,13.247778977450748,-7.938934311617157,-0.37520283005028204,0,Fixed-Wing
1970-01-01 00:01:06.009176800,5351,1538768609975170695,base_link,0,1,40.5915838,-79.8979025,366.553795782,0.36000002861,0.0,0.0,0.0,0.36000002861,0.0,0.0,0.0,1.44000011444,1,293.6674909995893,124.58437637682985,366.5458254342707,13.395939836125406,-7.8001085411770115,0.07472787352230598,0,Fixed-Wing
1970-01-01 00:01:06.395329280,5353,1538768610361083879,base_link,0,1,40.5915558,-79.8978396,366.823871825,0.36000002861,0.0,0.0,0.0,0.36000002861,0.0,0.0,0.0,1.44000011444,1,298.9925685855976,121.4751254592897,366.8157145573263,13.31132955374154,-7.772330629960809,0.6746536556393824,0,Fixed-Wing
1970-01-01 00:01:06.797141056,5355,1538768610763175015,base_link,0,1,40.5915283,-79.8977772,367.153947161,0.36000002861,0.0,0.0,0.0,0.36000002861,0.0,0.0,0.0,1.44000011444,1,304.27532299736373,118.42140369872644,367.14559799740675,13.205532462337912,-7.633521965406705,0.8246240762332778,0,Fixed-Wing
1970-01-01 00:01:07.183122720,5357,1538768611148888135,base_link,0,1,40.5915005,-79.8977154,367.294022024,0.36000002861,0.0,0.0,0.0,0.36000002861,0.0,0.0,0.0,1.44000011444,1,309.5072800461998,115.3343640967637,367.2854781954761,13.078552070502973,-7.716808032083571,0.3496646545463174,0,Fixed-Wing
1970-01-01 00:01:07.587990496,5359,1538768611553996839,base_link,0,1,40.5914718,-79.8976548,367.25409605,0.36000002861,0.0,0.0,0.0,0.36000002861,0.0,0.0,0.0,1.44000011444,1,314.6376481423502,112.14737339402018,367.2453585411566,12.824605718289854,-7.966660174190933,-0.10028885619108961,0,Fixed-Wing
1970-01-01 00:01:08.003894720,5361,1538768611969817767,base_link,0,1,40.5914422,-79.8975953,367.274169342,0.36000002861,0.0,0.0,0.0,0.36000002861,0.0,0.0,0.0,1.44000011444,1,319.67490468342316,108.86043612672944,367.26523880777927,12.591850687986891,-8.216500976876718,0.04969557276052327,0,Fixed-Wing
1970-01-01 00:01:08.387672768,5363,1538768612353441767,base_link,0,1,40.5914122,-79.8975362,367.344242407,0.36000002861,0.0,0.0,0.0,0.36000002861,0.0,0.0,0.0,1.44000011444,1,324.67830718957094,105.52908064108291,367.3351156339801,12.507224274881272,-8.327535141764285,0.17467416140048544,0,Fixed-Wing
1970-01-01 00:01:08.825890496,5365,1538768612791801383,base_link,0,1,40.5913821,-79.8974776,367.364315017,0.36000002861,0.0,0.0,0.0,0.36000002861,0.0,0.0,0.0,1.44000011444,1,329.63938343599324,102.18662053950783,367.3549887032774,12.401419470560004,-8.355293836319492,0.0496775812912141,0,Fixed-Wing
1970-01-01 00:01:09.196492224,5367,1538768613162477927,base_link,0,1,40.5913521,-79.8974194,367.29438719,0.36000002861,0.0,0.0,0.0,0.36000002861,0.0,0.0,0.0,1.44000011444,1,334.56659593322723,98.85526606162679,367.2848573290911,12.316768774285624,-8.327532622608771,-0.1753104661429784,0,Fixed-Wing
1970-01-01 00:01:09.576923520,5369,1538768613541277255,base_link,0,1,40.591322,-79.8973612,367.204459419,0.36000002861,0.0,0.0,0.0,0.36000002861,0.0,0.0,0.0,1.44000011444,1,339.49381216880073,95.51280938735053,367.19472063220303,12.316778119176526,-8.355285268950592,-0.22531864705884294,0,Fixed-Wing
1970-01-01 00:01:09.986193920,5371,1538768613951914791,base_link,0,1,40.5912921,-79.8973025,367.06453209,0.36000002861,0.0,0.0,0.0,0.36000002861,0.0,0.0,0.0,1.44000011444,1,344.4633577686034,92.19256779701456,367.05457621672656,12.422590683961502,-8.29975325113168,-0.35032513036531354,0,Fixed-Wing
1970-01-01 00:01:10.399032640,5373,1538768614364861703,base_link,0,1,40.5912626,-79.8972431,366.874605324,0.384400005913,0.0,0.0,0.0,0.384400005913,0.0,0.0,0.0,1.53760002365,1,349.4921631110962,88.91675273123721,366.8644229029236,12.570724856934241,-8.188698322865285,-0.4753345627147375,0,Fixed-Wing
1970-01-01 00:01:10.778121408,5375,1538768614741983495,base_link,0,1,40.5912335,-79.8971832,366.684678917,0.384400005913,0.0,0.0,0.0,0.384400005913,0.0,0.0,0.0,1.53760002365,1,354.563299301911,85.68536424737445,366.6742613539112,12.676541131571009,-8.077643251223646,-0.4753551486281985,0,Fixed-Wing
1970-01-01 00:01:11.190570432,5377,1538768615156356519,base_link,0,1,40.5912047,-79.8971226,366.474753115,0.384400005913,0.0,0.0,0.0,0.384400005913,0.0,0.0,0.0,1.53760002365,1,359.6936972548647,82.48729774572246,366.4640909756919,12.824680352648034,-7.9943468335795425,-0.5253720949086353,0,Fixed-Wing
1970-01-01 00:01:11.589875488,5379,1538768615555283367,base_link,0,1,40.5911762,-79.8970619,366.354827303,0.384400005913,0.0,0.0,0.0,0.384400005913,0.0,0.0,0.0,1.53760002365,1,364.83256855679474,79.32255226085815,366.34391395837304,12.845861554015881,-7.911052829245783,-0.30041175109260776,0,Fixed-Wing
1970-01-01 00:01:11.998923808,5381,1538768615964932647,base_link,0,1,40.5911491,-79.897001,366.50490112,0.384400005913,0.0,0.0,0.0,0.384400005913,0.0,0.0,0.0,1.53760002365,1,369.988383506698,76.31328789985699,366.4937280175765,12.88821633258413,-7.522389857542497,0.37449676209047583,0,Fixed-Wing
1970-01-01 00:01:12.409380128,5383,1538768616375349607,base_link,0,1,40.591124,-79.8969391,366.824975133,0.384400005913,0.0,0.0,0.0,0.384400005913,0.0,0.0,0.0,1.53760002365,1,375.2288594907203,73.52613802622807,366.8135291529493,13.09984722571507,-6.967160550115913,0.7994208977900101,0,Fixed-Wing
1970-01-01 00:01:12.782888576,5385,1538768616748576743,base_link,0,1,40.5911012,-79.8968758,366.945049624,0.384400005913,0.0,0.0,0.0,0.384400005913,0.0,0.0,0.0,1.53760002365,1,380.58783595934847,70.99441595335404,366.9333153423389,13.396068074592748,-6.3286564948943544,0.2994347814089776,0,Fixed-Wing
1970-01-01 00:01:13.178665472,5387,1538768617144711175,base_link,0,1,40.5910815,-79.89681,366.905125383,0.384400005913,0.0,0.0,0.0,0.384400005913,0.0,0.0,0.0,1.53760002365,1,386.15843346936396,68.8069693748148,366.8930807920424,13.925066455727011,-5.468055970611106,-0.10057606669449327,0,Fixed-Wing
1970-01-01 00:01:13.619833792,5389,1538768617585815239,base_link,0,1,40.591065,-79.8967415,366.585202571,0.384400005913,0.0,0.0,0.0,0.384400005913,0.0,0.0,0.0,1.53760002365,1,391.95757464018806,66.97490378700093,366.5728243097739,14.496367049437684,-4.57969455084322,-0.8005591483584487,0,Fixed-Wing
1970-01-01 00:01:13.991872960,5391,1538768617957657351,base_link,0,1,40.5910538,-79.8966696,366.155281019,0.384400005913,0.0,0.0,0.0,0.384400005913,0.0,0.0,0.0,1.53760002365,1,398.0445166893122,65.73143487081734,366.14253931296753,15.215795503771268,-3.1083536842063384,-1.0756022427860956,0,Fixed-Wing
1970-01-01 00:01:14.380142944,5393,1538768618346204807,base_link,0,1,40.5910502,-79.8965944,365.765359652,0.384400005913,0.0,0.0,0.0,0.384400005913,0.0,0.0,0.0,1.53760002365,1,404.4107877951361,65.33198485546609,365.7522221688056,15.91404657478583,-0.9985226898024179,-0.9756928518875332,0,Fixed-Wing
1970-01-01 00:01:14.793984736,5395,1538768618758954695,base_link,0,1,40.5910562,-79.8965173,365.435436189,0.384400005913,0.0,0.0,0.0,0.384400005913,0.0,0.0,0.0,1.53760002365,1,410.93785390618245,65.9986527421649,365.42187524693486,16.31599288834479,1.6664989006096966,-0.8257826619539692,0,Fixed-Wing
1970-01-01 00:01:15.209160640,5397,1538768619174904583,base_link,0,1,40.5910729,-79.8964406,365.155507805,0.384400005913,0.0,0.0,0.0,0.384400005913,0.0,0.0,0.0,1.53760002365,1,417.4309917561294,67.85358542405899,365.1415063198293,16.231180928822166,4.636856426951484,-0.7008504805895942,0,Fixed-Wing
1970-01-01 00:01:15.594292608,5399,1538768619559144135,base_link,0,1,40.5911014,-79.8963672,364.795571059,0.36000002861,0.0,0.0,0.0,0.36000002861,0.0,0.0,0.0,1.44000011444,1,423.64467516576923,71.01892492226355,364.7811259409165,15.5326164309154,7.912537710396085,-0.9008586092745338,0,Fixed-Wing
1970-01-01 00:01:15.982341120,5401,1538768619948275271,base_link,0,1,40.5911416,-79.8963008,364.5756222,0.384400005913,0.0,0.0,0.0,0.384400005913,0.0,0.0,0.0,1.53760002365,1,429.2656827153467,75.48354954471608,364.56075040518385,14.051078638383277,11.160417613325967,-0.5508823738883548,0,Fixed-Wing
1970-01-01 00:01:16.400582624,5403,1538768620366231719,base_link,0,1,40.5911944,-79.896248,364.805654079,0.384400005913,0.0,0.0,0.0,0.384400005913,0.0,0.0,0.0,1.53760002365,1,433.73528736608864,81.34737671048029,364.7904080820957,11.172866408047996,14.65806546270059,0.5740853485314509,0,Fixed-Wing
1970-01-01 00:01:16.790058304,5405,1538768620755851847,base_link,0,1,40.5912568,-79.8962122,365.305664479,0.384400005913,0.0,0.0,0.0,0.384400005913,0.0,0.0,0.0,1.53760002365,1,436.7656613990334,88.27722923356626,365.2901196229327,7.575158628602407,17.32285571500414,1.2491508141340104,0,Fixed-Wing
1970-01-01 00:01:17.224193728,5407,1538768621190031399,base_link,0,1,40.5913244,-79.8961925,365.915656188,0.384400005913,0.0,0.0,0.0,0.384400005913,0.0,0.0,0.0,1.53760002365,1,438.43301712559344,95.78447801183998,365.8998885221886,4.167962100284873,18.76619841034724,1.5242660108735575,0,Fixed-Wing
1970-01-01 00:01:17.586937088,5409,1538768621550807655,base_link,0,1,40.5913929,-79.8961858,366.755634203,0.384400005913,0.0,0.0,0.0,0.384400005913,0.0,0.0,0.0,1.53760002365,1,438.9998325089068,103.3916147116883,366.73970854498845,1.4168932267277177,19.015892620627202,2.0993348751749696,0,Fixed-Wing
1970-01-01 00:01:17.997994368,5411,1538768621961027655,base_link,0,1,40.5914606,-79.8961888,367.805602627,0.384400005913,0.0,0.0,0.0,0.384400005913,0.0,0.0,0.0,1.53760002365,1,438.74548970423,110.90986689072096,367.78956784040645,-0.6357918430281144,18.793704092912122,2.62437923967294,0,Fixed-Wing
1970-01-01 00:01:18.401281632,5413,1538768622367130983,base_link,0,1,40.5915262,-79.8961963,368.945567343,0.384400005913,0.0,0.0,0.0,0.384400005913,0.0,0.0,0.0,1.53760002365,1,438.11020918592374,118.19489075848588,368.9294450091206,-1.5880385218171993,18.21069307337228,2.849400858197482,0,Fixed-Wing
1970-01-01 00:01:18.760362752,5415,1538768622726229415,base_link,0,1,40.5915906,-79.896204,369.85553238,0.384400005913,0.0,0.0,0.0,0.384400005913,0.0,0.0,0.0,1.53760002365,1,437.45799029637794,125.34664887350624,369.8393178799529,-1.6303801099032176,17.877562837360063,2.274449046053429,0,Fixed-Wing
