time,field.header.seq,field.header.stamp,field.header.frame_id,field.status.status,field.status.service,lat,lon,alt,field.position_covariance0,field.position_covariance1,field.position_covariance2,field.position_covariance3,field.position_covariance4,field.position_covariance5,field.position_covariance6,field.position_covariance7,field.position_covariance8,field.position_covariance_type,x,y,z,vel_x,vel_y,vel_z,track_id,uav_category
1970-01-01 00:00:00.000000000,8337,1536690269689302387,base_link,0,1,40.5915083,-79.8980422,386.303684505,0.547600014114,0.0,0.0,0.0,0.547600014114,0.0,0.0,0.0,2.19040005646,1,276.7033473891484,138.34354691478129,386.2961872975135,-18.354879769144905,6.775463577960632,0.9006406851999655,0,Fixed-Wing
1970-01-01 00:00:00.390255320,8339,1536690270079808546,base_link,0,1,40.5915327,-79.8981289,386.663585654,0.547600014114,0.0,0.0,0.0,0.547600014114,0.0,0.0,0.0,2.19040005646,1,269.3634512280246,141.0529734940448,386.6563426998367,-18.354879769144905,6.775463577960632,0.9006406851999655,0,Fixed-Wing
1970-01-01 00:00:00.792212065,8341,1536690270481801642,base_link,0,1,40.5915587,-79.8982133,386.973488505,0.547600014114,0.0,0.0,0.0,0.547600014114,0.0,0.0,0.0,2.19040005646,1,262.21826361951827,143.94009777451413,386.9664782094618,-17.86797205344076,7.219832254204483,0.7755559297229974,0,Fixed-Wing
1970-01-01 00:00:01.176216895,8343,1536690270864525592,base_link,0,1,40.5915868,-79.8982945,386.73339377,0.547600014114,0.0,0.0,0.0,0.547600014114,0.0,0.0,0.0,2.19040005646,1,255.34395491166717,147.06043660155234,386.7265906204909,-17.190585133465117,7.803031916532155,-0.5998869407705991,0,Fixed-Wing
1970-01-01 00:00:01.602256625,8345,1536690271291513287,base_link,0,1,40.5916165,-79.8983723,385.603301862,0.547600014114,0.0,0.0,0.0,0.547600014114,0.0,0.0,0.0,2.19040005646,1,248.75744725858135,150.35845454319366,385.59668153230973,-16.47088097938877,8.247354113255009,-2.8255638783389183,0,Fixed-Wing
1970-01-01 00:00:01.988606041,8347,1536690271677936300,base_link,0,1,40.5916489,-79.8984465,383.853212525,0.547600014114,0.0,0.0,0.0,0.547600014114,0.0,0.0,0.0,2.19040005646,1,242.47568110264402,153.956314436702,383.84674770406014,-15.708813857723495,8.997168941074356,-4.376059867386857,0,Fixed-Wing
1970-01-01 00:00:02.368357077,8349,1536690272054128074,base_link,0,1,40.5916849,-79.8985175,381.703124976,0.547600014114,0.0,0.0,0.0,0.547600014114,0.0,0.0,0.0,2.19040005646,1,236.46480038945876,157.95396601477074,381.6967875166878,-15.031410577924964,9.99692808503566,-5.376405862072274,0,Fixed-Wing
1970-01-01 00:00:02.773177812,8351,1536690272462393291,base_link,0,1,40.591725,-79.8985863,379.563037987,0.547600014114,0.0,0.0,0.0,0.547600014114,0.0,0.0,0.0,2.19040005646,1,230.6401623622068,162.40694163917664,379.5568013950153,-14.56567345669775,11.13555701697949,-5.351463714021051,0,Fixed-Wing
1970-01-01 00:00:03.188117823,8353,1536690272875190437,base_link,0,1,40.5917676,-79.8986532,377.28295192,0.547600014114,0.0,0.0,0.0,0.547600014114,0.0,0.0,0.0,2.19040005646,1,224.97637047783942,167.13755155732895,377.2767948172366,-14.163445475651644,11.829837149782715,-5.701612896057769,0,Fixed-Wing
1970-01-01 00:00:03.594334443,8355,1536690273283114642,base_link,0,1,40.5918126,-79.8987196,374.932865387,0.547600014114,0.0,0.0,0.0,0.547600014114,0.0,0.0,0.0,2.19040005646,1,219.35490811038665,172.1346879450194,374.9267705761514,-14.057592044404378,12.496339944410586,-5.876706080415465,0,Fixed-Wing
1970-01-01 00:00:03.968454134,8357,1536690273656771662,base_link,0,1,40.5918587,-79.8987867,372.512777708,0.547600014114,0.0,0.0,0.0,0.547600014114,0.0,0.0,0.0,2.19040005646,1,213.67419169213485,177.2539790556583,372.50673489736243,-14.205768660854515,12.801812284036775,-6.051783696407401,0,Fixed-Wing
1970-01-01 00:00:04.365617743,8359,1536690274054763209,base_link,0,1,40.5919055,-79.8988547,369.812688844,0.547600014114,0.0,0.0,0.0,0.547600014114,0.0,0.0,0.0,2.19040005646,1,207.91728490592922,182.45099722691185,369.8066891148345,-14.396297928934183,12.996184359754597,-6.75200501772477,0,Fixed-Wing
1970-01-01 00:00:04.794742608,8361,1536690274484280603,base_link,0,1,40.5919541,-79.8989245,367.142597423,0.547600014114,0.0,0.0,0.0,0.547600014114,0.0,0.0,0.0,2.19040005646,1,202.0080043397584,187.8479066144307,367.13663026361064,-14.777339070366756,13.496052363458919,-6.677016692733643,0,Fixed-Wing
1970-01-01 00:00:05.174244852,8363,1536690274863692930,base_link,0,1,40.5920032,-79.8989957,364.472504393,0.547600014114,0.0,0.0,0.0,0.547600014114,0.0,0.0,0.0,2.19040005646,1,195.98021645806242,193.30033928240735,364.46656171112255,-15.073690337534472,13.634899441785294,-6.677040952686976,0,Fixed-Wing
1970-01-01 00:00:05.576436372,8365,1536690275265706313,base_link,0,1,40.5920534,-79.899068,361.882409814,0.547600014114,0.0,0.0,0.0,0.547600014114,0.0,0.0,0.0,2.19040005646,1,189.85931945658436,198.87493000147242,361.876480198752,-15.306528331627995,13.940380104091822,-6.477017345783183,0,Fixed-Wing
1970-01-01 00:00:05.990246121,8367,1536690275679744597,base_link,0,1,40.5921055,-79.8991427,359.99231203,0.547600014114,0.0,0.0,0.0,0.547600014114,0.0,0.0,0.0,2.19040005646,1,183.535275924578,204.66053814265928,359.98638379124185,-15.814536900347989,14.468071412962768,-4.7265644568233025,0,Fixed-Wing
1970-01-01 00:00:06.384544748,8369,1536690276073893630,base_link,0,1,40.5921591,-79.89922,358.992211007,0.547600014114,0.0,0.0,0.0,0.547600014114,0.0,0.0,0.0,2.19040005646,1,176.99116001371627,210.61275091816321,358.98627321133273,-16.3648719412979,14.88469965466315,-2.5009767232553095,0,Fixed-Wing
1970-01-01 00:00:06.772173381,8371,1536690276461713424,base_link,0,1,40.5922133,-79.8992987,358.832108341,0.547600014114,0.0,0.0,0.0,0.547600014114,0.0,0.0,0.0,2.19040005646,1,170.32855861492044,216.63162488144712,358.8261496086272,-16.661168624204347,15.051399300013776,-0.4004211246787582,0,Fixed-Wing
1970-01-01 00:00:07.177323001,8373,1536690276865953253,base_link,0,1,40.5922666,-79.8993767,359.402006797,0.547600014114,0.0,0.0,0.0,0.547600014114,0.0,0.0,0.0,2.19040005646,1,163.72524860459353,222.55058432227764,359.3960164598938,-16.51289863743575,14.801543034125853,1.4250661466876338,0,Fixed-Wing
1970-01-01 00:00:07.578173418,8375,1536690277267371970,base_link,0,1,40.592317,-79.8994539,360.891907299,0.547600014114,0.0,0.0,0.0,0.547600014114,0.0,0.0,0.0,2.19040005646,1,157.1897023108005,228.14753341717577,360.88588291532824,-16.34344189821408,13.996291698921002,3.7257093372004753,0,Fixed-Wing
1970-01-01 00:00:08.000433832,8377,1536690277684685173,base_link,0,1,40.592365,-79.8995287,362.601811267,0.547600014114,0.0,0.0,0.0,0.547600014114,0.0,0.0,0.0,2.19040005646,1,150.85734823580665,233.47797742555628,362.5957462145682,-15.835319076826122,13.329842376816783,4.275855487636392,0,Fixed-Wing
1970-01-01 00:00:08.419015340,8379,1536690278108339871,base_link,0,1,40.5924107,-79.8996011,364.171718659,0.547600014114,0.0,0.0,0.0,0.547600014114,0.0,0.0,0.0,2.19040005646,1,144.72817640291217,238.55300790345717,364.16560717532434,-15.32722120417338,12.691129711071339,3.9257516123418537,0,Fixed-Wing
1970-01-01 00:00:08.766636007,8381,1536690278456146099,base_link,0,1,40.5924545,-79.8996703,365.561630119,0.547600014114,0.0,0.0,0.0,0.547600014114,0.0,0.0,0.0,2.19040005646,1,138.86990952357647,243.41704451878795,365.5554644648956,-14.649769133696688,12.163497317575859,3.475616396519123,0,Fixed-Wing
1970-01-01 00:00:09.159402147,8383,1536690278848269990,base_link,0,1,40.5924965,-79.8997361,366.641545808,0.547600014114,0.0,0.0,0.0,0.547600014114,0.0,0.0,0.0,2.19040005646,1,133.2994755488675,248.08118655377632,366.6353186898084,-13.929985332665586,11.663620901323302,2.7003916719502006,0,Fixed-Wing
1970-01-01 00:00:09.575528802,8385,1536690279264690362,base_link,0,1,40.5925382,-79.8997988,367.191464799,0.547600014114,0.0,0.0,0.0,0.547600014114,0.0,0.0,0.0,2.19040005646,1,127.99147036476182,252.7120020821418,367.1851640116175,-13.273729604553443,11.580281299677594,1.374998304047816,0,Fixed-Wing
1970-01-01 00:00:09.982504114,8387,1536690279672057212,base_link,0,1,40.5925803,-79.899859,367.411386193,0.547600014114,0.0,0.0,0.0,0.547600014114,0.0,0.0,0.0,2.19040005646,1,122.89510377209007,257.3872333463536,367.4049980880767,-12.74448493746188,11.691351739016396,0.5497391181011225,0,Fixed-Wing
1970-01-01 00:00:10.362127218,8389,1536690280050809500,base_link,0,1,40.5926236,-79.8999168,367.211309559,0.547600014114,0.0,0.0,0.0,0.547600014114,0.0,0.0,0.0,2.19040005646,1,118.00190761407892,262.19571730559676,367.2048173959206,-12.236416591673544,12.02457677960623,-0.5005918961211528,0,Fixed-Wing
1970-01-01 00:00:10.773154861,8391,1536690280462386083,base_link,0,1,40.5926692,-79.899971,366.491235666,0.547600014114,0.0,0.0,0.0,0.547600014114,0.0,0.0,0.0,2.19040005646,1,113.41346611562032,267.25960763179353,366.4846159351739,-11.47431655478182,12.66327153152075,-1.8010079340882785,0,Fixed-Wing
1970-01-01 00:00:11.186920515,8393,1536690280876446574,base_link,0,1,40.5927187,-79.9000211,365.501164368,0.547600014114,0.0,0.0,0.0,0.547600014114,0.0,0.0,0.0,2.19040005646,1,109.17210970911101,272.7565976440605,365.49438526864463,-10.60636079729652,13.746324001387794,-2.4762700219293183,0,Fixed-Wing
1970-01-01 00:00:11.611188246,8395,1536690281300762976,base_link,0,1,40.5927731,-79.9000637,364.451098717,0.547600014114,0.0,0.0,0.0,0.547600014114,0.0,0.0,0.0,2.19040005646,1,105.56567005145874,278.79775153540254,364.44411840249313,-9.018624358951191,15.107114720476854,-2.626402558095024,0,Fixed-Wing
1970-01-01 00:00:11.993138432,8397,1536690281682026179,base_link,0,1,40.592833,-79.9000942,363.59104315,0.547600014114,0.0,0.0,0.0,0.547600014114,0.0,0.0,0.0,2.19040005646,1,102.98356514001502,285.4497159753494,363.5838100419732,-6.457070258281623,16.634568779125356,-2.151373285819837,0,Fixed-Wing
1970-01-01 00:00:12.432949431,8399,1536690282122198444,base_link,0,1,40.5928978,-79.9001095,363.061001068,0.547600014114,0.0,0.0,0.0,0.547600014114,0.0,0.0,0.0,2.19040005646,1,101.68822750663752,292.64586885138397,363.05346180803554,-3.2392510737443976,17.995420907940588,-1.3262419325853059,0,Fixed-Wing
1970-01-01 00:00:12.775873183,8401,1536690282465404458,base_link,0,1,40.5929645,-79.9001082,362.88097512,0.547600014114,0.0,0.0,0.0,0.547600014114,0.0,0.0,0.0,2.19040005646,1,101.7981756772503,300.0530559120812,362.87308911975356,0.2749474118072606,18.523154134900906,-0.4510580169496894,0,Fixed-Wing
1970-01-01 00:00:13.167959539,8403,1536690282857263431,base_link,0,1,40.5930304,-79.90009,362.830966713,0.547600014114,0.0,0.0,0.0,0.547600014114,0.0,0.0,0.0,2.19040005646,1,103.33880255995389,307.37142671363057,362.82270665051584,3.8526459476243136,18.301051298236878,-0.12599145070049098,0,Fixed-Wing
1970-01-01 00:00:13.583446698,8405,1536690283272966518,base_link,0,1,40.5930928,-79.900053,362.840978878,0.547600014114,0.0,0.0,0.0,0.547600014114,0.0,0.0,0.0,2.19040005646,1,106.47095220915833,314.30113998569215,362.8323288452643,7.832567241838805,17.329135338048594,0.024062224294021824,0,Fixed-Wing
1970-01-01 00:00:14.043831819,8407,1536690283733278105,base_link,0,1,40.5931482,-79.899997,363.061013244,0.547600014114,0.0,0.0,0.0,0.547600014114,0.0,0.0,0.0,2.19040005646,1,111.21156022347449,320.4535223744852,363.05197555420824,11.854839390819844,15.385263845859484,0.5492705681188544,0,Fixed-Wing
1970-01-01 00:00:14.424685309,8409,1536690284113449989,base_link,0,1,40.5931943,-79.8999265,363.391066167,0.547600014114,0.0,0.0,0.0,0.547600014114,0.0,0.0,0.0,2.19040005646,1,117.1796786866131,325.57314582614134,363.38166187929505,14.924475010849559,12.802643369283746,0.8244466577812072,0,Fixed-Wing
1970-01-01 00:00:14.775728282,8411,1536690284462598759,base_link,0,1,40.5932305,-79.8998453,363.601134023,0.547600014114,0.0,0.0,0.0,0.547600014114,0.0,0.0,0.0,2.19040005646,1,124.0536152202586,329.59336465163875,363.5913929590814,17.18965443735622,10.053362005104951,0.5244745523405694,0,Fixed-Wing
1970-01-01 00:00:15.177926394,8413,1536690284867109330,base_link,0,1,40.5932562,-79.899757,363.611213395,0.547600014114,0.0,0.0,0.0,0.547600014114,0.0,0.0,0.0,2.19040005646,1,131.52861230584975,332.44753999633065,363.6011742987786,18.69272667744754,7.137436844046072,0.024460198098357536,0,Fixed-Wing
1970-01-01 00:00:15.577890157,8415,1536690285267142658,base_link,0,1,40.5932694,-79.8996631,363.631303573,0.547600014114,0.0,0.0,0.0,0.547600014114,0.0,0.0,0.0,2.19040005646,1,139.47769820207031,333.91357722685416,363.621019081464,19.878280659135974,3.6661195897939205,0.04962585195210881,0,Fixed-Wing
1970-01-01 00:00:15.990834817,8417,1536690285680326318,base_link,0,1,40.5932706,-79.8995667,363.571401202,0.547600014114,0.0,0.0,0.0,0.547600014114,0.0,0.0,0.0,2.19040005646,1,147.63844321003313,334.04699411695674,363.5609262970918,20.407576641366624,0.3336356432365575,-0.15027403766108535,0,Fixed-Wing
1970-01-01 00:00:16.434833053,8419,1536690286122604713,base_link,0,1,40.5932621,-79.8994703,363.351502803,0.547600014114,0.0,0.0,0.0,0.547600014114,0.0,0.0,0.0,2.19040005646,1,155.79920638225727,333.1032032939088,363.3408835400405,20.407622064738465,-2.3601378962308144,-0.5502609656985461,0,Fixed-Wing
1970-01-01 00:00:16.763074690,8421,1536690286452002371,base_link,0,1,40.5932454,-79.8993752,363.161606444,0.547600014114,0.0,0.0,0.0,0.547600014114,0.0,0.0,0.0,2.19040005646,1,163.84994023400398,331.24879100024003,363.15088255150596,20.132471721448788,-4.637329186344073,-0.47513550927900794,0,Fixed-Wing
1970-01-01 00:00:17.177951503,8423,1536690286867445852,base_link,0,1,40.5932223,-79.8992825,363.241710275,0.547600014114,0.0,0.0,0.0,0.547600014114,0.0,0.0,0.0,2.19040005646,1,171.69752896262023,328.6836614961901,363.230913284552,19.62446667220883,-6.4146198536838686,0.20013286981865955,0,Fixed-Wing
1970-01-01 00:00:17.567494210,8425,1536690287256999534,base_link,0,1,40.5931961,-79.8991922,363.561812951,0.547600014114,0.0,0.0,0.0,0.547600014114,0.0,0.0,0.0,2.19040005646,1,179.34196593347883,325.77428517331026,363.5509555279831,19.116445031755408,-7.275477941023078,0.8003297008939739,0,Fixed-Wing
1970-01-01 00:00:18.011908495,8427,1536690287700887854,base_link,0,1,40.59317,-79.8991035,363.931913978,0.547600014114,0.0,0.0,0.0,0.547600014114,0.0,0.0,0.0,2.19040005646,1,186.8509624987597,322.876020790468,363.9209890437392,18.777749182973434,-7.247690310392622,0.9253428853982111,0,Fixed-Wing
1970-01-01 00:00:18.401338405,8429,1536690288090767092,base_link,0,1,40.5931459,-79.8990159,364.232013088,0.547600014114,0.0,0.0,0.0,0.547600014114,0.0,0.0,0.0,2.19040005646,1,194.26683709149768,320.19986251831955,364.22100215322195,18.544879047978345,-6.692269515835502,0.7502428417025113,0,Fixed-Wing
1970-01-01 00:00:18.793621619,8431,1536690288482602930,base_link,0,1,40.5931267,-79.898929,364.6921095,0.547600014114,0.0,0.0,0.0,0.547600014114,0.0,0.0,0.0,2.19040005646,1,201.6234493479793,318.06787460466296,364.6809775227292,18.39668171208341,-5.331462593667695,1.150260496707269,0,Fixed-Wing
1970-01-01 00:00:19.217071108,8433,1536690288906686924,base_link,0,1,40.5931124,-79.8988424,364.942203618,0.547600014114,0.0,0.0,0.0,0.547600014114,0.0,0.0,0.0,2.19040005646,1,208.95464815859197,316.4800393728573,364.93091520072176,18.333130303016535,-3.9706998754793443,0.6250192003574355,0,Fixed-Wing
1970-01-01 00:00:19.602821090,8435,1536690289292391628,base_link,0,1,40.5931023,-79.8987572,365.092294606,0.547600014114,0.0,0.0,0.0,0.547600014114,0.0,0.0,0.0,2.19040005646,1,216.16731632438277,315.3586230200224,365.0808218497117,18.03672069627196,-2.8043260933933976,0.3748715865190767,0,Fixed-Wing
1970-01-01 00:00:19.978707148,8437,1536690289668315060,base_link,0,1,40.5930963,-79.8986726,365.242383317,0.547600014114,0.0,0.0,0.0,0.547600014114,0.0,0.0,0.0,2.19040005646,1,223.32918016823044,314.6925270171646,365.23069715270503,17.909674318428333,-1.6657064049378443,0.3747931995792243,0,Fixed-Wing
1970-01-01 00:00:20.375607407,8439,1536690290063683312,base_link,0,1,40.593093,-79.8985886,365.172470323,0.547600014114,0.0,0.0,0.0,0.547600014114,0.0,0.0,0.0,2.19040005646,1,230.44023522828542,314.32626698405,365.1605496803229,17.782616782836644,-0.9159065366167515,-0.17541779793875292,0,Fixed-Wing
1970-01-01 00:00:20.789154317,8441,1536690290478383939,base_link,0,1,40.5930915,-79.8985054,365.052555788,0.547600014114,0.0,0.0,0.0,0.547600014114,0.0,0.0,0.0,2.19040005646,1,237.483558348064,314.15990347674796,365.04038538075446,17.6132395065083,-0.4160252553265847,-0.3004948874896065,0,Fixed-Wing
1970-01-01 00:00:21.170300533,8443,1536690290859830080,base_link,0,1,40.5930914,-79.8984223,364.972640589,0.547600014114,0.0,0.0,0.0,0.547600014114,0.0,0.0,0.0,2.19040005646,1,244.5184124186114,314.14902171514177,364.96020529400244,17.592060953435453,-0.027212023382010942,-0.20050635866048197,0,Fixed-Wing
1970-01-01 00:00:21.665250140,8445,1536690291353642833,base_link,0,1,40.5930918,-79.8983399,364.822724482,0.547600014114,0.0,0.0,0.0,0.547600014114,0.0,0.0,0.0,2.19040005646,1,251.494002983183,314.1936673469826,364.81001614518357,17.443860692422888,0.11164534029730365,-0.37557803389666,0,Fixed-Wing
1970-01-01 00:00:21.975116166,8447,1536690291663859214,base_link,0,1,40.5930928,-79.8982577,364.572807937,0.547600014114,0.0,0.0,0.0,0.547600014114,0.0,0.0,0.0,2.19040005646,1,258.45265571753697,314.30494542622205,364.5598163346275,17.401504257076883,0.27827311457075166,-0.6256747153104588,0,Fixed-Wing
1970-01-01 00:00:22.379988260,8449,1536690292069344053,base_link,0,1,40.5930944,-79.8981755,364.352891157,0.547600014114,0.0,0.0,0.0,0.547600014114,0.0,0.0,0.0,2.19040005646,1,265.4113065757668,314.4828629200522,364.3396054128633,17.401499565452866,0.44491831170261836,-0.5506814952291438,0,Fixed-Wing
1970-01-01 00:00:22.772384749,8451,1536690292461894553,base_link,0,1,40.5930966,-79.8980929,363.92297455,0.547600014114,0.0,0.0,0.0,0.547600014114,0.0,0.0,0.0,2.19040005646,1,272.40380734968187,314.7274091923792,363.90938233860527,17.486148056243454,0.6115369111526221,-1.0758589261444147,0,Fixed-Wing
1970-01-01 00:00:23.162177238,8453,1536690292851324367,base_link,0,1,40.5930988,-79.8980104,363.483057852,0.547600014114,0.0,0.0,0.0,0.547600014114,0.0,0.0,0.0,2.19040005646,1,279.38784075744434,314.9719611779225,363.4691518796591,17.46497371204554,0.6115511981937349,-1.1008843949960718,0,Fixed-Wing
1970-01-01 00:00:23.581846803,8455,1536690293271302625,base_link,0,1,40.5931011,-79.8979276,363.07314143,0.547600014114,0.0,0.0,0.0,0.547600014114,0.0,0.0,0.0,2.19040005646,1,286.3972702470301,315.22762737397613,363.0589123607176,17.528481698840135,0.6393445065959794,-1.0258860454463912,0,Fixed-Wing
1970-01-01 00:00:23.961101792,8457,1536690293650124542,base_link,0,1,40.5931037,-79.8978444,362.753225305,0.547600014114,0.0,0.0,0.0,0.547600014114,0.0,0.0,0.0,2.19040005646,1,293.4405632871587,315.5166216373857,362.73866222982014,17.61316428632157,0.7226880111670348,-0.8008495651219277,0,Fixed-Wing
1970-01-01 00:00:24.391774215,8459,1536690294081323282,base_link,0,1,40.5931069,-79.8977611,362.583309047,0.547600014114,0.0,0.0,0.0,0.547600014114,0.0,0.0,0.0,2.19040005646,1,300.4923249710206,315.8722617408295,362.5684004803389,17.63434182536588,0.8893492764069393,-0.42577359030842565,0,Fixed-Wing
1970-01-01 00:00:24.770996982,8461,1536690294460553856,base_link,0,1,40.5931104,-79.8976779,362.463392574,0.547600014114,0.0,0.0,0.0,0.547600014114,0.0,0.0,0.0,2.19040005646,1,307.53562111390187,316.26122634308524,362.4481294629446,17.61317204537589,0.9726838571193079,-0.3007617567775456,0,Fixed-Wing
1970-01-01 00:00:25.201268876,8463,1536690294890897204,base_link,0,1,40.5931137,-79.8975947,362.393476195,0.547600014114,0.0,0.0,0.0,0.547600014114,0.0,0.0,0.0,2.19040005646,1,314.5789196577886,316.6279896004986,362.37785185221156,17.613178049570752,0.9171649497193406,-0.1757432349384273,0,Fixed-Wing
1970-01-01 00:00:25.588146145,8465,1536690295277753353,base_link,0,1,40.5931164,-79.8975113,362.303560278,0.547600014114,0.0,0.0,0.0,0.547600014114,0.0,0.0,0.0,2.19040005646,1,321.639150271771,316.9281278128184,362.287569383578,17.655520080578448,0.7505556863916396,-0.22576938701230045,0,Fixed-Wing
1970-01-01 00:00:25.970230630,8467,1536690295659467900,base_link,0,1,40.5931185,-79.8974278,362.213644721,0.547600014114,0.0,0.0,0.0,0.547600014114,0.0,0.0,0.0,2.19040005646,1,328.70784858063666,317.1616416537606,362.1972823419381,17.67669524683334,0.5839481078257838,-0.2257808227301066,0,Fixed-Wing
1970-01-01 00:00:26.361025258,8469,1536690296050191139,base_link,0,1,40.5931198,-79.8973443,362.223729504,0.547600014114,0.0,0.0,0.0,0.547600014114,0.0,0.0,0.0,2.19040005646,1,335.776555506157,317.30632527914054,362.20699224073053,17.67671679450336,0.3618103703534789,0.024281545813920117,0,Fixed-Wing
1970-01-01 00:00:26.791271841,8471,1536690296480626547,base_link,0,1,40.5931206,-79.8972609,362.323814402,0.547600014114,0.0,0.0,0.0,0.547600014114,0.0,0.0,0.0,2.19040005646,1,342.8368040396517,317.3954935217132,362.3066976523055,17.655564891906483,0.22298304168334265,0.24933334227326992,0,Fixed-Wing
1970-01-01 00:00:27.169333946,8473,1536690296858770921,base_link,0,1,40.5931212,-79.8971777,362.41389919,0.547600014114,0.0,0.0,0.0,0.547600014114,0.0,0.0,0.0,2.19040005646,1,349.88012207199904,317.4624566854647,362.3963971819468,17.61322678436791,0.1674547967218205,0.22431163135998003,0,Fixed-Wing
1970-01-01 00:00:27.590393220,8475,1536690297278552577,base_link,0,1,40.5931216,-79.8970947,362.323983867,0.547600014114,0.0,0.0,0.0,0.547600014114,0.0,0.0,0.0,2.19040005646,1,356.9065001326072,317.5072062363334,362.3060908902993,17.570864993718693,0.11190521063069418,-0.22582896122787807,0,Fixed-Wing
1970-01-01 00:00:27.984744741,8477,1536690297673802306,base_link,0,1,40.5931219,-79.8970112,362.134069108,0.547600014114,0.0,0.0,0.0,0.547600014114,0.0,0.0,0.0,2.19040005646,1,363.97520037518234,317.54085424772455,362.1157755759838,17.676700082460886,0.08414358868274316,-0.4759215438210506,0,Fixed-Wing
1970-01-01 00:00:28.374616651,8479,1536690298064139639,base_link,0,1,40.5931222,-79.8969272,362.054154873,0.547600014114,0.0,0.0,0.0,0.547600014114,0.0,0.0,0.0,2.19040005646,1,371.0862341421379,317.57451655684065,362.0354505002771,17.782563535178813,0.08417934300628153,-0.20086893256785956,0,Fixed-Wing
1970-01-01 00:00:28.801022096,8481,1536690298490519036,base_link,0,1,40.5931227,-79.8968429,361.984240873,0.547600014114,0.0,0.0,0.0,0.547600014114,0.0,0.0,0.0,2.19040005646,1,378.2226637034417,317.63039790910733,361.96511513296707,17.84607080308429,0.13974250856910186,-0.17588766682173063,0,Fixed-Wing
1970-01-01 00:00:29.175943997,8483,1536690298865224113,base_link,0,1,40.5931229,-79.8967586,361.914327009,0.547600014114,0.0,0.0,0.0,0.547600014114,0.0,0.0,0.0,2.19040005646,1,385.35909472257765,317.65297038129916,361.89477358996857,17.846074448685517,0.05644698563554158,-0.17590311036716705,0,Fixed-Wing
1970-01-01 00:00:29.568819956,8485,1536690299258356671,base_link,0,1,40.5931228,-79.8966746,361.924412974,0.547600014114,0.0,0.0,0.0,0.547600014114,0.0,0.0,0.0,2.19040005646,1,392.4701356420367,317.6422366330265,361.90442712572053,17.782581421445684,-0.02684188640976464,0.024140598747563295,0,Fixed-Wing
1970-01-01 00:00:29.967120548,8487,1536690299656706445,base_link,0,1,40.5931208,-79.896591,362.024499324,0.547600014114,0.0,0.0,0.0,0.547600014114,0.0,0.0,0.0,2.19040005646,1,399.5473314489719,317.4205128416742,362.0040857770399,17.697944941921616,-0.5544647285047403,0.24921640889292337,0,Fixed-Wing
1970-01-01 00:00:30.363933963,8489,1536690300052868620,base_link,0,1,40.5931151,-79.8965079,362.1845867,0.547600014114,0.0,0.0,0.0,0.547600014114,0.0,0.0,0.0,2.19040005646,1,406.58222650793783,316.7879026658194,362.1637607667844,17.592163453181787,-1.5819683907865105,0.399299278159069,0,Fixed-Wing
1970-01-01 00:00:30.790044698,8491,1536690300479545862,base_link,0,1,40.5931047,-79.8964253,362.214675515,0.547600014114,0.0,0.0,0.0,0.547600014114,0.0,0.0,0.0,2.19040005646,1,413.57481602566185,315.63334413655457,362.19345803870834,17.486369977903845,-2.887204740489383,0.07426397372255422,0,Fixed-Wing
1970-01-01 00:00:31.175050452,8493,1536690300863897016,base_link,0,1,40.5930886,-79.8963434,361.964765977,0.547600014114,0.0,0.0,0.0,0.547600014114,0.0,0.0,0.0,2.19040005646,1,420.5081663582636,313.8457764777237,361.94318424680733,17.338230536054535,-4.470170794899773,-0.6258597204742546,0,Fixed-Wing
1970-01-01 00:00:31.592745753,8495,1536690301282009998,base_link,0,1,40.5930651,-79.8962625,361.524858486,0.547600014114,0.0,0.0,0.0,0.547600014114,0.0,0.0,0.0,2.19040005646,1,427.3568985800669,311.2364137740325,361.50295038467635,17.12662600979096,-6.525233824698925,-1.1008929053409477,0,Fixed-Wing
1970-01-01 00:00:31.978602483,8497,1536690301668085312,base_link,0,1,40.5930327,-79.896184,361.07495223,0.547600014114,0.0,0.0,0.0,0.547600014114,0.0,0.0,0.0,2.19040005646,1,434.002518734745,307.63867948733684,361.05277101502077,16.61870362370992,-8.996854836093206,-1.1257636379575942,0,Fixed-Wing
1970-01-01 00:00:32.387458878,8499,1536690302076947243,base_link,0,1,40.5929904,-79.89611,360.735045478,0.547600014114,0.0,0.0,0.0,0.547600014114,0.0,0.0,0.0,2.19040005646,1,440.2672677094303,302.94151618779335,360.7126608991388,15.666258989230208,-11.746197184070265,-0.8505134334662243,0,Fixed-Wing
1970-01-01 00:00:32.788902170,8501,1536690302478485571,base_link,0,1,40.5929375,-79.8960441,360.695134838,0.547600014114,0.0,0.0,0.0,0.547600014114,0.0,0.0,0.0,2.19040005646,1,445.8464062327738,297.0671768700934,360.6726402511248,13.95175279914248,-14.689961483465206,-0.1000796423349425,0,Fixed-Wing
1970-01-01 00:00:33.179198897,8503,1536690302868582401,base_link,0,1,40.5928753,-79.8959891,360.91521691,0.547600014114,0.0,0.0,0.0,0.547600014114,0.0,0.0,0.0,2.19040005646,1,450.5028890808971,290.16001111724955,360.89271433867066,11.644467571228168,-17.272750752320313,0.5503393138725537,0,Fixed-Wing
1970-01-01 00:00:33.592579541,8505,1536690303280120969,base_link,0,1,40.5928061,-79.8959466,361.235289108,0.547600014114,0.0,0.0,0.0,0.547600014114,0.0,0.0,0.0,2.19040005646,1,454.1012401530032,282.47542133457927,361.2128775334696,8.998397231490026,-19.21685517612503,0.8006321640033344,0,Fixed-Wing
1970-01-01 00:00:33.972343120,8507,1536690303661798590,base_link,0,1,40.5927318,-79.8959166,361.435350646,0.547600014114,0.0,0.0,0.0,0.547600014114,0.0,0.0,0.0,2.19040005646,1,456.6414286599846,274.2243955340374,361.41311893393254,6.352249897424906,-20.633341837069047,0.5007437093959171,0,Fixed-Wing
1970-01-01 00:00:34.364344040,8509,1536690304053910801,base_link,0,1,40.5926537,-79.8959002,361.785399858,0.547600014114,0.0,0.0,0.0,0.547600014114,0.0,0.0,0.0,2.19040005646,1,458.0303405114267,265.5513066727174,361.76343658206844,3.4732521392041273,-21.688795015904514,0.8760394113749328,0,Fixed-Wing
1970-01-01 00:00:34.781576798,8511,1536690304470920272,base_link,0,1,40.5925742,-79.895897,362.405436157,0.547600014114,0.0,0.0,0.0,0.547600014114,0.0,0.0,0.0,2.19040005646,1,458.3018264264024,256.72268603886334,362.3838157466563,0.678904880805873,-22.077733349973066,1.5513822985132326,0,Fixed-Wing
1970-01-01 00:00:35.198404259,8513,1536690304887927695,base_link,0,1,40.5924957,-79.8959048,363.275460796,0.547600014114,0.0,0.0,0.0,0.547600014114,0.0,0.0,0.0,2.19040005646,1,457.6421076710373,248.00506870980595,363.2542334493769,-1.6497588208825393,-21.800147363905367,2.1766537198430598,0,Fixed-Wing
1970-01-01 00:00:35.587179026,8515,1536690305273999937,base_link,0,1,40.59242,-79.8959207,364.505475997,0.547600014114,0.0,0.0,0.0,0.547600014114,0.0,0.0,0.0,2.19040005646,1,456.29667902413956,239.59836742794266,364.4846670212415,-3.3645136810750618,-21.022639543730474,3.076945474394281,0,Fixed-Wing
1970-01-01 00:00:36.009800194,8517,1536690305694331557,base_link,0,1,40.5923475,-79.8959409,366.115485483,0.547600014114,0.0,0.0,0.0,0.547600014114,0.0,0.0,0.0,2.19040005646,1,454.58723024598004,231.5470226141839,366.0950964858149,-4.274818894689329,-20.133999554272094,4.027201277791352,0,Fixed-Wing
1970-01-01 00:00:36.397481017,8519,1536690306086612435,base_link,0,1,40.5922776,-79.8959606,367.455494421,0.547600014114,0.0,0.0,0.0,0.547600014114,0.0,0.0,0.0,2.19040005646,1,452.92006841415383,223.7844036711773,367.43550161010813,-4.169071919703033,-19.41198271267605,3.351951357113059,0,Fixed-Wing
1970-01-01 00:00:36.796470479,8521,1536690306483334717,base_link,0,1,40.5922093,-79.8959789,368.475504149,0.547600014114,0.0,0.0,0.0,0.547600014114,0.0,0.0,0.0,2.19040005646,1,451.3713881082379,216.19946218150434,368.4558832106153,-3.8727851446303037,-18.967664670290073,2.551668468439074,0,Fixed-Wing
1970-01-01 00:00:37.202904115,8523,1536690306891928849,base_link,0,1,40.5921427,-79.8959942,368.955516263,0.547600014114,0.0,0.0,0.0,0.547600014114,0.0,0.0,0.0,2.19040005646,1,450.0766244294846,208.80330549701102,368.9362336985264,-3.2378157853032024,-18.49557047096517,1.2012125592943423,0,Fixed-Wing
1970-01-01 00:00:37.572055989,8525,1536690307261579584,base_link,0,1,40.5920769,-79.8960065,368.98553114,0.547600014114,0.0,0.0,0.0,0.547600014114,0.0,0.0,0.0,2.19040005646,1,449.0357909619509,201.49599103428113,368.9665574316184,-2.6028124563219532,-18.27340270958341,0.07583056528832648,0,Fixed-Wing
1970-01-01 00:00:38.014328977,8527,1536690307703400397,base_link,0,1,40.5920115,-79.8960155,368.525549253,0.547600014114,0.0,0.0,0.0,0.547600014114,0.0,0.0,0.0,2.19040005646,1,448.27428559619324,194.23309955458177,368.50685488316486,-1.9042966174470624,-18.162314147209624,-1.1495782530447256,0,Fixed-Wing
1970-01-01 00:00:38.382784492,8529,1536690308071975588,base_link,0,1,40.5919456,-79.8960218,367.725570364,0.547600014114,0.0,0.0,0.0,0.547600014114,0.0,0.0,0.0,2.19040005646,1,447.74133171777964,186.91468679566907,367.7071325665907,-1.33275786823709,-18.301156221023636,-1.9998657538464808,0,Fixed-Wing
1970-01-01 00:00:38.791148137,8531,1536690308480508667,base_link,0,1,40.5918791,-79.8960243,366.615595644,0.547600014114,0.0,0.0,0.0,0.547600014114,0.0,0.0,0.0,2.19040005646,1,447.53005530945654,179.52965509757024,366.5973853062524,-0.5283389557153536,-18.467750215307355,-2.775145191499323,0,Fixed-Wing
1970-01-01 00:00:39.173667294,8533,1536690308862006325,base_link,0,1,40.5918115,-79.8960243,365.405623971,0.547600014114,0.0,0.0,0.0,0.547600014114,0.0,0.0,0.0,2.19040005646,1,447.53042121749604,172.02247842129782,365.38762099289187,0.0009150263061112321,-18.773198186173182,-3.025257855600947,0,Fixed-Wing
1970-01-01 00:00:39.588542092,8535,1536690309277764002,base_link,0,1,40.5917422,-79.8960223,364.335655086,0.547600014114,0.0,0.0,0.0,0.547600014114,0.0,0.0,0.0,2.19040005646,1,447.7001222832359,164.326529420932,364.31784362292206,0.42437148836635175,-19.245261174043303,-2.675192478818602,0,Fixed-Wing
1970-01-01 00:00:39.977961251,8537,1536690309667352211,base_link,0,1,40.5916714,-79.8960187,363.475688496,0.547600014114,0.0,0.0,0.0,0.547600014114,0.0,0.0,0.0,2.19040005646,1,448.00529971075844,156.46401786209267,363.4580538330936,0.7631572528371723,-19.661784196673356,-2.150076495990084,0,Fixed-Wing
1970-01-01 00:00:40.388237625,8539,1536690310077773412,base_link,0,1,40.5915996,-79.8960144,362.705723071,0.547600014114,0.0,0.0,0.0,0.547600014114,0.0,0.0,0.0,2.19040005646,1,448.369750709954,148.49046184976143,362.6882539103585,0.9113826851407966,-19.939473083291432,-1.925038817706574,0,Fixed-Wing
1970-01-01 00:00:40.781840022,8541,1536690310471347042,base_link,0,1,40.5915265,-79.8960099,362.135758423,0.547600014114,0.0,0.0,0.0,0.547600014114,0.0,0.0,0.0,2.19040005646,1,448.7511565905525,140.3725452782203,362.1184467470913,0.9537817603891409,-20.300475562010224,-1.4249168848958411,0,Fixed-Wing
1970-01-01 00:00:41.187253024,8543,1536690310876532276,base_link,0,1,40.5914529,-79.8960053,361.795794117,0.547600014114,0.0,0.0,0.0,0.547600014114,0.0,0.0,0.0,2.19040005646,1,449.1410484821185,132.19910940726385,361.7786301040951,0.9750027296792616,-20.43931268494288,-0.8497795457633075,0,Fixed-Wing
1970-01-01 00:00:41.561261519,8545,1536690311250324331,base_link,0,1,40.5913789,-79.8960017,361.805828981,0.547600014114,0.0,0.0,0.0,0.547600014114,0.0,0.0,0.0,2.19040005646,1,449.4463110637934,123.98125531872654,361.7888089289212,0.7633701978427063,-20.55038933035577,0.025454189238198106,0,Fixed-Wing
1970-01-01 00:00:42.039755924,8547,1536690311729264000,base_link,0,1,40.5913052,-79.8960008,362.135860976,0.547600014114,0.0,0.0,0.0,0.547600014114,0.0,0.0,0.0,2.19040005646,1,449.5230195083441,115.79670905843687,362.1189897426999,0.19182482232690445,-20.467096437726724,0.8256832257500218,0,Fixed-Wing
1970-01-01 00:00:42.374123479,8549,1536690312063079319,base_link,0,1,40.5912326,-79.896005,362.665887299,0.547600014114,0.0,0.0,0.0,0.547600014114,0.0,0.0,0.0,2.19040005646,1,449.1679809304509,107.73429698970594,362.64918266126034,-0.8878450413445684,-20.161675440950805,1.3258535353909864,0,Fixed-Wing
1970-01-01 00:00:42.771044538,8551,1536690312460386444,base_link,0,1,40.5911613,-79.8960166,363.115905504,0.547600014114,0.0,0.0,0.0,0.547600014114,0.0,0.0,0.0,2.19040005646,1,448.1864600513454,99.81621281154887,363.0993989521411,-2.4544894548109975,-19.800754656696558,1.12585596687259,0,Fixed-Wing
1970-01-01 00:00:43.187642119,8553,1536690312875280728,base_link,0,1,40.5910915,-79.8960377,363.415913348,0.547600014114,0.0,0.0,0.0,0.547600014114,0.0,0.0,0.0,2.19040005646,1,446.400667196094,92.06465590437375,363.3996487290127,-4.465732543240681,-19.384319877503486,0.7508346758883084,0,Fixed-Wing
1970-01-01 00:00:43.574104363,8555,1536690313263063084,base_link,0,1,40.5910237,-79.8960699,363.545908974,0.547600014114,0.0,0.0,0.0,0.547600014114,0.0,0.0,0.0,2.19040005646,1,443.6751426453757,84.53514526418556,363.52993874019387,-6.81571977833373,-18.829048734116032,0.32581625650472024,0,Fixed-Wing
1970-01-01 00:00:43.991353441,8557,1536690313680799151,base_link,0,1,40.5909601,-79.8961152,363.645889395,0.547600014114,0.0,0.0,0.0,0.547600014114,0.0,0.0,0.0,2.19040005646,1,439.84056321149234,77.47198941896428,363.6302742772025,-9.589133542100123,-17.66283520691112,0.250909097068725,0,Fixed-Wing
1970-01-01 00:00:44.381697750,8559,1536690314071261024,base_link,0,1,40.5909018,-79.8961727,363.845855066,0.547600014114,0.0,0.0,0.0,0.547600014114,0.0,0.0,0.0,2.19040005646,1,434.9731204420229,70.99735367872131,363.8306488001115,-12.172015087898233,-16.191122865009635,0.5010766087229106,0,Fixed-Wing
1970-01-01 00:00:44.763639488,8561,1536690314452982642,base_link,0,1,40.590851,-79.896242,364.065805462,0.547600014114,0.0,0.0,0.0,0.547600014114,0.0,0.0,0.0,2.19040005646,1,429.10665628888285,65.3555561247519,364.0510564411727,-14.670268057906322,-14.108444249313335,0.5511734312138118,0,Fixed-Wing
1970-01-01 00:00:45.163013129,8563,1536690314852530868,base_link,0,1,40.5908108,-79.8963228,364.495739575,0.547600014114,0.0,0.0,0.0,0.547600014114,0.0,0.0,0.0,2.19040005646,1,422.26656081067324,60.8908647138727,364.4814906925974,-17.10502810339296,-11.164854686510216,1.076387016926453,0,Fixed-Wing
1970-01-01 00:00:45.579420190,8565,1536690315269027046,base_link,0,1,40.590784,-79.8964121,365.185659298,0.547600014114,0.0,0.0,0.0,0.547600014114,0.0,0.0,0.0,2.19040005646,1,414.70679526482763,57.91424314258407,365.1719334918534,-18.904707182625152,-7.443638146902713,1.726590443464181,0,Fixed-Wing
1970-01-01 00:00:46.014878773,8567,1536690315704277029,base_link,0,1,40.5907683,-79.8965059,365.835569709,0.547600014114,0.0,0.0,0.0,0.547600014114,0.0,0.0,0.0,2.19040005646,1,406.76599002625727,56.17028900436367,365.82237015233636,-19.857573216926646,-4.361106455358507,1.626547084391047,0,Fixed-Wing
1970-01-01 00:00:46.379201832,8569,1536690316068450557,base_link,0,1,40.5907626,-79.8966009,366.225474664,0.547600014114,0.0,0.0,0.0,0.547600014114,0.0,0.0,0.0,2.19040005646,1,398.7235138865811,55.53685929176078,366.2127877582917,-20.111821659255046,-1.584017806493043,0.9763173837558247,0,Fixed-Wing
1970-01-01 00:00:46.776903566,8571,1536690316462741121,base_link,0,1,40.5907664,-79.8966949,366.715376634,0.547600014114,0.0,0.0,0.0,0.547600014114,0.0,0.0,0.0,2.19040005646,1,390.7656444970007,55.95844134058916,366.70317782360524,-19.900245542702873,1.054250312158364,1.2263185324729269,0,Fixed-Wing
1970-01-01 00:00:47.198670237,8573,1536690316888246951,base_link,0,1,40.590775,-79.8967866,367.425278945,0.547600014114,0.0,0.0,0.0,0.547600014114,0.0,0.0,0.0,2.19040005646,1,383.0024746177224,56.91309551106687,367.41354186995056,-19.413360439118794,2.3873038712782324,1.7764075099660876,0,Fixed-Wing
1970-01-01 00:00:47.612927521,8575,1536690317302344400,base_link,0,1,40.5907853,-79.896875,368.475183936,0.547600014114,0.0,0.0,0.0,0.547600014114,0.0,0.0,0.0,2.19040005646,1,375.5186877621659,58.05656428420889,368.46388088129174,-18.714707256923194,2.859472585178896,2.626582971584993,0,Fixed-Wing
1970-01-01 00:00:47.999870931,8577,1536690317689301730,base_link,0,1,40.5907963,-79.89696,369.435092133,0.547600014114,0.0,0.0,0.0,0.547600014114,0.0,0.0,0.0,2.19040005646,1,368.3227298314669,59.27779104496517,369.42419680946136,-17.994933408101684,3.053922000050716,2.401462229848409,0,Fixed-Wing
1970-01-01 00:00:48.459523311,8579,1536690318148944830,base_link,0,1,40.5908065,-79.8970423,370.145003451,0.547600014114,0.0,0.0,0.0,0.547600014114,0.0,0.0,0.0,2.19040005646,1,361.3553395828872,60.410191848252396,370.1344954366291,-17.42335416061423,2.831794910793086,1.7762439162158676,0,Fixed-Wing
1970-01-01 00:00:48.773262442,8581,1536690318462546782,base_link,0,1,40.5908148,-79.8971235,370.294916713,0.547600014114,0.0,0.0,0.0,0.547600014114,0.0,0.0,0.0,2.19040005646,1,354.4810529432466,61.33159873335762,370.284785074787,-17.190529947486834,2.304162378228973,0.37582932760651694,0,Fixed-Wing
1970-01-01 00:00:49.192727950,8583,1536690318882205947,base_link,0,1,40.5908221,-79.8972034,369.824831744,0.547600014114,0.0,0.0,0.0,0.547600014114,0.0,0.0,0.0,2.19040005646,1,347.7167948342928,62.14195860964222,369.815064046085,-16.91538157922671,2.0264671014999034,-1.1746314685661912,0,Fixed-Wing
1970-01-01 00:00:49.574696311,8585,1536690319264254818,base_link,0,1,40.5908294,-79.8972829,368.714747196,0.547600014114,0.0,0.0,0.0,0.547600014114,0.0,0.0,0.0,2.19040005646,1,340.98636831587106,62.952319721150786,368.7053343661272,-16.83077891415027,2.0264701904247433,-2.775101228238429,0,Fixed-Wing
1970-01-01 00:00:49.981200185,8587,1536690319670503629,base_link,0,1,40.5908357,-79.8973636,367.394661855,0.547600014114,0.0,0.0,0.0,0.547600014114,0.0,0.0,0.0,2.19040005646,1,334.1543497574509,63.65162754823453,367.38560312586395,-17.08483014849194,1.7487592202910387,-3.3002521712660844,0,Fixed-Wing
1970-01-01 00:00:50.405944859,8589,1536690320094918746,base_link,0,1,40.590841,-79.8974464,366.034574797,0.547600014114,0.0,0.0,0.0,0.547600014114,0.0,0.0,0.0,2.19040005646,1,327.14455598129933,64.23988074207008,366.025873012631,-17.529392670326647,1.471044877154492,-3.4002773607433987,0,Fixed-Wing
1970-01-01 00:00:50.789309137,8591,1536690320478623716,base_link,0,1,40.5908446,-79.897531,364.544486626,0.547600014114,0.0,0.0,0.0,0.547600014114,0.0,0.0,0.0,2.19040005646,1,319.9823832320666,64.63934338044598,364.53614359482094,-17.910446798185372,0.9989362981032042,-3.7253666471863465,0,Fixed-Wing
1970-01-01 00:00:51.187615520,8593,1536690320876456997,base_link,0,1,40.5908462,-79.8976178,363.17439706,0.547600014114,0.0,0.0,0.0,0.547600014114,0.0,0.0,0.0,2.19040005646,1,312.6339819171839,64.81670143385227,363.1664161118237,-18.37614860881713,0.443519318925035,-3.425277785272962,0,Fixed-Wing
1970-01-01 00:00:51.570948951,8595,1536690321260217004,base_link,0,1,40.5908457,-79.897707,362.144305935,0.547600014114,0.0,0.0,0.0,0.547600014114,0.0,0.0,0.0,2.19040005646,1,305.0824304418468,64.76085192016117,362.1366906949696,-18.884166254894208,-0.13966288983690578,-2.5750345518097357,0,Fixed-Wing
1970-01-01 00:00:51.998459123,8597,1536690321688012126,base_link,0,1,40.5908431,-79.897797,361.524214892,0.547600014114,0.0,0.0,0.0,0.547600014114,0.0,0.0,0.0,2.19040005646,1,297.46318320947984,64.4718016719981,361.51696195238753,-19.053453047770738,-0.7228280122511278,-1.5497557880758692,0,Fixed-Wing
1970-01-01 00:00:52.431360008,8599,1536690322120638461,base_link,0,1,40.5908386,-79.8978875,361.314124151,0.547600014114,0.0,0.0,0.0,0.547600014114,0.0,0.0,0.0,2.19040005646,1,289.8016346195563,63.9717623632352,361.307228456427,-19.159236060905904,-1.2504483974585223,-0.5244805944677169,0,Fixed-Wing
1970-01-01 00:00:52.812464946,8601,1536690322501775045,base_link,0,1,40.5908329,-79.8979778,361.494034135,0.547600014114,0.0,0.0,0.0,0.547600014114,0.0,0.0,0.0,2.19040005646,1,282.15703939871946,63.33847271197686,361.4874870341224,-19.116840767506986,-1.5836675550612607,0.4507726605834217,0,Fixed-Wing
1970-01-01 00:00:53.219659322,8603,1536690322909169382,base_link,0,1,40.5908269,-79.8980671,361.73394528,0.547600014114,0.0,0.0,0.0,0.547600014114,0.0,0.0,0.0,2.19040005646,1,274.5971043820006,62.671878877981186,361.72773425093123,-18.905130978471067,-1.666951331361973,0.6007862621754722,0,Fixed-Wing
1970-01-01 00:00:53.571415836,8605,1536690323260879722,base_link,0,1,40.5908206,-79.8981552,362.123857793,0.547600014114,0.0,0.0,0.0,0.547600014114,0.0,0.0,0.0,2.19040005646,1,267.13876467926696,61.9719820633415,362.11796989500476,-18.65107155687009,-1.75023210158766,0.9758623516422785,0,Fixed-Wing
1970-01-01 00:00:54.034445468,8607,1536690323723404540,base_link,0,1,40.5908152,-79.8982418,362.323771472,0.547600014114,0.0,0.0,0.0,0.547600014114,0.0,0.0,0.0,2.19040005646,1,259.8073986867843,61.37204231793524,362.318191792441,-18.33354837475151,-1.500269438958559,0.500694938173244,0,Fixed-Wing
1970-01-01 00:00:54.370966639,8609,1536690324060479995,base_link,0,1,40.59081,-79.8983278,362.543685693,0.547600014114,0.0,0.0,0.0,0.547600014114,0.0,0.0,0.0,2.19040005646,1,252.52682598787393,60.7943221240169,362.5384035402617,-18.20652957555713,-1.4447050021964611,0.5506835609488477,0,Fixed-Wing
1970-01-01 00:00:54.787617243,8611,1536690324477109895,base_link,0,1,40.5908057,-79.898413,362.613600364,0.547600014114,0.0,0.0,0.0,0.547600014114,0.0,0.0,0.0,2.19040005646,1,245.3139691457826,60.3165569115136,362.6086038396789,-18.037192519133672,-1.1947475605752111,0.17554990251569152,0,Fixed-Wing
1970-01-01 00:00:55.183910389,8613,1536690324873440160,base_link,0,1,40.5908029,-79.8984985,362.633514108,0.547600014114,0.0,0.0,0.0,0.547600014114,0.0,0.0,0.0,2.19040005646,1,238.07570658528704,60.00537589074466,362.6287944120513,-18.100724604128082,-0.7781704396454547,0.05049056829019138,0,Fixed-Wing
1970-01-01 00:00:55.574065393,8615,1536690325263194058,base_link,0,1,40.590802,-79.8985832,362.653427881,0.547600014114,0.0,0.0,0.0,0.547600014114,0.0,0.0,0.0,2.19040005646,1,230.9051633800009,59.90520343225273,362.6489723619316,-17.931378799279177,-0.25050128659006,0.05045900322163228,0,Fixed-Wing
1970-01-01 00:00:55.967914628,8617,1536690325656986912,base_link,0,1,40.5908024,-79.8986682,362.573340811,0.547600014114,0.0,0.0,0.0,0.547600014114,0.0,0.0,0.0,2.19040005646,1,223.70921465132642,59.94940420415395,362.56914094975025,-17.994910396597213,0.11053287895915041,-0.19963442809327422,0,Fixed-Wing
1970-01-01 00:00:56.404932450,8619,1536690326094055164,base_link,0,1,40.5908034,-79.8987537,362.543252991,0.547600014114,0.0,0.0,0.0,0.547600014114,0.0,0.0,0.0,2.19040005646,1,216.47093686249673,60.06024256282316,362.53930148700044,-18.100762685626204,0.2771735052545032,-0.07461955034861144,0,Fixed-Wing
1970-01-01 00:00:56.773604021,8621,1536690326462733999,base_link,0,1,40.5908049,-79.8988389,362.483165278,0.547600014114,0.0,0.0,0.0,0.547600014114,0.0,0.0,0.0,2.19040005646,1,209.25805426634736,60.2266145457896,362.4794525695934,-18.037256922311673,0.41604645042221505,-0.14966419949352427,0,Fixed-Wing
1970-01-01 00:00:57.204733164,8623,1536690326893893252,base_link,0,1,40.5908068,-79.8989245,362.453077002,0.547600014114,0.0,0.0,0.0,0.547600014114,0.0,0.0,0.0,2.19040005646,1,202.01130860683097,60.43741380236827,362.4495955909142,-18.121938291512603,0.5271457422544997,-0.07466335243659011,0,Fixed-Wing
1970-01-01 00:00:57.618372422,8625,1536690327307842132,base_link,0,1,40.5908086,-79.8990105,362.472988371,0.547600014114,0.0,0.0,0.0,0.547600014114,0.0,0.0,0.0,2.19040005646,1,194.73070197659507,60.637114460610576,362.4697311642591,-18.20661442762947,0.49939147521882843,0.050353032211203116,0,Fixed-Wing
1970-01-01 00:00:57.956002769,8627,1536690327645443135,base_link,0,1,40.5908094,-79.8990969,362.792899765,0.547600014114,0.0,0.0,0.0,0.547600014114,0.0,0.0,0.0,2.19040005646,1,187.41624402126783,60.725771908961775,362.78986051289826,-18.291266442922122,0.22170569847357074,0.8005475249048997,0,Fixed-Wing
1970-01-01 00:00:58.432720248,8629,1536690328122090793,base_link,0,1,40.5908099,-79.8991829,363.032811707,0.547600014114,0.0,0.0,0.0,0.547600014114,0.0,0.0,0.0,2.19040005646,1,180.13564732437703,60.78112089424576,363.02998139564227,-18.206589587311438,0.13841121835109974,0.600470338554817,0,Fixed-Wing
1970-01-01 00:00:58.772153856,8631,1536690328461613966,base_link,0,1,40.5908102,-79.8992682,363.18272446,0.547600014114,0.0,0.0,0.0,0.547600014114,0.0,0.0,0.0,2.19040005646,1,172.91430898477483,60.81426703732603,363.18009339960963,-18.05840220162195,0.08288856649930307,0.37538511775138317,0,Fixed-Wing
1970-01-01 00:00:59.190078269,8633,1536690328879452334,base_link,0,1,40.5908103,-79.8993528,363.322638025,0.547600014114,0.0,0.0,0.0,0.547600014114,0.0,0.0,0.0,2.19040005646,1,165.75223132231451,60.82521092868416,363.3201967266382,-17.91020901467491,0.027367391264865027,0.3503564173682511,0,Fixed-Wing
1970-01-01 00:00:59.595891736,8635,1536690329285148174,base_link,0,1,40.59081,-79.8994369,363.45255228,0.547600014114,0.0,0.0,0.0,0.547600014114,0.0,0.0,0.0,2.19040005646,1,158.63248315250004,60.79174156662103,363.4502920857143,-17.80435564411653,-0.08369684027310119,0.3253294899474559,0,Fixed-Wing
1970-01-01 00:01:00.048623187,8637,1536690329737051239,base_link,0,1,40.5908098,-79.8995206,363.462466913,0.547600014114,0.0,0.0,0.0,0.547600014114,0.0,0.0,0.0,2.19040005646,1,151.54659482407766,60.76938378070224,363.46037897701945,-17.719682332108952,-0.05591011963046044,0.025224291064372892,0,Fixed-Wing
1970-01-01 00:01:00.398356832,8639,1536690330087319808,base_link,0,1,40.5908095,-79.8996039,363.432382009,0.547600014114,0.0,0.0,0.0,0.547600014114,0.0,0.0,0.0,2.19040005646,1,144.49456901097636,60.73592776876953,363.430457810945,-17.63500233340659,-0.0836634555993519,-0.07482386586862608,0,Fixed-Wing
1970-01-01 00:01:00.787775383,8641,1536690330477284355,base_link,0,1,40.5908098,-79.8996874,363.28229666,0.577599985504,0.0,0.0,0.0,0.577599985504,0.0,0.0,0.0,2.31039994202,1,137.42560775678723,60.76910837982368,363.2805281422884,-17.677352794255224,0.08297476056833229,-0.37492915180392644,0,Fixed-Wing
1970-01-01 00:01:01.183887191,8643,1536690330873459937,base_link,0,1,40.590812,-79.8997712,363.352210218,0.577599985504,0.0,0.0,0.0,0.577599985504,0.0,0.0,0.0,2.31039994202,1,130.33125024693928,61.01329681213281,363.3505880558606,-17.740861215760294,0.6106420605497792,0.17519883960561117,0,Fixed-Wing
1970-01-01 00:01:01.598170010,8645,1536690331287609513,base_link,0,1,40.5908143,-79.8998548,363.452123951,0.547600014114,0.0,0.0,0.0,0.547600014114,0.0,0.0,0.0,2.19040005646,1,123.25382507674448,61.268597805827625,363.45063982217835,-17.698518510669988,0.6384312449856389,0.25019947164639444,0,Fixed-Wing
1970-01-01 00:01:02.002089819,8647,1536690331690096798,base_link,0,1,40.590816,-79.899938,363.552038357,0.547600014114,0.0,0.0,0.0,0.547600014114,0.0,0.0,0.0,2.19040005646,1,116.21026447296049,61.45727464306802,363.5506844365036,-17.613833382807154,0.47182420387806967,0.25018158665743967,0,Fixed-Wing
1970-01-01 00:01:02.397877896,8649,1536690332087342325,base_link,0,1,40.5908167,-79.9000209,363.691953499,0.547600014114,0.0,0.0,0.0,0.547600014114,0.0,0.0,0.0,2.19040005646,1,109.1921037657975,61.53490654622641,363.6907226551798,-17.550315856347254,0.19413411544830295,0.3501936008987059,0,Fixed-Wing
1970-01-01 00:01:02.794194112,8651,1536690332483727595,base_link,0,1,40.5908173,-79.9001036,363.7618689,0.547600014114,0.0,0.0,0.0,0.547600014114,0.0,0.0,0.0,2.19040005646,1,102.19087356388303,61.6014393773801,363.76075325770125,-17.507977738552963,0.1663786639101296,0.17512554145524714,0,Fixed-Wing
1970-01-01 00:01:03.155796952,8653,1536690332845186408,base_link,0,1,40.5908196,-79.900186,363.771783905,0.547600014114,0.0,0.0,0.0,0.547600014114,0.0,0.0,0.0,2.19040005646,1,95.21503747653185,61.85676753403612,363.77077357896565,-17.444474671285917,0.6384991714080446,0.02505781935039785,0,Fixed-Wing
1970-01-01 00:01:03.573325636,8655,1536690333262583449,base_link,0,1,40.5908255,-79.9002685,363.881697311,0.547600014114,0.0,0.0,0.0,0.547600014114,0.0,0.0,0.0,2.19040005646,1,88.230732679965,62.51189158426132,363.8807808755605,-17.465652374081856,1.6382688408384276,0.27509526816223145,0,Fixed-Wing
1970-01-01 00:01:03.982140400,8657,1536690333668244601,base_link,0,1,40.5908355,-79.900351,363.991609011,0.547600014114,0.0,0.0,0.0,0.547600014114,0.0,0.0,0.0,2.19040005646,1,81.24642390764251,63.622336880238464,363.9907742240535,-17.465662316254782,2.776890769358279,0.2750603881411596,0,Fixed-Wing
1970-01-01 00:01:04.372313899,8659,1536690334061845078,base_link,0,1,40.5908502,-79.9004326,363.731519673,0.547600014114,0.0,0.0,0.0,0.547600014114,0.0,0.0,0.0,2.19040005646,1,74.33829978764643,65.25473182804168,363.7307524860362,-17.275147341245734,4.082130366010534,-0.6502364112384339,0,Fixed-Wing
1970-01-01 00:01:04.767735077,8661,1536690334456999802,base_link,0,1,40.5908717,-79.9005118,363.02142995,0.547600014114,0.0,0.0,0.0,0.547600014114,0.0,0.0,0.0,2.19040005646,1,67.63334708748405,67.64228609865955,363.02071234265486,-16.767076531834864,5.9705574326258075,-1.7755975257605139,0,Fixed-Wing
1970-01-01 00:01:05.181433694,8663,1536690334870492570,base_link,0,1,40.5909027,-79.9005874,362.311339935,0.547600014114,0.0,0.0,0.0,0.547600014114,0.0,0.0,0.0,2.19040005646,1,61.23316049622173,71.08484552955366,362.31064935944585,-16.00494786355761,8.608809043767522,-1.775654641322104,0,Fixed-Wing
1970-01-01 00:01:05.566820937,8665,1536690335255486164,base_link,0,1,40.5909431,-79.9006575,361.691251613,0.547600014114,0.0,0.0,0.0,0.547600014114,0.0,0.0,0.0,2.19040005646,1,55.29859322872236,75.57130602928893,361.69056346750153,-14.840573529336634,11.21929265128054,-1.5506489115560194,0,Fixed-Wing
1970-01-01 00:01:05.990682955,8667,1536690335680203735,base_link,0,1,40.5909936,-79.9007179,361.281168974,0.547600014114,0.0,0.0,0.0,0.547600014114,0.0,0.0,0.0,2.19040005646,1,50.18521019672008,81.17940692711394,361.2804539705326,-12.787037950631882,14.02417901468664,-1.0255608994741385,0,Fixed-Wing
1970-01-01 00:01:06.368750308,8669,1536690336058034169,base_link,0,1,40.5910536,-79.9007649,361.101096042,0.547600014114,0.0,0.0,0.0,0.547600014114,0.0,0.0,0.0,2.19040005646,1,46.20624573448603,87.84251772690206,361.10032256265447,-9.95019721080414,16.662442483365627,-0.4504546469965345,0,Fixed-Wing
1970-01-01 00:01:06.756596245,8671,1536690336445850155,base_link,0,1,40.5911198,-79.9007959,361.331036845,0.547600014114,0.0,0.0,0.0,0.547600014114,0.0,0.0,0.0,2.19040005646,1,43.58181147365063,95.19416860649773,361.330176068757,-6.562923270604269,18.384274795932026,0.5747947077744995,0,Fixed-Wing
1970-01-01 00:01:07.191644347,8673,1536690336881072586,base_link,0,1,40.5911889,-79.9008107,361.940992963,0.547600014114,0.0,0.0,0.0,0.547600014114,0.0,0.0,0.0,2.19040005646,1,42.32883719400581,102.86788657255573,361.9400211789671,-3.1333130267595544,19.18966802219123,1.525039786665451,0,Fixed-Wing
1970-01-01 00:01:07.588643323,8675,1536690337278110249,base_link,0,1,40.5912574,-79.9008106,363.040964528,0.547600014114,0.0,0.0,0.0,0.547600014114,0.0,0.0,0.0,2.19040005646,1,42.33726704995678,110.4749904738284,363.03986515685654,0.021080542429309953,19.023086217322515,2.7503800511379772,0,Fixed-Wing
1970-01-01 00:01:07.975284537,8677,1536690337663952419,base_link,0,1,40.5913232,-79.900802,364.440945894,0.547600014114,0.0,0.0,0.0,0.547600014114,0.0,0.0,0.0,2.19040005646,1,43.06528965829448,117.78226536185855,364.43971058864304,1.8205662794024902,18.27330374512401,3.500593745715056,0,Fixed-Wing
1970-01-01 00:01:08.365980352,8679,1536690338055312467,base_link,0,1,40.5913853,-79.9007914,365.860930855,0.547600014114,0.0,0.0,0.0,0.547600014114,0.0,0.0,0.0,2.19040005646,1,43.96262866531637,124.67865111838933,365.8595580394525,2.243975830787348,17.245793213426698,3.550612798607286,0,Fixed-Wing
1970-01-01 00:01:08.810419373,8681,1536690338499855035,base_link,0,1,40.5914455,-79.9007803,367.020917132,0.547600014114,0.0,0.0,0.0,0.547600014114,0.0,0.0,0.0,2.19040005646,1,44.90229456591478,131.36403540329312,367.0194032702103,2.3498227018525344,16.718141791961223,2.9004251959493907,0,Fixed-Wing
1970-01-01 00:01:09.151194691,8683,1536690338840705519,base_link,0,1,40.5915039,-79.90077,367.880903359,0.547600014114,0.0,0.0,0.0,0.547600014114,0.0,0.0,0.0,2.19040005646,1,45.77423231227702,137.8495209971196,367.8792461061911,2.1804548932757224,16.21825509599312,2.150209148513512,0,Fixed-Wing
1970-01-01 00:01:09.608738349,8685,1536690339298289367,base_link,0,1,40.591561,-79.9007618,368.470888003,0.547600014114,0.0,0.0,0.0,0.547600014114,0.0,0.0,0.0,2.19040005646,1,46.46838739564667,144.19063308726777,368.4690852006445,1.7358737530749886,15.857220247039566,1.4750107391404488,0,Fixed-Wing
1970-01-01 00:01:09.999085442,8687,1536690339688575598,base_link,0,1,40.5916172,-79.9007551,368.55087151,0.547600014114,0.0,0.0,0.0,0.547600014114,0.0,0.0,0.0,2.19040005646,1,47.03555245988302,150.4317864034964,368.54892006149265,1.4183097873313248,15.607253321501602,0.19964305217502412,0,Fixed-Wing
1970-01-01 00:01:10.401331584,8689,1536690340090828845,base_link,0,1,40.5916729,-79.9007503,368.270853305,0.547600014114,0.0,0.0,0.0,0.547600014114,0.0,0.0,0.0,2.19040005646,1,47.44186567953314,156.6174038661198,368.2687496023165,1.0160675480387402,15.468374801502879,-0.7006223221905473,0,Fixed-Wing
1970-01-01 00:01:10.788118232,8691,1536690340477499273,base_link,0,1,40.5917286,-79.9007468,367.610833792,0.547600014114,0.0,0.0,0.0,0.547600014114,0.0,0.0,0.0,2.19040005646,1,47.73812115316326,162.80301043606306,367.60857262199426,0.7408461209891912,15.468347562175595,-1.6509047041228102,0,Fixed-Wing
1970-01-01 00:01:11.167202284,8693,1536690340856725527,base_link,0,1,40.5917851,-79.9007445,366.780812742,0.547600014114,0.0,0.0,0.0,0.547600014114,0.0,0.0,0.0,2.19040005646,1,47.93278583786082,169.0774525675739,366.7783864782039,0.4867980151881447,15.690498668404283,-2.076046652538567,0,Fixed-Wing
1970-01-01 00:01:11.578852656,8695,1536690341268323517,base_link,0,1,40.5918424,-79.9007442,365.930789341,0.547600014114,0.0,0.0,0.0,0.547600014114,0.0,0.0,0.0,2.19040005646,1,47.95813561529309,175.44073341699732,365.9281906150624,0.06339219339482101,15.912657667705467,-2.126084961642994,0,Fixed-Wing
1970-01-01 00:01:11.973236912,8697,1536690341662181969,base_link,0,1,40.5919006,-79.9007448,365.040764669,0.547600014114,0.0,0.0,0.0,0.547600014114,0.0,0.0,0.0,2.19040005646,1,47.90729326192476,181.9039581561395,365.0379848322025,-0.1271414830360784,16.162587372319727,-2.2261377757270453,0,Fixed-Wing
1970-01-01 00:01:12.375344275,8699,1536690342064841216,base_link,0,1,40.5919599,-79.9007462,364.320738746,0.547600014114,0.0,0.0,0.0,0.547600014114,0.0,0.0,0.0,2.19040005646,1,47.78872611377096,188.48934337783717,364.31776812430064,-0.29650089063386187,16.468074114996355,-1.8010460626521447,0,Fixed-Wing
1970-01-01 00:01:12.771605198,8701,1536690342460806790,base_link,0,1,40.5920205,-79.9007487,363.920711186,0.547600014114,0.0,0.0,0.0,0.547600014114,0.0,0.0,0.0,2.19040005646,1,47.57703834927859,195.21910449060243,363.9175392256185,-0.5293676341685039,16.829114934094697,-1.0008524854012724,0,Fixed-Wing
1970-01-01 00:01:13.158145935,8703,1536690342847679770,base_link,0,1,40.5920816,-79.9007531,363.790681505,0.547600014114,0.0,0.0,0.0,0.547600014114,0.0,0.0,0.0,2.19040005646,1,47.204505153330324,202.00439857477332,363.78730050854887,-0.9315938361447818,16.967986246576256,-0.32568798530996335,0,Fixed-Wing
1970-01-01 00:01:13.571660207,8705,1536690343260515795,base_link,0,1,40.5921423,-79.9007588,363.860650686,0.547600014114,0.0,0.0,0.0,0.547600014114,0.0,0.0,0.0,2.19040005646,1,46.72192094907548,208.74527738814643,363.8570556618559,-1.206798414193078,16.85691697018444,0.17443672555072468,0,Fixed-Wing
1970-01-01 00:01:13.971775772,8707,1536690343661222346,base_link,0,1,40.5922029,-79.9007638,363.860620639,0.547600014114,0.0,0.0,0.0,0.547600014114,0.0,0.0,0.0,2.19040005646,1,46.29859666614229,215.47504921308314,363.8568043547083,-1.0586071173258367,16.82914172202393,-0.0006284438332916946,0,Fixed-Wing
1970-01-01 00:01:14.397081865,8709,1536690344086417851,base_link,0,1,40.5922628,-79.9007688,363.770590899,0.547600014114,0.0,0.0,0.0,0.547600014114,0.0,0.0,0.0,2.19040005646,1,45.87527297692303,222.1270813208404,363.7665489220418,-1.0586056326252833,16.63473799603205,-0.22570177816408915,0,Fixed-Wing
1970-01-01 00:01:14.839793588,8711,1536690344528637113,base_link,0,1,40.5923217,-79.9007738,363.60056159,0.547600014114,0.0,0.0,0.0,0.547600014114,0.0,0.0,0.0,2.19040005646,1,45.45195016298486,228.66805807279673,363.5962909319069,-1.0586034438096938,16.357021846007687,-0.4257641893103272,0,Fixed-Wing
1970-01-01 00:01:15.185687791,8713,1536690344875336245,base_link,0,1,40.5923804,-79.9007775,363.540533702,0.547600014114,0.0,0.0,0.0,0.547600014114,0.0,0.0,0.0,2.19040005646,1,45.13868207571667,235.18682882254956,363.53602765331993,-0.7833895672492912,16.301491291943822,-0.15070039257728307,0,Fixed-Wing
1970-01-01 00:01:15.580247464,8715,1536690345269794099,base_link,0,1,40.5924385,-79.9007805,363.460506791,0.547600014114,0.0,0.0,0.0,0.547600014114,0.0,0.0,0.0,2.19040005646,1,44.884674085317435,241.63896769522137,363.4557607738254,-0.6351978313908839,16.134864943863807,-0.2007234012887581,0,Fixed-Wing
1970-01-01 00:01:15.976861014,8717,1536690345666424352,base_link,0,1,40.5924966,-79.9007833,363.1704801,0.547600014114,0.0,0.0,0.0,0.547600014114,0.0,0.0,0.0,2.19040005646,1,44.647596281520215,248.09109839293103,363.1654874421242,-0.5928605104359723,16.134844500734363,-0.7258865774947003,0,Fixed-Wing
1970-01-01 00:01:16.379167954,8719,1536690346068443687,base_link,0,1,40.5925546,-79.9007853,362.960454281,0.547600014114,0.0,0.0,0.0,0.547600014114,0.0,0.0,0.0,2.19040005646,1,44.47824430500298,254.53212694229208,362.9552084053891,-0.4234985208789311,16.107081356182356,-0.5258448283896329,0,Fixed-Wing
1970-01-01 00:01:16.787973951,8721,1536690346477565800,base_link,0,1,40.5926126,-79.9007862,362.860429597,0.547600014114,0.0,0.0,0.0,0.547600014114,0.0,0.0,0.0,2.19040005646,1,44.40201487428887,260.9731602002368,362.85492332999706,-0.1906269523319397,16.107093130938473,-0.25078290769424694,0,Fixed-Wing
1970-01-01 00:01:17.204080639,8723,1536690346893593451,base_link,0,1,40.5926707,-79.9007848,362.710407228,0.547600014114,0.0,0.0,0.0,0.547600014114,0.0,0.0,0.0,2.19040005646,1,44.52049354241478,267.4252976174711,362.7046322292706,0.29627962861080326,16.13486130425086,-0.37583298505197177,0,Fixed-Wing
1970-01-01 00:01:17.571156813,8725,1536690347259316683,base_link,0,1,40.592729,-79.9007789,362.570389367,0.547600014114,0.0,0.0,0.0,0.547600014114,0.0,0.0,0.0,2.19040005646,1,45.01992276667908,273.8996479923609,362.5643354610121,1.2489227590332719,16.19040925181503,-0.35084015588992057,0,Fixed-Wing
1970-01-01 00:01:17.961678779,8727,1536690347651206311,base_link,0,1,40.5927872,-79.9007664,362.540378272,0.547600014114,0.0,0.0,0.0,0.547600014114,0.0,0.0,0.0,2.19040005646,1,46.0780793553101,280.3629012245319,362.5340353152381,2.646132388646375,16.16265862484256,-0.07577158047751477,0,Fixed-Wing
1970-01-01 00:01:18.367852585,8729,1536690348057308791,base_link,0,1,40.5928445,-79.900746,362.50037559,0.547600014114,0.0,0.0,0.0,0.547600014114,0.0,0.0,0.0,2.19040005646,1,47.8050138471394,286.72621128277854,362.4937363769728,4.318545422291485,15.912730710215389,-0.10077556282089774,0,Fixed-Wing
