time,field.header.seq,field.header.stamp,field.header.frame_id,field.status.status,field.status.service,lat,lon,alt,field.position_covariance0,field.position_covariance1,field.position_covariance2,field.position_covariance3,field.position_covariance4,field.position_covariance5,field.position_covariance6,field.position_covariance7,field.position_covariance8,field.position_covariance_type,x,y,z,vel_x,vel_y,vel_z,track_id,uav_category
1970-01-01 00:00:00.000000000,1889,1538767917607024295,base_link,0,1,40.5916769,-79.8949487,384.446784717,0.435600034618,0.0,0.0,0.0,0.435600034618,0.0,0.0,0.0,1.74240013847,1,172.32005061886883,109.46666186128942,384.443518712269,-20.886643964489362,4.362285729466162,3.102965593172742,0,Fixed-Wing
1970-01-01 00:00:00.344938464,1891,1538767917952066183,base_link,0,1,40.5916926,-79.8950473,385.686676797,0.435600034618,0.0,0.0,0.0,0.435600034618,0.0,0.0,0.0,1.74240013847,1,163.97282867832445,111.2100231793562,385.6836002937869,-20.886643964489362,4.362285729466162,3.102965593172742,0,Fixed-Wing
1970-01-01 00:00:00.792435712,1893,1538767918398909319,base_link,0,1,40.5917025,-79.8951448,386.816572469,0.435600034618,0.0,0.0,0.0,0.435600034618,0.0,0.0,0.0,1.74240013847,1,155.71874126075485,112.30928842081462,386.81368321222556,-20.653600248144834,2.750611147567399,2.827723970430262,0,Fixed-Wing
1970-01-01 00:00:01.195964832,1895,1538767918799813543,base_link,0,1,40.591711,-79.8952395,387.866471625,0.435600034618,0.0,0.0,0.0,0.435600034618,0.0,0.0,0.0,1.74240013847,1,147.70169519183466,113.25309254954053,387.8637560514906,-20.06046898970132,2.3616121566341572,2.627520591489065,0,Fixed-Wing
1970-01-01 00:00:01.592908576,1897,1538767919199601959,base_link,0,1,40.5917229,-79.8953304,388.58637327,0.435600034618,0.0,0.0,0.0,0.435600034618,0.0,0.0,0.0,1.74240013847,1,140.0063321709893,114.57448526899373,388.5838073459972,-19.25554498715194,3.306424516452644,1.801731777548421,0,Fixed-Wing
1970-01-01 00:00:01.988010944,1899,1538767919594972903,base_link,0,1,40.5917403,-79.8954182,388.906275804,0.435600034618,0.0,0.0,0.0,0.435600034618,0.0,0.0,0.0,1.74240013847,1,132.57338876072063,116.50667407905726,388.90383338856026,-18.598911556957386,4.834774974886489,0.8007777986485118,0,Fixed-Wing
1970-01-01 00:00:02.383866208,1901,1538767919990906951,base_link,0,1,40.591764,-79.8955029,388.636178892,0.435600034618,0.0,0.0,0.0,0.435600034618,0.0,0.0,0.0,1.74240013847,1,125.40286279429637,119.13849662176742,388.6338325411077,-17.942283548418754,6.58541737824202,-0.67560340566238,0,Fixed-Wing
1970-01-01 00:00:02.754774944,1903,1538767920362008327,base_link,0,1,40.5917941,-79.8955842,387.906082802,0.435600034618,0.0,0.0,0.0,0.435600034618,0.0,0.0,0.0,1.74240013847,1,118.52015737749426,122.48105951175728,387.9038044013576,-17.222091203176102,8.363851052411306,-1.826696108912227,0,Fixed-Wing
1970-01-01 00:00:03.171387680,1905,1538767920778574791,base_link,0,1,40.5918285,-79.8956637,387.145986777,0.396899993992,0.0,0.0,0.0,0.396899993992,0.0,0.0,0.0,1.58759997597,1,111.78983499483061,126.30115666646518,387.1437550285275,-16.840794263553672,9.558750174424976,-1.9018160483583146,0,Fixed-Wing
1970-01-01 00:00:03.578874912,1907,1538767921181202151,base_link,0,1,40.5918619,-79.8957442,386.255890168,0.396899993992,0.0,0.0,0.0,0.396899993992,0.0,0.0,0.0,1.58759997597,1,104.97486339042644,130.0102023886941,386.25369934897606,-17.052605830199322,9.280874283684783,-2.227121336868407,0,Fixed-Wing
1970-01-01 00:00:03.977353824,1909,1538767921584490151,base_link,0,1,40.5918907,-79.8958268,385.145793355,0.396899993992,0.0,0.0,0.0,0.396899993992,0.0,0.0,0.0,1.58759997597,1,97.9821239095199,133.20840371167014,385.14364747632897,-17.497421407318853,8.002625644263512,-2.777601747172711,0,Fixed-Wing
1970-01-01 00:00:04.372678240,1911,1538767921979830119,base_link,0,1,40.5919124,-79.8959126,383.775696255,0.396899993992,0.0,0.0,0.0,0.396899993992,0.0,0.0,0.0,1.58759997597,1,90.7184962137311,135.61812725974045,383.7736067617833,-18.175245207706855,6.029675281176005,-3.428152842393897,0,Fixed-Wing
1970-01-01 00:00:04.750662656,1913,1538767922357906023,base_link,0,1,40.591924,-79.8960012,382.40560053,0.396899993992,0.0,0.0,0.0,0.396899993992,0.0,0.0,0.0,1.58759997597,1,83.21784923626632,136.90622190690402,382.4035855749177,-18.76832124957408,3.2231051815204914,-3.4281039797059023,0,Fixed-Wing
1970-01-01 00:00:05.178266624,1915,1538767922785442279,base_link,0,1,40.591922,-79.8960913,381.325508977,0.396899993992,0.0,0.0,0.0,0.396899993992,0.0,0.0,0.0,1.58759997597,1,75.59024133613292,136.68401205448833,381.32359361727055,-19.08600629593688,-0.5560194883838809,-2.7023850167828534,0,Fixed-Wing
1970-01-01 00:00:05.559118784,1917,1538767923166245799,base_link,0,1,40.591906,-79.8961796,380.505425141,0.396899993992,0.0,0.0,0.0,0.396899993992,0.0,0.0,0.0,1.58759997597,1,68.11503513028485,134.90707967768324,380.5036317904152,-18.704662664391478,-4.446288138455957,-2.051730607378866,0,Fixed-Wing
1970-01-01 00:00:05.938648288,1919,1538767923545763207,base_link,0,1,40.5918773,-79.8962631,379.945351553,0.396899993992,0.0,0.0,0.0,0.396899993992,0.0,0.0,0.0,1.58759997597,1,61.046195036513254,131.71979524406657,379.94369645081224,-17.687842414177613,-7.975309109148812,-1.401085314937762,0,Fixed-Wing
1970-01-01 00:00:06.368746048,1921,1538767923975554791,base_link,0,1,40.591836,-79.8963372,379.725292886,0.396899993992,0.0,0.0,0.0,0.396899993992,0.0,0.0,0.0,1.58759997597,1,54.77313982527354,127.13326731706184,379.72378794844167,-15.6966080092275,-11.476533932711959,-0.5502609882059334,0,Fixed-Wing
1970-01-01 00:00:06.785254720,1923,1538767924392487975,base_link,0,1,40.5917839,-79.8963987,379.765251669,0.396899993992,0.0,0.0,0.0,0.396899993992,0.0,0.0,0.0,1.58759997597,1,49.56676732436519,121.3473883774677,379.7639022294966,-13.027525750188547,-14.477582397318967,0.10037503641969296,0,Fixed-Wing
1970-01-01 00:00:07.143718592,1925,1538767924750863143,base_link,0,1,40.591723,-79.8964444,380.065230347,0.396899993992,0.0,0.0,0.0,0.396899993992,0.0,0.0,0.0,1.58759997597,1,45.697978707119034,114.5842624639842,380.06403514465444,-9.680587265781929,-16.922876143476422,0.7510006784985143,0,Fixed-Wing
1970-01-01 00:00:07.542587744,1927,1538767925149725351,base_link,0,1,40.5916566,-79.8964735,380.445228362,0.396899993992,0.0,0.0,0.0,0.396899993992,0.0,0.0,0.0,1.58759997597,1,43.234498330370116,107.2103577156295,380.4441788277355,-6.16418706836314,-18.45118342413424,0.9512057808476723,0,Fixed-Wing
1970-01-01 00:00:07.991944800,1929,1538767925599090215,base_link,0,1,40.5915868,-79.8964842,381.005246685,0.396899993992,0.0,0.0,0.0,0.396899993992,0.0,0.0,0.0,1.58759997597,1,42.328712626384785,99.45888540732813,381.0043291037274,-2.2664814284346324,-19.39594316016598,1.4016231345694494,0,Fixed-Wing
1970-01-01 00:00:08.361028928,1931,1538767925967653831,base_link,0,1,40.5915164,-79.8964763,381.56528435,0.396899993992,0.0,0.0,0.0,0.396899993992,0.0,0.0,0.0,1.58759997597,1,42.99755514866266,91.6407892463107,381.5644797047785,1.673595805962,-19.562651162077806,1.4016239479413615,0,Fixed-Wing
1970-01-01 00:00:08.778187840,1933,1538767926385321063,base_link,0,1,40.5914478,-79.8964518,382.105338305,0.396899993992,0.0,0.0,0.0,0.396899993992,0.0,0.0,0.0,1.58759997597,1,45.071714295751,84.0225948038551,382.10462452063933,5.1900169828355684,-19.062451688141454,1.3515649324420131,0,Fixed-Wing
1970-01-01 00:00:09.182587616,1935,1538767926789797287,base_link,0,1,40.5913836,-79.8964119,382.435406227,0.396899993992,0.0,0.0,0.0,0.396899993992,0.0,0.0,0.0,1.58759997597,1,48.44960197832403,76.89303742176341,382.43475786745796,8.452241701546956,-17.839770851286872,0.8260685680721521,0,Fixed-Wing
1970-01-01 00:00:09.559776256,1937,1538767927166697895,base_link,0,1,40.591327,-79.8963553,382.825488104,0.435600034618,0.0,0.0,0.0,0.435600034618,0.0,0.0,0.0,1.74240013847,1,53.24127596751051,70.60749204161664,382.8248744562954,11.989855944757029,-15.72786124687665,0.9761602547202746,0,Fixed-Wing
1970-01-01 00:00:09.942106336,1939,1538767927548801159,base_link,0,1,40.5912799,-79.8962839,383.225581186,0.435600034618,0.0,0.0,0.0,0.435600034618,0.0,0.0,0.0,1.74240013847,1,59.285886556398765,65.37695968672958,383.2249701891193,15.124987711283678,-13.08797918869559,1.0011303380606231,0,Fixed-Wing
1970-01-01 00:00:10.338909600,1941,1538767927945401959,base_link,0,1,40.5912411,-79.8962036,383.465679925,0.435600034618,0.0,0.0,0.0,0.435600034618,0.0,0.0,0.0,1.74240013847,1,66.08395192649425,61.068174222103465,383.4650450286612,17.010302594547863,-10.781559249297155,0.600721741204504,0,Fixed-Wing
1970-01-01 00:00:10.721793056,1943,1538767928328176839,base_link,0,1,40.5912137,-79.8961144,383.72578301,0.435600034618,0.0,0.0,0.0,0.435600034618,0.0,0.0,0.0,1.74240013847,1,73.63546911043434,58.02540316234564,383.7250939996958,18.89561005279722,-7.613703845817341,0.6507015519676616,0,Fixed-Wing
1970-01-01 00:00:11.153500960,1945,1538767928760266087,base_link,0,1,40.5911966,-79.8960189,383.875888233,0.435600034618,0.0,0.0,0.0,0.435600034618,0.0,0.0,0.0,1.74240013847,1,81.72032433713807,56.126487352569484,383.87511793700025,20.23014289393491,-4.751518375794848,0.375393943871215,0,Fixed-Wing
1970-01-01 00:00:11.544166176,1947,1538767929151277959,base_link,0,1,40.5911912,-79.8959197,383.875992333,0.435600034618,0.0,0.0,0.0,0.435600034618,0.0,0.0,0.0,1.74240013847,1,90.11840076176611,55.526899483540035,383.8751143362524,21.013893426719893,-1.500304943973759,-9.009888414856157e-06,0,Fixed-Wing
1970-01-01 00:00:11.950246240,1949,1538767929556922951,base_link,0,1,40.5911986,-79.8958189,383.776092685,0.435600034618,0.0,0.0,0.0,0.435600034618,0.0,0.0,0.0,1.74240013847,1,98.65191093226449,56.348796727862265,383.7750813682735,21.352779399911856,2.0565734611860305,-0.25030519156775705,0,Fixed-Wing
1970-01-01 00:00:12.367295904,1951,1538767929974239175,base_link,0,1,40.591218,-79.8957189,383.57618716,0.435600034618,0.0,0.0,0.0,0.435600034618,0.0,0.0,0.0,1.74240013847,1,107.1176717751218,58.503334357636874,383.5750200392122,21.18325520427511,5.3911421909865,-0.5005988556348333,0,Fixed-Wing
1970-01-01 00:00:12.749594336,1953,1538767930352642567,base_link,0,1,40.5912481,-79.8956218,383.27627415,0.435600034618,0.0,0.0,0.0,0.435600034618,0.0,0.0,0.0,1.74240013847,1,115.33789910429161,61.846140659207805,383.2749322757088,20.568874621337496,8.364460123437187,-0.750887698810367,0,Fixed-Wing
1970-01-01 00:00:13.172253120,1955,1538767930779473543,base_link,0,1,40.5912884,-79.89553,382.906351402,0.435600034618,0.0,0.0,0.0,0.435600034618,0.0,0.0,0.0,1.74240013847,1,123.10941167800254,66.32168511939082,382.90481939796024,19.44608845300051,11.198828107473192,-0.9261064290933126,0,Fixed-Wing
1970-01-01 00:00:13.576738016,1957,1538767931182555303,base_link,0,1,40.5913402,-79.8954463,382.616415492,0.435600034618,0.0,0.0,0.0,0.435600034618,0.0,0.0,0.0,1.74240013847,1,130.1951654005473,72.07433206695833,382.61468043090616,17.730164152457565,14.394428410203863,-0.7259935518963793,0,Fixed-Wing
1970-01-01 00:00:13.968847232,1959,1538767931575557959,base_link,0,1,40.5914028,-79.8953733,382.346464048,0.435600034618,0.0,0.0,0.0,0.435600034618,0.0,0.0,0.0,1.74240013847,1,136.3750487636977,79.02633796785088,382.3445174890285,15.463470896974295,17.39549674433382,-0.6760090027066241,0,Fixed-Wing
1970-01-01 00:00:14.370744064,1961,1538767931977519559,base_link,0,1,40.5914753,-79.8953136,381.936494785,0.435600034618,0.0,0.0,0.0,0.435600034618,0.0,0.0,0.0,1.74240013847,1,141.42895014117443,87.07774672988774,381.9343332327394,12.646008391159967,20.1464522475925,-1.0263741136838915,0,Fixed-Wing
1970-01-01 00:00:14.804338208,1963,1538767932411367815,base_link,0,1,40.5915561,-79.8952692,381.466506332,0.435600034618,0.0,0.0,0.0,0.435600034618,0.0,0.0,0.0,1.74240013847,1,145.18756117026516,96.05086898254609,381.4641313268404,9.404897931886204,22.452788613511917,-1.1765518959348547,0,Fixed-Wing
1970-01-01 00:00:15.176686400,1965,1538767932783537383,base_link,0,1,40.5916431,-79.8952429,380.966496704,0.435600034618,0.0,0.0,0.0,0.435600034618,0.0,0.0,0.0,1.74240013847,1,147.41385004020623,105.71248754680823,380.96391752374785,5.570680080123991,24.17556266142402,-1.2516484748740113,0,Fixed-Wing
1970-01-01 00:00:15.570905568,1967,1538767933170268103,base_link,0,1,40.5917326,-79.8952314,380.826470859,0.435600034618,0.0,0.0,0.0,0.435600034618,0.0,0.0,0.0,1.74240013847,1,148.38720851220256,115.65171856313845,380.82369624872956,2.4355638318011397,24.87021202953181,-0.3508654578031728,0,Fixed-Wing
1970-01-01 00:00:16.005566432,1969,1538767933612670311,base_link,0,1,40.5918204,-79.8952252,381.666440324,0.435600034618,0.0,0.0,0.0,0.435600034618,0.0,0.0,0.0,1.74240013847,1,148.91190820559143,125.40217022352974,381.66346880657477,1.3129177302520947,24.397843231454225,2.1013015529951864,0,Fixed-Wing
1970-01-01 00:00:16.353829184,1971,1538767933960177191,base_link,0,1,40.5919052,-79.8952145,382.856415706,0.435600034618,0.0,0.0,0.0,0.435600034618,0.0,0.0,0.0,1.74240013847,1,149.81757824628707,134.8194815895037,382.8532304418577,2.2661920126303396,23.564250597967124,2.9770536659700495,0,Fixed-Wing
1970-01-01 00:00:16.786045568,1973,1538767934392984487,base_link,0,1,40.5919869,-79.8951951,384.076401354,0.47609999671,0.0,0.0,0.0,0.47609999671,0.0,0.0,0.0,1.90439998684,1,151.45976956825487,143.89254886472028,384.0729786489146,4.109135435457058,22.702873745675085,3.052086874960989,0,Fixed-Wing
1970-01-01 00:00:17.206602944,1975,1538767934813828327,base_link,0,1,40.592065,-79.8951661,384.956398398,0.47609999671,0.0,0.0,0.0,0.47609999671,0.0,0.0,0.0,1.90439998684,1,153.91466357622411,152.5658387684139,384.95271495907525,6.142702024725116,21.702540019851703,2.2012999323413784,0,Fixed-Wing
1970-01-01 00:00:17.574716864,1977,1538767935177743271,base_link,0,1,40.5921402,-79.8951297,385.236404281,0.47609999671,0.0,0.0,0.0,0.47609999671,0.0,0.0,0.0,1.90439998684,1,156.99600481111298,160.91707696777834,385.23244012790417,7.710215178731239,20.896693555675665,0.6999358649921379,0,Fixed-Wing
1970-01-01 00:00:17.963897248,1979,1538767935570424423,base_link,0,1,40.5922123,-79.8950847,384.956420314,0.47609999671,0.0,0.0,0.0,0.47609999671,0.0,0.0,0.0,1.90439998684,1,160.8053802943983,168.9240545210617,384.95215386107066,9.531922118899125,20.035275278205976,-0.7013398595587917,0,Fixed-Wing
1970-01-01 00:00:18.340301088,1981,1538767935946861159,base_link,0,1,40.5922808,-79.8950301,384.29644773,0.47609999671,0.0,0.0,0.0,0.47609999671,0.0,0.0,0.0,1.90439998684,1,165.42744959327675,176.53125096518724,384.2918567383945,11.565466512392138,19.03493219997185,-1.6522132765065503,0,Fixed-Wing
1970-01-01 00:00:18.800381408,1983,1538767936407405191,base_link,0,1,40.5923441,-79.8949652,383.406487914,0.47609999671,0.0,0.0,0.0,0.47609999671,0.0,0.0,0.0,1.90439998684,1,170.92147752413047,183.56098788712188,383.4015533570296,13.74730492852068,17.58999740252485,-2.2277411430294083,0,Fixed-Wing
1970-01-01 00:00:19.163018816,1985,1538767936770096807,base_link,0,1,40.5924003,-79.8948883,382.606543403,0.47609999671,0.0,0.0,0.0,0.47609999671,0.0,0.0,0.0,1.90439998684,1,177.4313917528475,189.80227949281286,382.6012482180548,16.289283033692577,15.617128258377393,-2.002545112587219,0,Fixed-Wing
1970-01-01 00:00:19.589361696,1987,1538767937196201383,base_link,0,1,40.592447,-79.8947997,382.046614888,0.435600034618,0.0,0.0,0.0,0.435600034618,0.0,0.0,0.0,1.74240013847,1,184.9318057375922,194.98860646183857,382.0409501358405,18.7677382489033,12.977367279442989,-1.4019929792873929,0,Fixed-Wing
1970-01-01 00:00:19.961617184,1989,1538767937568325095,base_link,0,1,40.5924845,-79.894703,381.746698546,0.435600034618,0.0,0.0,0.0,0.435600034618,0.0,0.0,0.0,1.74240013847,1,193.11795822918202,199.153281158887,381.74066255452107,20.483611643337092,10.420961398265556,-0.7513876883411829,0,Fixed-Wing
1970-01-01 00:00:20.361639104,1991,1538767937968614663,base_link,0,1,40.5925121,-79.8946014,381.576791383,0.435600034618,0.0,0.0,0.0,0.435600034618,0.0,0.0,0.0,1.74240013847,1,201.7189502965046,202.21855811942746,381.57039288354156,21.521634422942867,7.67001871801014,-0.4260533649435691,0,Fixed-Wing
1970-01-01 00:00:20.743231040,1993,1538767938350109703,base_link,0,1,40.5925284,-79.894497,381.676891828,0.396899993992,0.0,0.0,0.0,0.396899993992,0.0,0.0,0.0,1.58759997597,1,210.55701661721378,204.0289647266245,381.67015031547936,22.11484801650763,4.530048260944871,0.2496157378511955,0,Fixed-Wing
1970-01-01 00:00:21.229524640,1995,1538767938836613703,base_link,0,1,40.5925341,-79.8943925,381.866996817,0.396899993992,0.0,0.0,0.0,0.396899993992,0.0,0.0,0.0,1.58759997597,1,219.40358228357962,204.66222635922946,381.8599372279445,22.13611530853922,1.5845643437783528,0.4748899332033958,0,Fixed-Wing
1970-01-01 00:00:21.603416640,1997,1538767939210536039,base_link,0,1,40.5925296,-79.8942897,382.017104335,0.396899993992,0.0,0.0,0.0,0.396899993992,0.0,0.0,0.0,1.58759997597,1,228.10626460216994,204.16275521279567,382.00975593849427,21.77608651347279,-1.249790179344094,0.3748804199481698,0,Fixed-Wing
1970-01-01 00:00:21.944309728,1999,1538767939551527655,base_link,0,1,40.5925142,-79.8941913,382.107211903,0.47609999671,0.0,0.0,0.0,0.47609999671,0.0,0.0,0.0,1.90439998684,1,236.43649713679076,202.45280593031822,382.0996152320058,20.844132614579024,-4.278681232490549,0.2248483488093194,0,Fixed-Wing
1970-01-01 00:00:22.407235296,2001,1538767940014248391,base_link,0,1,40.5924883,-79.8940986,382.167318022,0.47609999671,0.0,0.0,0.0,0.47609999671,0.0,0.0,0.0,1.90439998684,1,244.28422993440404,199.57679568967245,382.15951690370775,19.63680875382409,-7.196430424692399,0.1498875792003301,0,Fixed-Wing
1970-01-01 00:00:22.771071680,2003,1538767940378036135,base_link,0,1,40.5924521,-79.8940143,382.207419835,0.47609999671,0.0,0.0,0.0,0.47609999671,0.0,0.0,0.0,1.90439998684,1,251.42089349739172,195.55692612387597,382.19946661601426,17.857552128863883,-10.058626091712833,0.09996324805704301,0,Fixed-Wing
1970-01-01 00:00:23.195982752,2005,1538767940802759591,base_link,0,1,40.5924054,-79.893942,382.477513728,0.47609999671,0.0,0.0,0.0,0.47609999671,0.0,0.0,0.0,1.90439998684,1,257.54173765145384,190.37098163173232,382.4694739259182,15.315741394996863,-12.976410235468686,0.6756195761825957,0,Fixed-Wing
1970-01-01 00:00:23.595899424,2007,1538767941202781831,base_link,0,1,40.5923506,-79.8938823,382.867598082,0.518400041199,0.0,0.0,0.0,0.518400041199,0.0,0.0,0.0,2.07360016479,1,262.59595587619793,184.28548058571488,382.85953166254103,12.646801214941524,-15.227304916419216,0.9760129931210036,0,Fixed-Wing
1970-01-01 00:00:23.972601440,2009,1538767941579712871,base_link,0,1,40.5922905,-79.893836,383.157670901,0.624100033903,0.0,0.0,0.0,0.624100033903,0.0,0.0,0.0,2.49640013561,1,266.515801926442,177.61135940121656,383.14963193316777,9.808344552261701,-16.70016610908288,0.7258967246517843,0,Fixed-Wing
1970-01-01 00:00:24.357952352,2011,1538767941964205319,base_link,0,1,40.5922269,-79.8938045,383.25772999,0.624100033903,0.0,0.0,0.0,0.624100033903,0.0,0.0,0.0,2.49640013561,1,269.1827430197728,170.54850475655616,383.24977242168416,6.673291963174133,-17.672865461912114,0.25057423235776816,0,Fixed-Wing
1970-01-01 00:00:24.779615552,2013,1538767942386663783,base_link,0,1,40.5921618,-79.8937895,383.357772757,0.624100033903,0.0,0.0,0.0,0.624100033903,0.0,0.0,0.0,2.49640013561,1,270.45285925921974,163.31902102798665,383.349951207961,3.1781191246383367,-18.089809251657737,0.2506700620473281,0,Fixed-Wing
1970-01-01 00:00:25.164940640,2015,1538767942772076231,base_link,0,1,40.5920972,-79.893793,383.8477963,0.624100033903,0.0,0.0,0.0,0.624100033903,0.0,0.0,0.0,2.49640013561,1,270.1568414136149,156.1450163817206,383.84016737249505,-0.7407038404300036,-17.950987994980636,1.2266321139165033,0,Fixed-Wing
1970-01-01 00:00:25.561325600,2017,1538767943168198727,base_link,0,1,40.5920358,-79.8938119,384.747802668,0.624100033903,0.0,0.0,0.0,0.624100033903,0.0,0.0,0.0,2.49640013561,1,268.55711101767184,149.32634202776904,384.7404048781045,-4.002888560676712,-17.061870950024435,2.252598576757019,0,Fixed-Wing
1970-01-01 00:00:25.968845792,2019,1538767943574932391,base_link,0,1,40.5919787,-79.8938427,385.487794998,0.624100033903,0.0,0.0,0.0,0.624100033903,0.0,0.0,0.0,2.49640013561,1,265.949935272082,142.98515342765756,385.4806519502636,-6.523745497467423,-15.867093213238482,1.8522661973133414,0,Fixed-Wing
1970-01-01 00:00:26.365313952,2021,1538767943972246759,base_link,0,1,40.591927,-79.893884,386.137774261,0.624100033903,0.0,0.0,0.0,0.624100033903,0.0,0.0,0.0,2.49640013561,1,262.4538304152491,137.2436159925943,386.13090225288045,-8.748047904717343,-14.366629888258712,1.6270738522705848,0,Fixed-Wing
1970-01-01 00:00:26.755040672,2023,1538767944361835911,base_link,0,1,40.5918812,-79.8939338,386.597742304,0.624100033903,0.0,0.0,0.0,0.624100033903,0.0,0.0,0.0,2.49640013561,1,258.23810341074864,132.15726156110554,386.5911497980828,-10.548705859466123,-12.72721329855761,1.1516438260110955,0,Fixed-Wing
1970-01-01 00:00:27.178690432,2025,1538767944785714791,base_link,0,1,40.5918404,-79.893989,386.927702692,0.50409996953,0.0,0.0,0.0,0.50409996953,0.0,0.0,0.0,2.01639987812,1,253.56519716246413,127.6261545583587,386.92138989241045,-11.692672098879266,-11.337858200665682,0.8263356745694196,0,Fixed-Wing
1970-01-01 00:00:27.574495904,2027,1538767945178149159,base_link,0,1,40.5918033,-79.8940472,387.097658441,0.50409996953,0.0,0.0,0.0,0.50409996953,0.0,0.0,0.0,2.01639987812,1,248.63829309860495,123.5059337709238,387.09162063259726,-12.328232286382839,-10.309727626174553,0.42595595126364894,0,Fixed-Wing
1970-01-01 00:00:28.005589760,2029,1538767945612557799,base_link,0,1,40.5917683,-79.894106,387.127612696,0.50409996953,0.0,0.0,0.0,0.50409996953,0.0,0.0,0.0,2.01639987812,1,243.66057599369935,119.61892260117784,387.121840968018,-12.455378048727352,-9.726184228328114,0.07561813869524432,0,Fixed-Wing
1970-01-01 00:00:28.333017984,2031,1538767945940195143,base_link,0,1,40.5917338,-79.894164,387.22756757,0.50409996953,0.0,0.0,0.0,0.50409996953,0.0,0.0,0.0,2.01639987812,1,238.7505803449836,115.7874445760979,387.2220521268186,-12.285923593787846,-9.587227695348725,0.2507510654497971,0,Fixed-Wing
1970-01-01 00:00:28.720871168,2033,1538767946328117799,base_link,0,1,40.5916987,-79.8942196,387.207525173,0.50409996953,0.0,0.0,0.0,0.50409996953,0.0,0.0,0.0,2.01639987812,1,234.04375487363274,111.88934228299712,387.2022536660089,-11.77754569404487,-9.75393673644738,-0.04954024284033222,0,Fixed-Wing
1970-01-01 00:00:29.156823488,2035,1538767946762683719,base_link,0,1,40.5916623,-79.894272,386.797486624,0.50409996953,0.0,0.0,0.0,0.50409996953,0.0,0.0,0.0,2.01639987812,1,229.6078186480427,107.84687612286439,386.7924459115216,-11.099719314164709,-10.115167899762621,-1.0254320207166967,0,Fixed-Wing
1970-01-01 00:00:29.532140736,2037,1538767947139319335,base_link,0,1,40.5916244,-79.8943214,386.067451801,0.50409996953,0.0,0.0,0.0,0.50409996953,0.0,0.0,0.0,2.01639987812,1,225.4258442673592,103.63783646204627,386.0626299935691,-10.464249133437507,-10.531972607666125,-1.8261650818041093,0,Fixed-Wing
1970-01-01 00:00:29.940413024,2039,1538767947547215495,base_link,0,1,40.5915846,-79.8943673,385.217421388,0.50409996953,0.0,0.0,0.0,0.50409996953,0.0,0.0,0.0,2.01639987812,1,221.540169418354,99.21780684890527,385.2128059866094,-9.722840450513953,-11.059917359302272,-2.1264525601777913,0,Fixed-Wing
1970-01-01 00:00:30.312132480,2041,1538767947919388487,base_link,0,1,40.5915426,-79.89441,384.237395202,0.50409996953,0.0,0.0,0.0,0.50409996953,0.0,0.0,0.0,2.01639987812,1,217.92539777582573,94.55347044999309,384.2329751698959,-9.044979137753272,-11.671228390548047,-2.4517591073893312,0,Fixed-Wing
1970-01-01 00:00:30.743775584,2043,1538767948350838855,base_link,0,1,40.5914993,-79.894451,383.457371323,0.50409996953,0.0,0.0,0.0,0.50409996953,0.0,0.0,0.0,2.01639987812,1,214.45455144389643,89.74477571166537,383.4531384055466,-8.684845342177775,-12.032445722512326,-1.9513285933212656,0,Fixed-Wing
1970-01-01 00:00:31.148774560,2045,1538767948755800455,base_link,0,1,40.591456,-79.8944926,382.857346835,0.50409996953,0.0,0.0,0.0,0.50409996953,0.0,0.0,0.0,2.01639987812,1,210.93291285945224,84.93608476854095,382.85329718807725,-8.811939086897814,-12.032436226052232,-1.5009388792759588,0,Fixed-Wing
1970-01-01 00:00:31.539804000,2047,1538767949146993031,base_link,0,1,40.5914139,-79.894537,382.397318967,0.50409996953,0.0,0.0,0.0,0.50409996953,0.0,0.0,0.0,2.01639987812,1,207.17422977826834,80.26065483709513,382.39345302755584,-9.405078222577853,-11.698986926979561,-1.1506344659782541,0,Fixed-Wing
1970-01-01 00:00:31.956073088,2049,1538767949563333959,base_link,0,1,40.5913744,-79.8945858,382.117285481,0.50409996953,0.0,0.0,0.0,0.50409996953,0.0,0.0,0.0,2.01639987812,1,203.0430464630466,75.87395647972909,382.11360601750755,-10.337158358993838,-10.976514991757773,-0.700240739378762,0,Fixed-Wing
1970-01-01 00:00:32.337847008,2051,1538767949944545991,base_link,0,1,40.5913387,-79.8946402,382.097244636,0.50409996953,0.0,0.0,0.0,0.50409996953,0.0,0.0,0.0,2.01639987812,1,198.43777206939302,71.90925132299557,382.0937559430804,-11.523441847378136,-9.920592218908617,-0.04966939182661104,0,Fixed-Wing
1970-01-01 00:00:32.743518624,2053,1538767950350660871,base_link,0,1,40.5913082,-79.8947011,382.177194911,0.50409996953,0.0,0.0,0.0,0.50409996953,0.0,0.0,0.0,2.01639987812,1,193.28220517679816,68.52200981239349,382.17390168043767,-12.9003985862289,-8.475647102426363,0.20054282650876845,0,Fixed-Wing
1970-01-01 00:00:33.159401440,2055,1538767950766568039,base_link,0,1,40.5912823,-79.8947661,382.18713903,0.50409996953,0.0,0.0,0.0,0.50409996953,0.0,0.0,0.0,2.01639987812,1,187.77952143584662,65.64560469086427,382.18404026045334,-13.768963730098637,-7.197418506293644,0.02536902847453656,0,Fixed-Wing
1970-01-01 00:00:33.566246944,2057,1538767951172909479,base_link,0,1,40.5912621,-79.8948356,382.297076115,0.50409996953,0.0,0.0,0.0,0.50409996953,0.0,0.0,0.0,2.01639987812,1,181.89586047230796,63.40219563831491,382.2941703519121,-14.722255215988879,-5.6135186629834735,0.2755704863797701,0,Fixed-Wing
1970-01-01 00:00:33.960681056,2059,1538767951567466055,base_link,0,1,40.5912486,-79.8949092,382.527006155,0.50409996953,0.0,0.0,0.0,0.50409996953,0.0,0.0,0.0,2.01639987812,1,175.66508423059892,61.902837161894894,382.52428954577215,-15.59081643089609,-3.751735235409549,0.5758104559559213,0,Fixed-Wing
1970-01-01 00:00:34.341578528,2061,1538767951948818951,base_link,0,1,40.5912414,-79.8949855,382.706930761,0.50409996953,0.0,0.0,0.0,0.50409996953,0.0,0.0,0.0,2.01639987812,1,169.20571151936346,61.103110099103276,382.7043962572875,-16.162816684938246,-2.0010986347639848,0.4506678731955192,0,Fixed-Wing
1970-01-01 00:00:34.770905248,2063,1538767952378099239,base_link,0,1,40.5912397,-79.8950633,382.726851506,0.50409996953,0.0,0.0,0.0,0.50409996953,0.0,0.0,0.0,2.01639987812,1,162.6193328205081,60.91417412613805,382.7244898900675,-16.480614494038083,-0.47276068942665367,0.05027883010880595,0,Fixed-Wing
1970-01-01 00:00:35.164111264,2065,1538767952771253159,base_link,0,1,40.5912456,-79.8951422,382.636767916,0.50409996953,0.0,0.0,0.0,0.50409996953,0.0,0.0,0.0,2.01639987812,1,155.93980972894957,61.569241442834624,382.6345665559455,-16.71368290668329,1.639127114873672,-0.22500859295267026,0,Fixed-Wing
1970-01-01 00:00:35.540903712,2067,1538767953148127623,base_link,0,1,40.5912602,-79.8952213,382.636680452,0.50409996953,0.0,0.0,0.0,0.50409996953,0.0,0.0,0.0,2.01639987812,1,149.2433391860278,63.19047370739145,382.63462316672985,-16.756089276760715,4.056691116485731,0.00014165303201586716,0,Fixed-Wing
1970-01-01 00:00:35.969891936,2069,1538767953576983815,base_link,0,1,40.5912825,-79.8953,382.526590158,0.50409996953,0.0,0.0,0.0,0.50409996953,0.0,0.0,0.0,2.01639987812,1,142.5807158821909,65.66681724977323,382.5246599930123,-16.671395801855926,6.19637362848381,-0.2751528203040059,0,Fixed-Wing
1970-01-01 00:00:36.365842624,2071,1538767953972475655,base_link,0,1,40.5913142,-79.8953766,382.426498068,0.50409996953,0.0,0.0,0.0,0.50409996953,0.0,0.0,0.0,2.01639987812,1,136.09585976905618,69.18706531850319,382.42467205909463,-16.226581940764092,8.808459700958743,-0.2501925061245657,0,Fixed-Wing
1970-01-01 00:00:36.743487104,2073,1538767954350434279,base_link,0,1,40.5913582,-79.8954482,382.596405941,0.50409996953,0.0,0.0,0.0,0.50409996953,0.0,0.0,0.0,2.01639987812,1,130.03428038620484,74.07327754593487,382.5946511995761,-15.167447485390333,12.226412075326252,0.4253263916922892,0,Fixed-Wing
1970-01-01 00:00:37.125430496,2075,1538767954732528647,base_link,0,1,40.5914121,-79.8955131,382.906316544,0.50409996953,0.0,0.0,0.0,0.50409996953,0.0,0.0,0.0,2.01639987812,1,124.53989945405104,80.05892793641661,382.90459879355205,-13.748188217898436,14.977455911965993,0.7755592326569363,0,Fixed-Wing
1970-01-01 00:00:37.565011840,2077,1538767955171957351,base_link,0,1,40.5914752,-79.8955668,383.336234799,0.50409996953,0.0,0.0,0.0,0.50409996953,0.0,0.0,0.0,2.01639987812,1,119.99367781901185,87.06628477505393,383.33451204119535,-11.375678441410827,17.533997354238576,1.0757405281783257,0,Fixed-Wing
1970-01-01 00:00:37.979738496,2079,1538767955586875367,base_link,0,1,40.5915468,-79.8956046,384.03616583,0.50409996953,0.0,0.0,0.0,0.50409996953,0.0,0.0,0.0,2.01639987812,1,116.79350888140155,95.01761852245863,384.03438861772486,-8.007549062691545,19.896041845754482,1.7512500538717077,0,Fixed-Wing
1970-01-01 00:00:38.387261504,2081,1538767955994473671,base_link,0,1,40.5916237,-79.8956237,384.906113862,0.50409996953,0.0,0.0,0.0,0.50409996953,0.0,0.0,0.0,2.01639987812,1,115.17643407184713,103.55756205823255,384.90423275435285,-4.046288220402218,21.368877140089467,2.176547468817221,0,Fixed-Wing
1970-01-01 00:00:38.717956384,2083,1538767956324365575,base_link,0,1,40.5917018,-79.8956218,386.006082978,0.547600014114,0.0,0.0,0.0,0.547600014114,0.0,0.0,0.0,2.19040005646,1,115.33716886126729,112.23080305371411,386.00405189895906,0.40219492703546394,21.70241764040387,2.7519971389692204,0,Fixed-Wing
1970-01-01 00:00:39.154237184,2085,1538767956759918343,base_link,0,1,40.5917783,-79.8956059,386.946067164,0.47609999671,0.0,0.0,0.0,0.47609999671,0.0,0.0,0.0,1.90439998684,1,116.68310486546483,120.72637813805417,386.94385611950247,3.3678373857671833,21.2578572037615,2.3516034784543445,0,Fixed-Wing
1970-01-01 00:00:39.533786048,2087,1538767957140941831,base_link,0,1,40.5918528,-79.895579,387.506063505,0.47609999671,0.0,0.0,0.0,0.47609999671,0.0,0.0,0.0,1.90439998684,1,118.96026362932281,128.99985759153046,387.503648101934,5.697968101255075,20.70212352362674,1.4007266027552874,0,Fixed-Wing
1970-01-01 00:00:39.966201216,2089,1538767957573002471,base_link,0,1,40.5919222,-79.8955381,387.836076376,0.47609999671,0.0,0.0,0.0,0.47609999671,0.0,0.0,0.0,1.90439998684,1,122.42262188276177,136.70698444339683,387.8334346308473,8.663606243153817,19.284980762544606,0.8252007509516041,0,Fixed-Wing
1970-01-01 00:00:40.405619776,2091,1538767958012348967,base_link,0,1,40.5919842,-79.8954832,388.366106736,0.435600034618,0.0,0.0,0.0,0.435600034618,0.0,0.0,0.0,1.74240013847,1,127.07018945405608,143.5923476630557,388.3632225673631,11.629268977625845,17.228741629197163,1.3256496694953215,0,Fixed-Wing
1970-01-01 00:00:40.792775968,2093,1538767958399874599,base_link,0,1,40.5920387,-79.8954177,388.756151132,0.435600034618,0.0,0.0,0.0,0.435600034618,0.0,0.0,0.0,1.74240013847,1,132.6151247975641,149.64483148187168,388.7530147842335,13.874686830048818,15.144688319644413,0.9753486024322463,0,Fixed-Wing
1970-01-01 00:00:41.128575360,2095,1538767958734959143,base_link,0,1,40.5920864,-79.8953446,388.83620619,0.47609999671,0.0,0.0,0.0,0.47609999671,0.0,0.0,0.0,1.90439998684,1,138.8034515355529,154.94216542507945,388.8328115753534,15.484598137314215,13.255131925433073,0.19966968381825112,0,Fixed-Wing
1970-01-01 00:00:41.539083200,2097,1538767959145687527,base_link,0,1,40.5921262,-79.8952651,388.556271136,0.47609999671,0.0,0.0,0.0,0.47609999671,0.0,0.0,0.0,1.90439998684,1,145.53358233438107,159.36218894317327,388.5526175602727,16.840314877311197,11.059902108110753,-0.701109024733681,0,Fixed-Wing
1970-01-01 00:00:41.941943040,2099,1538767959548884295,base_link,0,1,40.5921572,-79.89518,388.186345524,0.47609999671,0.0,0.0,0.0,0.47609999671,0.0,0.0,0.0,1.90439998684,1,152.73780046439538,162.80496084649428,388.1824365882162,18.0265889892362,8.614596749409516,-0.9262768165079835,0,Fixed-Wing
1970-01-01 00:00:42.342806464,2101,1538767959949367815,base_link,0,1,40.5921782,-79.8950906,387.836428522,0.47609999671,0.0,0.0,0.0,0.47609999671,0.0,0.0,0.0,1.90439998684,1,160.3060595437382,165.13721964613754,387.83227403181064,18.93750207520399,5.835840897506921,-0.8761861967289998,0,Fixed-Wing
1970-01-01 00:00:42.760904096,2103,1538767960367879879,base_link,0,1,40.5921887,-79.8949988,387.586518391,0.47609999671,0.0,0.0,0.0,0.47609999671,0.0,0.0,0.0,1.90439998684,1,168.07751815471997,166.30343870930932,387.58213376049355,19.445953426003562,2.91814480680751,-0.6259077361779315,0,Fixed-Wing
1970-01-01 00:00:43.153411744,2105,1538767960759971271,base_link,0,1,40.5921893,-79.8949077,387.306611697,0.547600014114,0.0,0.0,0.0,0.547600014114,0.0,0.0,0.0,2.19040005646,1,175.7897391085854,166.3702409398669,387.30201773253066,19.29772736201576,0.16715434375990784,-0.70091388326333,0,Fixed-Wing
1970-01-01 00:00:43.593551680,2107,1538767961200475943,base_link,0,1,40.5921806,-79.8948195,386.646705932,0.435600034618,0.0,0.0,0.0,0.435600034618,0.0,0.0,0.0,1.74240013847,1,183.25646917776018,165.40424429350676,386.6419272977393,18.683453446504355,-2.417142873057369,-1.6516960965042813,0,Fixed-Wing
1970-01-01 00:00:43.971276448,2109,1538767961578473031,base_link,0,1,40.592161,-79.8947359,385.866800023,0.435600034618,0.0,0.0,0.0,0.435600034618,0.0,0.0,0.0,1.74240013847,1,190.33380590418705,163.22776710370186,385.8618706279941,17.70910291766388,-5.446039950067808,-1.9518788465363992,0,Fixed-Wing
1970-01-01 00:00:44.366066336,2111,1538767961972470375,base_link,0,1,40.5921298,-79.8946617,384.906889336,0.47609999671,0.0,0.0,0.0,0.47609999671,0.0,0.0,0.0,1.90439998684,1,196.61539974125233,159.7630596815739,384.9018576143921,15.717973589157568,-8.66948439643272,-2.4021704657195113,0,Fixed-Wing
1970-01-01 00:00:44.775463296,2113,1538767962382451495,base_link,0,1,40.5920883,-79.8945985,384.246971683,0.448900022364,0.0,0.0,0.0,0.448900022364,0.0,0.0,0.0,1.79560008945,1,201.965812997194,155.15449749416987,384.2418870749123,13.387948413942595,-11.531668653611796,-1.651396091220653,0,Fixed-Wing
1970-01-01 00:00:45.198717824,2115,1538767962805414695,base_link,0,1,40.5920393,-79.8945479,384.027044249,0.396899993992,0.0,0.0,0.0,0.396899993992,0.0,0.0,0.0,1.58759997597,1,206.24959233521423,149.71302545933347,384.02195311885,10.718988244588244,-13.615798147442245,-0.5503246791202528,0,Fixed-Wing
1970-01-01 00:00:45.587457568,2117,1538767963191899527,base_link,0,1,40.5919865,-79.8945106,384.177104762,0.435600034618,0.0,0.0,0.0,0.435600034618,0.0,0.0,0.0,1.74240013847,1,209.40746413649848,143.8495325911407,384.17204614826005,7.901712026914565,-14.67179006363855,0.37556682800210345,0,Fixed-Wing
1970-01-01 00:00:45.963584512,2119,1538767963570568359,base_link,0,1,40.591932,-79.894485,384.687153982,0.47609999671,0.0,0.0,0.0,0.47609999671,0.0,0.0,0.0,1.90439998684,1,211.57487106290765,137.79723080510595,384.682157895964,5.423344092265044,-15.14423283230762,1.276415378947126,0,Fixed-Wing
1970-01-01 00:00:46.340926368,2121,1538767963947874279,base_link,0,1,40.5918776,-79.8944679,385.237194439,0.435600034618,0.0,0.0,0.0,0.435600034618,0.0,0.0,0.0,1.74240013847,1,213.02269740119723,131.75601424152748,385.2322781966575,3.6227901289387243,-15.116495089575906,1.376525859748909,0,Fixed-Wing
1970-01-01 00:00:46.809103360,2123,1538767964416170087,base_link,0,1,40.5918237,-79.8944567,385.517228637,0.435600034618,0.0,0.0,0.0,0.435600034618,0.0,0.0,0.0,1.74240013847,1,213.9710382733159,125.77030366347441,385.5124018286355,2.3729641183620362,-14.97760651493097,0.700932910235181,0,Fixed-Wing
1970-01-01 00:00:47.140293920,2125,1538767964746585191,base_link,0,1,40.591771,-79.8944506,385.507257101,0.396899993992,0.0,0.0,0.0,0.396899993992,0.0,0.0,0.0,1.58759997597,1,214.48761516264332,119.91783814401725,385.5025259579461,1.2925926307599027,-14.644197134092229,-0.024711670109966125,0,Fixed-Wing
1970-01-01 00:00:47.562557216,2127,1538767965169377799,base_link,0,1,40.5917189,-79.8944489,385.437280802,0.396899993992,0.0,0.0,0.0,0.396899993992,0.0,0.0,0.0,1.58759997597,1,214.63169672391888,114.13199257514151,385.4326512315863,0.3605247702343979,-14.477498896206981,-0.17484242565829888,0,Fixed-Wing
1970-01-01 00:00:47.981322144,2129,1538767965587893927,base_link,0,1,40.5916677,-79.8944513,385.117299921,0.396899993992,0.0,0.0,0.0,0.396899993992,0.0,0.0,0.0,1.58759997597,1,214.42867197119477,108.44608041042795,385.1127766172903,-0.508014014282973,-14.22744283590785,-0.800398890752764,0,Fixed-Wing
1970-01-01 00:00:48.357064160,2131,1538767965963782663,base_link,0,1,40.5916173,-79.8944593,384.627312956,0.396899993992,0.0,0.0,0.0,0.396899993992,0.0,0.0,0.0,1.58759997597,1,213.75155704002728,102.8489947065923,384.6229052805588,-1.6942952506918525,-14.005178868782366,-1.225769276484778,0,Fixed-Wing
1970-01-01 00:00:48.762819520,2133,1538767966369600263,base_link,0,1,40.5915676,-79.8944736,384.067319227,0.435600034618,0.0,0.0,0.0,0.435600034618,0.0,0.0,0.0,1.74240013847,1,212.541094451425,97.32963058952726,384.06303876332584,-3.0288521499191003,-13.810701817279975,-1.40091310574659,0,Fixed-Wing
1970-01-01 00:00:49.179619744,2135,1538767966786751239,base_link,0,1,40.5915192,-79.8944947,383.457317966,0.435600034618,0.0,0.0,0.0,0.435600034618,0.0,0.0,0.0,1.74240013847,1,210.75495324256823,91.95461919602943,383.4531766340732,-4.469330726488515,-13.449498537442896,-1.5260134751244436,0,Fixed-Wing
1970-01-01 00:00:49.578329600,2137,1538767967184946471,base_link,0,1,40.591473,-79.8945236,382.787307763,0.396899993992,0.0,0.0,0.0,0.396899993992,0.0,0.0,0.0,1.58759997597,1,208.3084717674273,86.82390595129408,382.7833187606999,-6.121651958095025,-12.838209117953346,-1.676136444869191,0,Fixed-Wing
1970-01-01 00:00:49.970675104,2139,1538767967577843527,base_link,0,1,40.5914297,-79.8945611,382.387287498,0.396899993992,0.0,0.0,0.0,0.396899993992,0.0,0.0,0.0,1.58759997597,1,205.13393152694186,82.01523083630093,382.38346503297265,-7.94342024523186,-12.032396620475097,-1.0005247863779954,0,Fixed-Wing
1970-01-01 00:00:50.361382208,2141,1538767967966242855,base_link,0,1,40.5913903,-79.8946061,382.177257877,0.396899993992,0.0,0.0,0.0,0.396899993992,0.0,0.0,0.0,1.58759997597,1,201.32444919891046,77.63964833166875,382.1736115113272,-9.532189468705667,-10.948700605118999,-0.5251011441319541,0,Fixed-Wing
1970-01-01 00:00:50.776726944,2143,1538767968383504647,base_link,0,1,40.5913556,-79.8946579,382.177219281,0.396899993992,0.0,0.0,0.0,0.396899993992,0.0,0.0,0.0,1.58759997597,1,196.93928273441347,73.78600291272193,382.1737554781589,-10.972681848087273,-9.642695546403363,0.0003602376908671301,0,Fixed-Wing
1970-01-01 00:00:51.211336512,2145,1538767968817925703,base_link,0,1,40.5913256,-79.8947153,382.357172944,0.435600034618,0.0,0.0,0.0,0.435600034618,0.0,0.0,0.0,1.74240013847,1,192.08002015353713,70.45429749027107,382.35389487448003,-12.15897794255971,-8.33668320417885,0.45074965799842853,0,Fixed-Wing
1970-01-01 00:00:51.579862176,2147,1538767969186810343,base_link,0,1,40.5913009,-79.8947772,382.597119743,0.435600034618,0.0,0.0,0.0,0.435600034618,0.0,0.0,0.0,1.74240013847,1,186.83977980189664,67.71116541779674,382.5940268868387,-13.112270800113338,-6.863939086973253,0.6008648005692208,0,Fixed-Wing
1970-01-01 00:00:51.973080096,2149,1538767969571235975,base_link,0,1,40.5912814,-79.8948427,382.867060645,0.435600034618,0.0,0.0,0.0,0.435600034618,0.0,0.0,0.0,1.74240013847,1,181.2947537786104,65.54550375327841,382.864150252614,-13.874913731436544,-5.418977050871088,0.6759099743154033,0,Fixed-Wing
1970-01-01 00:00:52.358937504,2151,1538767969963935687,base_link,0,1,40.5912674,-79.894911,383.046996347,0.435600034618,0.0,0.0,0.0,0.435600034618,0.0,0.0,0.0,1.74240013847,1,175.5126651951769,63.99062941455267,383.04426327418867,-14.468098065862382,-3.890648524000708,0.45068366239613544,0,Fixed-Wing
1970-01-01 00:00:52.769257632,2153,1538767970374491303,base_link,0,1,40.591259,-79.8949814,383.136927527,0.435600034618,0.0,0.0,0.0,0.435600034618,0.0,0.0,0.0,1.74240013847,1,169.55277580104348,63.057649681003284,383.1343647505827,-14.912996051819686,-2.334527062959504,0.22545434535239142,0,Fixed-Wing
1970-01-01 00:00:53.189993664,2155,1538767970797001543,base_link,0,1,40.5912564,-79.8950533,383.136854719,0.435600034618,0.0,0.0,0.0,0.435600034618,0.0,0.0,0.0,1.74240013847,1,163.46588150424228,62.76877669819018,383.1344534695473,-15.230791146123062,-0.7228257719698116,0.0002219949870511008,0,Fixed-Wing
1970-01-01 00:00:53.593980352,2157,1538767971201139303,base_link,0,1,40.5912594,-79.8951263,382.956778419,0.435600034618,0.0,0.0,0.0,0.435600034618,0.0,0.0,0.0,1.74240013847,1,157.2858455212665,63.10180007154756,382.9545290402972,-15.46385278641933,0.8333000704561504,-0.4502117615930503,0,Fixed-Wing
1970-01-01 00:00:53.979026464,2159,1538767971585119719,base_link,0,1,40.5912689,-79.8952,382.656698661,0.435600034618,0.0,0.0,0.0,0.435600034618,0.0,0.0,0.0,1.74240013847,1,151.04653247428683,64.15666866595137,382.6545893220931,-15.612177455384478,2.639520659396398,-0.7505172558679389,0,Fixed-Wing
1970-01-01 00:00:54.338979328,2161,1538767971945217767,base_link,0,1,40.5912851,-79.8952737,382.346616081,0.435600034618,0.0,0.0,0.0,0.435600034618,0.0,0.0,0.0,1.74240013847,1,144.80720710050772,65.95559530122728,382.3446328426263,-15.612208299834627,4.501322765451013,-0.7755814661718712,0,Fixed-Wing
1970-01-01 00:00:54.728624544,2163,1538767972335395239,base_link,0,1,40.5913094,-79.8953464,382.15653112,0.435600034618,0.0,0.0,0.0,0.435600034618,0.0,0.0,0.0,1.74240013847,1,138.65252901718605,68.65405659976844,382.1546558987793,-15.400401565697646,6.752162671130209,-0.47536543485452115,0,Fixed-Wing
1970-01-01 00:00:55.150880704,2165,1538767972757191847,base_link,0,1,40.5913437,-79.8954155,382.25644565,0.435600034618,0.0,0.0,0.0,0.435600034618,0.0,0.0,0.0,1.74240013847,1,132.8026099264916,72.46305839583192,382.2546524951885,-14.637825391334394,9.530987068649807,0.25021418164465986,0,Fixed-Wing
1970-01-01 00:00:55.577581472,2167,1538767973184289927,base_link,0,1,40.591387,-79.8954788,382.596362358,0.435600034618,0.0,0.0,0.0,0.435600034618,0.0,0.0,0.0,1.74240013847,1,127.44369902901589,77.27155044038804,382.5946217916341,-13.409211441872577,12.031938536687948,0.8506803466224641,0,Fixed-Wing
1970-01-01 00:00:55.982239232,2169,1538767973583694247,base_link,0,1,40.5914385,-79.8955342,383.136283743,0.435600034618,0.0,0.0,0.0,0.435600034618,0.0,0.0,0.0,1.74240013847,1,122.7535787454137,82.99069264068163,383.1345630069963,-11.735745522520503,14.310591927549492,1.3510554777807378,0,Fixed-Wing
1970-01-01 00:00:56.383010112,2171,1538767973984427335,base_link,0,1,40.5914974,-79.8955799,383.686211994,0.435600034618,0.0,0.0,0.0,0.435600034618,0.0,0.0,0.0,1.74240013847,1,118.88463049753025,89.5316421075546,383.6844757620297,-9.680986697869734,16.366940243999593,1.3760065333982339,0,Fixed-Wing
1970-01-01 00:00:56.804079872,2173,1538767974411093415,base_link,0,1,40.5915636,-79.8956129,384.206150237,0.435600034618,0.0,0.0,0.0,0.435600034618,0.0,0.0,0.0,1.74240013847,1,116.0908255352888,96.88329590206172,384.20435769954736,-6.990734159005146,18.395506487041253,1.300862611518383,0,Fixed-Wing
1970-01-01 00:00:57.133889120,2175,1538767974740952583,base_link,0,1,40.5916351,-79.8956322,384.756100343,0.435600034618,0.0,0.0,0.0,0.435600034618,0.0,0.0,0.0,1.74240013847,1,114.45682378824091,104.82354974842849,384.7542114386598,-4.088643260121232,19.868317418419323,1.375858862168455,0,Fixed-Wing
1970-01-01 00:00:57.521524480,2177,1538767975128622951,base_link,0,1,40.5917089,-79.8956384,385.136062956,0.435600034618,0.0,0.0,0.0,0.435600034618,0.0,0.0,0.0,1.74240013847,1,113.93182934123904,113.01924059550194,385.13404314208015,-1.3136552706956022,20.5074787737923,0.9504251369227024,0,Fixed-Wing
1970-01-01 00:00:57.961725856,2179,1538767975568810471,base_link,0,1,40.5917833,-79.8956262,385.66604423,0.435600034618,0.0,0.0,0.0,0.435600034618,0.0,0.0,0.0,1.74240013847,1,114.96453083785349,121.28159093565412,385.6638537886086,2.5840535491949095,20.674275955981276,1.3257064951017916,0,Fixed-Wing
1970-01-01 00:00:58.371777280,2181,1538767975978646759,base_link,0,1,40.5918551,-79.8955962,386.196044888,0.435600034618,0.0,0.0,0.0,0.435600034618,0.0,0.0,0.0,1.74240013847,1,117.5041320788128,129.25522930418379,386.19365125270264,6.3546587486846144,19.951853070556954,1.3256735096586738,0,Fixed-Wing
1970-01-01 00:00:58.740703200,2183,1538767976347735111,base_link,0,1,40.591923,-79.8955518,386.586061981,0.435600034618,0.0,0.0,0.0,0.435600034618,0.0,0.0,0.0,1.74240013847,1,121.26279453517778,136.7957808515535,386.58344045006885,9.405026614599427,18.868171541095865,0.9753410469473147,0,Fixed-Wing
1970-01-01 00:00:59.149153184,2185,1538767976755909415,base_link,0,1,40.5919841,-79.8954937,386.846096002,0.435600034618,0.0,0.0,0.0,0.435600034618,0.0,0.0,0.0,1.74240013847,1,126.18126088845545,143.58119298472243,386.84322970564796,12.307119219299375,16.978641323700426,0.6500516849473724,0,Fixed-Wing
1970-01-01 00:00:59.540974208,2187,1538767977147766087,base_link,0,1,40.5920351,-79.8954216,387.236148637,0.435600034618,0.0,0.0,0.0,0.435600034618,0.0,0.0,0.0,1.74240013847,1,132.28493827622106,149.24499982567565,387.23302852447796,15.272786249175768,14.172130298348565,0.9753651220336147,0,Fixed-Wing
1970-01-01 00:00:59.963672576,2189,1538767977570218887,base_link,0,1,40.5920755,-79.8953399,387.576215578,0.435600034618,0.0,0.0,0.0,0.435600034618,0.0,0.0,0.0,1.74240013847,1,139.2013341058971,153.7316666852281,387.5728416663535,17.306392263304463,11.226658875280142,0.850289612443921,0,Fixed-Wing
1970-01-01 00:01:00.318835616,2191,1538767977925870279,base_link,0,1,40.5921064,-79.8952529,387.756291947,0.435600034618,0.0,0.0,0.0,0.435600034618,0.0,0.0,0.0,1.74240013847,1,146.56642072029533,157.16334370306163,387.75266944761165,18.429118451417317,8.58683482758035,0.4499699263798645,0,Fixed-Wing
1970-01-01 00:01:00.778072512,2193,1538767978384978823,base_link,0,1,40.5921269,-79.8951628,387.656375864,0.435600034618,0.0,0.0,0.0,0.435600034618,0.0,0.0,0.0,1.74240013847,1,154.1939542509239,159.4400774628179,387.6525171480198,19.085820206555255,5.696904644524298,-0.25060378634948827,0,Fixed-Wing
1970-01-01 00:01:01.192726208,2195,1538767978799219335,base_link,0,1,40.5921361,-79.8950715,387.516465756,0.435600034618,0.0,0.0,0.0,0.435600034618,0.0,0.0,0.0,1.74240013847,1,161.92309729152774,160.46192355507253,387.51239009933767,19.34007026404461,2.556890863505105,-0.3506296821224184,0,Fixed-Wing
1970-01-01 00:01:01.524187584,2197,1538767979129472999,base_link,0,1,40.592136,-79.8949811,387.16655863,0.435600034618,0.0,0.0,0.0,0.435600034618,0.0,0.0,0.0,1.74240013847,1,169.5760646716014,160.45097960871766,387.16228466418835,19.149461470893215,-0.027384237858872045,-0.8760432663803702,0,Fixed-Wing
1970-01-01 00:01:01.945876160,2199,1538767979553108359,base_link,0,1,40.5921264,-79.8948941,386.586652006,0.435600034618,0.0,0.0,0.0,0.435600034618,0.0,0.0,0.0,1.74240013847,1,176.94121675030993,159.38502947384364,386.58220505592635,18.429282257980972,-2.667249188963215,-1.4514908475092752,0,Fixed-Wing
1970-01-01 00:01:02.331786336,2201,1538767979938441255,base_link,0,1,40.5921074,-79.8948127,385.966743584,0.435600034618,0.0,0.0,0.0,0.435600034618,0.0,0.0,0.0,1.74240013847,1,183.83231598055124,157.2751780859942,385.9621545276027,17.24309442964566,-5.2793270707165165,-1.5515071621834564,0,Fixed-Wing
1970-01-01 00:01:02.739312608,2203,1538767980346434087,base_link,0,1,40.5920797,-79.8947385,385.386831429,0.435600034618,0.0,0.0,0.0,0.435600034618,0.0,0.0,0.0,1.74240013847,1,190.113914284372,154.19915989899334,385.3821337890827,15.717984765993593,-7.6968957046793385,-1.4513435420525111,0,Fixed-Wing
1970-01-01 00:01:03.206597504,2205,1538767980813529255,base_link,0,1,40.5920446,-79.8946721,384.896914381,0.435600034618,0.0,0.0,0.0,0.435600034618,0.0,0.0,0.0,1.74240013847,1,195.7352172337813,150.30134201143562,384.8921402280374,14.065775914086817,-9.753225089223713,-1.2260751094605524,0,Fixed-Wing
1970-01-01 00:01:03.561157920,2207,1538767981168147527,base_link,0,1,40.5920028,-79.8946158,384.486989785,0.435600034618,0.0,0.0,0.0,0.435600034618,0.0,0.0,0.0,1.74240013847,1,200.50151265573868,145.65945441827307,384.48217575516543,11.926353009071525,-11.615056383087325,-1.025824165687439,0,Fixed-Wing
1970-01-01 00:01:03.979985888,2209,1538767981587042151,base_link,0,1,40.5919563,-79.8945693,384.26705711,0.435600034618,0.0,0.0,0.0,0.435600034618,0.0,0.0,0.0,1.74240013847,1,204.43819525500626,140.49560405735411,384.26223441361014,9.850473419512326,-12.921125704174107,-0.550343159299987,0,Fixed-Wing
1970-01-01 00:01:04.386693664,2211,1538767981993350311,base_link,0,1,40.5919066,-79.8945309,384.157117473,0.435600034618,0.0,0.0,0.0,0.435600034618,0.0,0.0,0.0,1.74240013847,1,207.68917434263233,134.97637063335847,384.15230937438287,8.134687591021168,-13.810374793555374,-0.27505739915344135,0,Fixed-Wing
1970-01-01 00:01:04.780591744,2213,1538767982387458279,base_link,0,1,40.5918552,-79.8945009,383.987169934,0.435600034618,0.0,0.0,0.0,0.435600034618,0.0,0.0,0.0,1.74240013847,1,210.22904163431238,129.26832791582584,383.9823972733444,6.355324467976633,-14.282818502298634,-0.42515864378909424,0,Fixed-Wing
1970-01-01 00:01:05.159500832,2215,1538767982766749031,base_link,0,1,40.591803,-79.8944802,383.897213188,0.435600034618,0.0,0.0,0.0,0.435600034618,0.0,0.0,0.0,1.74240013847,1,211.98160600293923,123.47142336298307,383.8924977353066,4.38531385089442,-14.505170984282916,-0.22494904974877208,0,Fixed-Wing
1970-01-01 00:01:05.573944672,2217,1538767983180825031,base_link,0,1,40.5917507,-79.8944682,383.967247555,0.435600034618,0.0,0.0,0.0,0.435600034618,0.0,0.0,0.0,1.74240013847,1,212.9976605776845,117.66339604410754,383.96260835643864,2.5423991721264,-14.533002669564741,0.17543268792229236,0,Fixed-Wing
1970-01-01 00:01:05.954329952,2219,1538767983561369127,base_link,0,1,40.5916992,-79.8944641,384.127273475,0.435600034618,0.0,0.0,0.0,0.435600034618,0.0,0.0,0.0,1.74240013847,1,213.3449243578697,111.94419338553138,384.12272587806996,0.868932800655552,-14.31074320789544,0.40065038291910016,0,Fixed-Wing
1970-01-01 00:01:06.390534752,2221,1538767983997049831,base_link,0,1,40.5916486,-79.8944659,384.157292962,0.435600034618,0.0,0.0,0.0,0.435600034618,0.0,0.0,0.0,1.74240013847,1,213.19270287615217,106.32492148931692,384.15284682802377,-0.3808926987957594,-14.060693757980745,0.0753694536983209,0,Fixed-Wing
1970-01-01 00:01:06.769269120,2223,1538767984373312295,base_link,0,1,40.5915988,-79.894474,384.037305645,0.435600034618,0.0,0.0,0.0,0.435600034618,0.0,0.0,0.0,1.74240013847,1,212.50713168643534,100.79447417534911,384.0329723676359,-1.7154547290008728,-13.83843449161707,-0.29995310923684104,0,Fixed-Wing
1970-01-01 00:01:07.142217664,2225,1538767984749312327,base_link,0,1,40.5915501,-79.8944885,383.827311292,0.435600034618,0.0,0.0,0.0,0.435600034618,0.0,0.0,0.0,1.74240013847,1,211.2797449921717,95.3861684515189,383.8231021054112,-3.0712001037514822,-13.532808509148667,-0.5251430328610968,0,Fixed-Wing
1970-01-01 00:01:07.581906752,2227,1538767985186008647,base_link,0,1,40.5915028,-79.8945102,383.547308953,0.435600034618,0.0,0.0,0.0,0.435600034618,0.0,0.0,0.0,1.74240013847,1,209.44281544708278,90.13331899355859,383.5432368390693,-4.596414671780152,-13.143821646165861,-0.7002864207691294,0,Fixed-Wing
1970-01-01 00:01:07.920830528,2229,1538767985527973031,base_link,0,1,40.5914576,-79.8945393,383.257298124,0.435600034618,0.0,0.0,0.0,0.435600034618,0.0,0.0,0.0,1.74240013847,1,206.97941028028487,85.11366362664467,383.25337543444516,-6.163998875994416,-12.560317099503367,-0.7252990276950533,0,Fixed-Wing
1970-01-01 00:01:08.348925440,2231,1538767985955714343,base_link,0,1,40.5914151,-79.8945758,382.957278552,0.435600034618,0.0,0.0,0.0,0.435600034618,0.0,0.0,0.0,1.74240013847,1,203.8895267347244,80.39383458379845,382.953516623077,-7.731589978982465,-11.810083581503074,-0.7503148086000379,0,Fixed-Wing
1970-01-01 00:01:08.746417280,2233,1538767986353401031,base_link,0,1,40.5913762,-79.8946198,382.607249751,0.435600034618,0.0,0.0,0.0,0.435600034618,0.0,0.0,0.0,1.74240013847,1,200.16469438442493,76.07377933531365,382.6036587468898,-9.320376010397917,-10.809758806549844,-0.8754238176657964,0,Fixed-Wing
1970-01-01 00:01:09.164922176,2235,1538767986771838503,base_link,0,1,40.5913419,-79.8946714,382.337211194,0.435600034618,0.0,0.0,0.0,0.435600034618,0.0,0.0,0.0,1.74240013847,1,195.79644821285788,72.26455280442704,382.33379998703356,-10.9303434345744,-9.531549406188018,-0.6752478702450678,0,Fixed-Wing
1970-01-01 00:01:09.543761856,2237,1538767987150695751,base_link,0,1,40.5913126,-79.8947292,382.347164151,0.50409996953,0.0,0.0,0.0,0.50409996953,0.0,0.0,0.0,2.01639987812,1,190.90331378717121,69.01058218154034,382.3439371787121,-12.243732986574722,-8.142173091267972,0.025365554539921596,0,Fixed-Wing
1970-01-01 00:01:09.967065088,2239,1538767987573798567,base_link,0,1,40.5912892,-79.8947918,382.567109682,0.50409996953,0.0,0.0,0.0,0.50409996953,0.0,0.0,0.0,2.01639987812,1,185.60380730002137,66.41181770903384,382.5640665513466,-13.260568123504523,-6.502698583005131,0.5508136557399012,0,Fixed-Wing
1970-01-01 00:01:10.387923968,2241,1538767987994227335,base_link,0,1,40.5912716,-79.8948577,382.86704937,0.50409996953,0.0,0.0,0.0,0.50409996953,0.0,0.0,0.0,2.01639987812,1,180.02491253373765,64.45715653549564,382.86418601100036,-13.959661014011782,-4.891005929122415,0.7509670097730202,0,Fixed-Wing
1970-01-01 00:01:10.802463968,2243,1538767988409348423,base_link,0,1,40.5912602,-79.8949259,383.166984076,0.50409996953,0.0,0.0,0.0,0.50409996953,0.0,0.0,0.0,2.01639987812,1,174.2512851168032,63.19102156619405,383.16429352890077,-14.446926306749155,-3.1681570830578947,0.7509371287956649,0,Fixed-Wing
1970-01-01 00:01:11.139085664,2245,1538767988746160263,base_link,0,1,40.5912549,-79.8949954,383.47691487,0.50409996953,0.0,0.0,0.0,0.50409996953,0.0,0.0,0.0,2.01639987812,1,168.36758491086408,62.602310082458786,383.4743879399706,-14.722353409382118,-1.4730897592238765,0.7759266023506584,0,Fixed-Wing
1970-01-01 00:01:11.556509664,2247,1538767989163193063,base_link,0,1,40.591256,-79.8950658,383.77684204,0.50409996953,0.0,0.0,0.0,0.50409996953,0.0,0.0,0.0,2.01639987812,1,162.4076753674339,62.72433879782659,383.7744682221768,-14.91304646993367,0.3053435441738256,0.7508689789066806,0,Fixed-Wing
1970-01-01 00:01:11.933944832,2249,1538767989541002023,base_link,0,1,40.5912633,-79.8951366,383.886766183,0.50409996953,0.0,0.0,0.0,0.50409996953,0.0,0.0,0.0,2.01639987812,1,156.41388320738298,63.534896539442684,383.884533906559,-14.997828467463368,2.0281994515521165,0.27540932525502887,0,Fixed-Wing
1970-01-01 00:01:12.335728928,2251,1538767989942920839,base_link,0,1,40.5912764,-79.8952074,383.846687885,0.50409996953,0.0,0.0,0.0,0.50409996953,0.0,0.0,0.0,2.01639987812,1,150.42007561657368,64.98956336303067,383.844584876867,-14.997867078723306,3.6399065758224443,-0.09996154000066272,0,Fixed-Wing
