time,field.header.seq,field.header.stamp,field.header.frame_id,field.status.status,field.status.service,lat,lon,alt,field.position_covariance0,field.position_covariance1,field.position_covariance2,field.position_covariance3,field.position_covariance4,field.position_covariance5,field.position_covariance6,field.position_covariance7,field.position_covariance8,field.position_covariance_type,x,y,z,vel_x,vel_y,vel_z,track_id,uav_category
1970-01-01 00:00:00.000000000,1325,1539875267207945096,base_link,0,1,40.5912679,-79.8953215,391.116574241,0.302500013113,0.0,0.0,0.0,0.302500013113,0.0,0.0,0.0,1.21000005245,1,501.57302324163413,108.993017805627,391.0959482060782,-12.504540633578896,-0.5281826209715074,0.150792805965776,0,Fixed-Wing
1970-01-01 00:00:00.391019360,1327,1539875267599227400,base_link,0,1,40.591266,-79.8953806,391.176514327,0.302500013113,0.0,0.0,0.0,0.302500013113,0.0,0.0,0.0,1.21000005245,1,496.5697564614891,108.78168348805437,391.15628282043,-12.504540633578896,-0.5281826209715074,0.150792805965776,0,Fixed-Wing
1970-01-01 00:00:00.783335200,1329,1539875267989998088,base_link,0,1,40.5912646,-79.8954396,391.02645431,0.302500013113,0.0,0.0,0.0,0.302500013113,0.0,0.0,0.0,1.21000005245,1,491.5749352767369,108.62587591845144,391.0066118083247,-12.483432766378243,-0.3894059962684015,-0.3740690502387551,0,Fixed-Wing
1970-01-01 00:00:01.214665024,1331,1539875268421670120,base_link,0,1,40.5912659,-79.8954979,390.656393877,0.302500013113,0.0,0.0,0.0,0.302500013113,0.0,0.0,0.0,1.21000005245,1,486.63933836125915,108.76991447164548,390.63692684073163,-12.33541501833901,0.35999198530935145,-0.9239444750848738,0,Fixed-Wing
1970-01-01 00:00:01.652841760,1333,1539875268861021448,base_link,0,1,40.5912716,-79.895555,389.886332823,0.302500013113,0.0,0.0,0.0,0.302500013113,0.0,0.0,0.0,1.21000005245,1,481.805269995423,109.40258840427023,389.8672213922698,-12.081667231093418,1.5812262759418638,-1.92370574648807,0,Fixed-Wing
1970-01-01 00:00:02.039315744,1335,1539875269247213352,base_link,0,1,40.5912818,-79.8956104,388.596271621,0.302500013113,0.0,0.0,0.0,0.302500013113,0.0,0.0,0.0,1.21000005245,1,477.11505126076923,110.53500312681408,388.57749266929943,-11.722147413884324,2.8302160437069306,-3.2233870251886465,0,Fixed-Wing
1970-01-01 00:00:02.406486176,1337,1539875269614486600,base_link,0,1,40.5912965,-79.8956641,386.806210272,0.302500013113,0.0,0.0,0.0,0.302500013113,0.0,0.0,0.0,1.21000005245,1,472.5686855694697,112.16715814448432,386.7877407211773,-11.362619068718855,4.079204574848902,-4.473082676329263,0,Fixed-Wing
1970-01-01 00:00:02.796681088,1339,1539875270004098376,base_link,0,1,40.5913153,-79.8957162,384.616148843,0.302500013113,0.0,0.0,0.0,0.302500013113,0.0,0.0,0.0,1.21000005245,1,468.1577190297371,114.25463255920346,384.5979669557622,-11.02421932572707,5.217173056611431,-5.472847287824167,0,Fixed-Wing
1970-01-01 00:00:03.201956768,1341,1539875270410083944,base_link,0,1,40.5913375,-79.8957673,382.086087014,0.302500013113,0.0,0.0,0.0,0.302500013113,0.0,0.0,0.0,1.21000005245,1,463.83136756387137,116.71968633813461,382.06817599887455,-10.812742969203283,6.160847801465449,-6.3226438255097674,0,Fixed-Wing
1970-01-01 00:00:03.670128928,1343,1539875270878337128,base_link,0,1,40.5913627,-79.8958186,379.486023725,0.302500013113,0.0,0.0,0.0,0.302500013113,0.0,0.0,0.0,1.21000005245,1,459.48806527853617,119.51789624120494,379.46837466783813,-10.855107732095687,6.9934966436491655,-6.497619018075801,0,Fixed-Wing
1970-01-01 00:00:04.041900192,1345,1539875271246502760,base_link,0,1,40.5913908,-79.8958703,376.795958813,0.302500013113,0.0,0.0,0.0,0.302500013113,0.0,0.0,0.0,1.21000005245,1,455.1108806657107,122.63815512948463,376.7785637453005,-10.939788993255675,7.798385688849466,-6.722577758793993,0,Fixed-Wing
1970-01-01 00:00:04.440021504,1347,1539875271648143496,base_link,0,1,40.5914214,-79.8959225,374.065892347,0.302500013113,0.0,0.0,0.0,0.302500013113,0.0,0.0,0.0,1.21000005245,1,450.69135502424746,126.03604197963514,374.04874423373917,-11.045610876503874,8.492254371608515,-6.822570233535638,0,Fixed-Wing
1970-01-01 00:00:04.835224576,1349,1539875272043277896,base_link,0,1,40.5914542,-79.8959761,371.505823531,0.302500013113,0.0,0.0,0.0,0.302500013113,0.0,0.0,0.0,1.21000005245,1,446.153313987894,129.67824042493524,371.488920804288,-11.34181346497874,9.10285628492761,-6.397703239688418,0,Fixed-Wing
1970-01-01 00:00:05.231729024,1351,1539875272432954728,base_link,0,1,40.591488,-79.8960304,369.01575359,0.302500013113,0.0,0.0,0.0,0.302500013113,0.0,0.0,0.0,1.21000005245,1,441.5560191093371,133.43148913972516,368.99909270980834,-11.489905123906338,9.380401470548337,-6.222765634165248,0,Fixed-Wing
1970-01-01 00:00:05.632400896,1353,1539875272840317160,base_link,0,1,40.591523,-79.8960851,366.685682749,0.302500013113,0.0,0.0,0.0,0.302500013113,0.0,0.0,0.0,1.21000005245,1,436.9248726522644,137.3180021431661,366.66925763464894,-11.57450953491663,9.71346560357731,-5.822899047174805,0,Fixed-Wing
1970-01-01 00:00:06.049776800,1355,1539875273257782984,base_link,0,1,40.5915592,-79.8961392,364.455612035,0.302500013113,0.0,0.0,0.0,0.302500013113,0.0,0.0,0.0,1.21000005245,1,432.344527784925,141.337783221856,364.4394105580501,-11.447542381058042,10.046539200356653,-5.573001521056003,0,Fixed-Wing
1970-01-01 00:00:06.448362240,1357,1539875273653177544,base_link,0,1,40.5915969,-79.8961932,362.555540809,0.302500013113,0.0,0.0,0.0,0.302500013113,0.0,0.0,0.0,1.21000005245,1,427.77266931343667,145.52415087329604,362.5395527712185,-11.426332542283554,10.462884891981416,-4.748267469512849,0,Fixed-Wing
1970-01-01 00:00:06.842618976,1359,1539875274050851848,base_link,0,1,40.5916363,-79.8962464,361.145469707,0.302500013113,0.0,0.0,0.0,0.302500013113,0.0,0.0,0.0,1.21000005245,1,423.26856612223213,149.8993231825559,361.12968014726493,-11.256993449910864,10.934759692838707,-3.5236596985713162,0,Fixed-Wing
1970-01-01 00:00:07.241765952,1361,1539875274449917896,base_link,0,1,40.5916753,-79.8962996,359.75539879,0.302500013113,0.0,0.0,0.0,0.302500013113,0.0,0.0,0.0,1.21000005245,1,418.7644740110797,154.23007586872885,359.7398025998022,-11.256965757811312,10.823742830011689,-3.4736864995719525,0,Fixed-Wing
1970-01-01 00:00:07.617910048,1363,1539875274825936328,base_link,0,1,40.5917142,-79.8963526,358.305328137,0.302500013113,0.0,0.0,0.0,0.302500013113,0.0,0.0,0.0,1.21000005245,1,414.2773172135818,158.5497236305154,358.28991837208787,-11.214639748217774,10.795988567781695,-3.6236597079705266,0,Fixed-Wing
1970-01-01 00:00:08.009044416,1365,1539875275217344552,base_link,0,1,40.5917534,-79.8964059,356.985257068,0.302500013113,0.0,0.0,0.0,0.302500013113,0.0,0.0,0.0,1.21000005245,1,409.7647770920118,162.90268976227173,356.9700284179358,-11.278079660823355,10.879260343891138,-3.2987682425898353,0,Fixed-Wing
1970-01-01 00:00:08.400538240,1367,1539875275608749576,base_link,0,1,40.5917927,-79.8964603,356.325184847,0.302500013113,0.0,0.0,0.0,0.302500013113,0.0,0.0,0.0,1.21000005245,1,405.1591628522484,167.26677435983981,356.31013676076566,-11.51069749713429,10.907048449869738,-1.6492508601758868,0,Fixed-Wing
1970-01-01 00:00:08.803990688,1369,1539875276012182408,base_link,0,1,40.5918309,-79.8965155,356.375112285,0.302500013113,0.0,0.0,0.0,0.302500013113,0.0,0.0,0.0,1.21000005245,1,400.48588061065954,171.50871896895268,356.36024598678443,-11.679818456619778,10.601787004550838,0.12523674639048699,0,Fixed-Wing
1970-01-01 00:00:09.218829472,1371,1539875276426590440,base_link,0,1,40.5918685,-79.8965693,357.175041425,0.302500013113,0.0,0.0,0.0,0.302500013113,0.0,0.0,0.0,1.21000005245,1,395.9311730826417,175.68406225450332,357.1603451604038,-11.383467614436421,10.435331967605991,1.9996680303195675,0,Fixed-Wing
1970-01-01 00:00:09.660248480,1373,1539875276868165032,base_link,0,1,40.5919052,-79.8966203,358.434973826,0.302500013113,0.0,0.0,0.0,0.302500013113,0.0,0.0,0.0,1.21000005245,1,391.61354177567665,179.7594877958925,358.42042989923493,-10.790948892233853,10.18561002656528,3.1492985504982394,0,Fixed-Wing
1970-01-01 00:00:10.036604640,1375,1539875277244716136,base_link,0,1,40.5919404,-79.8966692,359.724909021,0.302500013113,0.0,0.0,0.0,0.302500013113,0.0,0.0,0.0,1.21000005245,1,387.473703021492,183.66834912362725,359.71050593235293,-10.346596372513636,9.769320216474073,3.2242550488308344,0,Fixed-Wing
1970-01-01 00:00:10.395462752,1377,1539875277603695816,base_link,0,1,40.5919746,-79.8967164,361.004846389,0.302500013113,0.0,0.0,0.0,0.302500013113,0.0,0.0,0.0,1.21000005245,1,383.47778838930975,187.466169135335,360.99057368885656,-9.986890382244734,9.491797408021064,3.199241611191821,0,Fixed-Wing
1970-01-01 00:00:10.800349184,1379,1539875278008626472,base_link,0,1,40.5920084,-79.8967628,361.954784757,0.302500013113,0.0,0.0,0.0,0.302500013113,0.0,0.0,0.0,1.21000005245,1,379.5495841945327,191.21956542703228,361.940634989031,-9.81766336456687,9.38077030585448,2.3744646556860216,0,Fixed-Wing
1970-01-01 00:00:11.210996736,1381,1539875278418930184,base_link,0,1,40.5920414,-79.896809,362.604723676,0.302500013113,0.0,0.0,0.0,0.302500013113,0.0,0.0,0.0,1.21000005245,1,375.6383009440266,194.88411470556986,362.5906939374743,-9.775373268017601,9.158717168365119,1.6246762150059035,0,Fixed-Wing
1970-01-01 00:00:11.638193568,1383,1539875278846002792,base_link,0,1,40.5920743,-79.8968552,363.06466265,0.302500013113,0.0,0.0,0.0,0.302500013113,0.0,0.0,0.0,1.21000005245,1,371.727010239261,198.53755564099504,363.05074877938193,-9.775391898263445,9.130954361798029,1.1498036617071206,0,Fixed-Wing
1970-01-01 00:00:12.017802720,1385,1539875279225791432,base_link,0,1,40.5921075,-79.8969018,363.204601101,0.302500013113,0.0,0.0,0.0,0.302500013113,0.0,0.0,0.0,1.21000005245,1,367.78184012213217,202.22430304756392,363.19079949793854,-9.86006587371872,9.214196399466363,0.35002528905769437,0,Fixed-Wing
1970-01-01 00:00:12.384031520,1387,1539875279592292200,base_link,0,1,40.5921405,-79.896949,363.154539035,0.302500013113,0.0,0.0,0.0,0.302500013113,0.0,0.0,0.0,1.21000005245,1,363.7858700992974,205.88883362478515,363.1408487406706,-9.987028818729419,9.158670428628767,-0.12484068936992346,0,Fixed-Wing
1970-01-01 00:00:12.834077760,1389,1539875280042018312,base_link,0,1,40.5921734,-79.8969969,363.034476306,0.302500013113,0.0,0.0,0.0,0.302500013113,0.0,0.0,0.0,1.21000005245,1,359.7306411498384,209.54225590475016,363.0208964123291,-10.13513318502393,9.1309077366689,-0.2997938806284328,0,Fixed-Wing
1970-01-01 00:00:13.220653504,1391,1539875280426520968,base_link,0,1,40.5922061,-79.8970457,362.904412752,0.302500013113,0.0,0.0,0.0,0.302500013113,0.0,0.0,0.0,1.21000005245,1,355.59922606491904,213.17346582970248,362.8909435730004,-10.325543304740009,9.075392948425746,-0.32478790982781597,0,Fixed-Wing
1970-01-01 00:00:13.619529088,1393,1539875280827732776,base_link,0,1,40.5922382,-79.8970956,362.794348336,0.302500013113,0.0,0.0,0.0,0.302500013113,0.0,0.0,0.0,1.21000005245,1,351.37469741748976,216.73804278885027,362.7809925192459,-10.558259723253459,8.908858828809109,-0.27479794298282073,0,Fixed-Wing
1970-01-01 00:00:14.036803232,1395,1539875281244852392,base_link,0,1,40.5922702,-79.8971461,362.78428336,0.302500013113,0.0,0.0,0.0,0.302500013113,0.0,0.0,0.0,1.21000005245,1,347.09938511438503,220.29151789895764,362.7710392586382,-10.685182054965876,8.88111225271514,-0.02487593749734515,0,Fixed-Wing
1970-01-01 00:00:14.414963104,1397,1539875281621099688,base_link,0,1,40.5923027,-79.8971966,362.81421819,0.302500013113,0.0,0.0,0.0,0.302500013113,0.0,0.0,0.0,1.21000005245,1,342.82407649381184,223.9005230604937,362.8010790048201,-10.685172851306083,9.019897133671387,0.07507759295279084,0,Fixed-Wing
1970-01-01 00:00:14.819020096,1399,1539875282027296456,base_link,0,1,40.5923357,-79.8972466,362.824153337,0.302500013113,0.0,0.0,0.0,0.302500013113,0.0,0.0,0.0,1.21000005245,1,338.59109650932555,227.56505812030406,362.8111099302952,-10.579381940452997,9.158681631852668,0.025070043375081532,0,Fixed-Wing
1970-01-01 00:00:15.243344064,1401,1539875282451499816,base_link,0,1,40.592369,-79.8972963,362.85408868,0.302500013113,0.0,0.0,0.0,0.302500013113,0.0,0.0,0.0,1.21000005245,1,334.38351708712935,231.2629131916794,362.84113359491516,-10.515898944796518,9.241957510760201,0.07503740070376884,0,Fixed-Wing
1970-01-01 00:00:15.668532768,1403,1539875282876655240,base_link,0,1,40.5924028,-79.897346,362.804023829,0.302500013113,0.0,0.0,0.0,0.302500013113,0.0,0.0,0.0,1.21000005245,1,330.1759352024084,235.01629392585446,362.79115009623536,-10.515905099323504,9.380731423324903,-0.12492251916896044,0,Fixed-Wing
1970-01-01 00:00:15.999622624,1405,1539875283207888616,base_link,0,1,40.5924369,-79.8973957,362.763958868,0.302500013113,0.0,0.0,0.0,0.302500013113,0.0,0.0,0.0,1.21000005245,1,325.9683566752903,238.80299308375402,362.75116024766675,-10.515896707750077,9.464003333782108,-0.09994563718673942,0,Fixed-Wing
1970-01-01 00:00:16.406408544,1407,1539875283614371144,base_link,0,1,40.5924715,-79.8974455,362.843893611,0.302500013113,0.0,0.0,0.0,0.302500013113,0.0,0.0,0.0,1.21000005245,1,321.75232051636016,242.64522498662114,362.83116338927624,-10.537034657274733,9.602794946633292,0.19994986856185526,0,Fixed-Wing
1970-01-01 00:00:16.810178784,1409,1539875284017563848,base_link,0,1,40.5925073,-79.8974948,363.073828382,0.302500013113,0.0,0.0,0.0,0.302500013113,0.0,0.0,0.0,1.21000005245,1,317.578618391515,246.6207298593648,363.06115418715217,-10.43123025533879,9.935880776433939,0.5748102997029059,0,Fixed-Wing
1970-01-01 00:00:17.240962176,1411,1539875284448985160,base_link,0,1,40.5925448,-79.8975426,363.353763999,0.302500013113,0.0,0.0,0.0,0.302500013113,0.0,0.0,0.0,1.21000005245,1,313.5318989086234,250.78503373864004,363.34112694963903,-10.113865686180016,10.407741453166711,0.699728984811564,0,Fixed-Wing
1970-01-01 00:00:17.612605472,1413,1539875284819934120,base_link,0,1,40.5925844,-79.8975887,363.673700499,0.302500013113,0.0,0.0,0.0,0.302500013113,0.0,0.0,0.0,1.21000005245,1,309.62909093930574,255.18255780245096,363.66107898231496,-9.754191207843919,10.99062287889242,0.7996481837165432,0,Fixed-Wing
1970-01-01 00:00:18.012846464,1415,1539875285221143112,base_link,0,1,40.5926268,-79.8976312,363.963639537,0.302500013113,0.0,0.0,0.0,0.302500013113,0.0,0.0,0.0,1.21000005245,1,306.03103419094464,259.8910423664633,363.9510008422109,-8.992534036032307,11.767798748393808,0.7245945173297552,0,Fixed-Wing
1970-01-01 00:00:18.385194112,1417,1539875285593416680,base_link,0,1,40.592675,-79.8976668,364.173583246,0.302500013113,0.0,0.0,0.0,0.302500013113,0.0,0.0,0.0,1.21000005245,1,303.0170769673154,265.2436534398744,364.16086736035265,-7.532708573586744,13.377648165559695,0.5245141862404403,0,Fixed-Wing
1970-01-01 00:00:18.785353280,1419,1539875285993281352,base_link,0,1,40.5927287,-79.8976938,364.31353349,0.302500013113,0.0,0.0,0.0,0.302500013113,0.0,0.0,0.0,1.21000005245,1,300.7311355716128,271.20708069911973,364.30067424906827,-5.713196662224439,14.904245916797503,0.34941589118058614,0,Fixed-Wing
1970-01-01 00:00:19.243265536,1421,1539875286451569288,base_link,0,1,40.5927868,-79.897712,364.283490928,0.302500013113,0.0,0.0,0.0,0.302500013113,0.0,0.0,0.0,1.21000005245,1,299.1901403001103,277.65916200717913,364.27042576989936,-3.851371281084831,16.125526867356978,-0.07559927413276135,0,Fixed-Wing
1970-01-01 00:00:19.664924320,1423,1539875286873243432,base_link,0,1,40.5928489,-79.8977196,364.143457566,0.302500013113,0.0,0.0,0.0,0.302500013113,0.0,0.0,0.0,1.21000005245,1,298.5464743126271,284.5554842148109,364.1301178487669,-1.6086984461585863,17.235807135010305,-0.3506681090795903,0,Fixed-Wing
1970-01-01 00:00:20.016186720,1425,1539875287224379944,base_link,0,1,40.5929141,-79.897714,364.043436432,0.302500013113,0.0,0.0,0.0,0.302500013113,0.0,0.0,0.0,1.21000005245,1,299.02025060026176,291.79611526513327,364.0297466208751,1.184097330860745,18.096329690195716,-0.2508553216862079,0,Fixed-Wing
1970-01-01 00:00:20.391940256,1427,1539875287600228296,base_link,0,1,40.5929809,-79.8976953,364.00342804,0.302500013113,0.0,0.0,0.0,0.302500013113,0.0,0.0,0.0,1.21000005245,1,300.60300791145073,299.21447749786836,363.989319412476,3.955746111600062,18.54052882847747,-0.10103871976896805,0,Fixed-Wing
1970-01-01 00:00:20.833905664,1429,1539875288041996456,base_link,0,1,40.5930469,-79.8976637,363.893433172,0.302500013113,0.0,0.0,0.0,0.302500013113,0.0,0.0,0.0,1.21000005245,1,303.2778164449861,306.5440391127769,363.87884920948363,6.6850826598670965,18.318591645694067,-0.27609543980335727,0,Fixed-Wing
1970-01-01 00:00:21.197418304,1431,1539875288405569096,base_link,0,1,40.5931105,-79.8976169,363.843454835,0.302500013113,0.0,0.0,0.0,0.302500013113,0.0,0.0,0.0,1.21000005245,1,307.2393936350818,313.6071316370514,363.82833734789676,9.901071664456511,17.652612053190847,-0.12624304348456347,0,Fixed-Wing
1970-01-01 00:00:21.645455552,1433,1539875288853058184,base_link,0,1,40.5931696,-79.8975553,363.953493478,0.302500013113,0.0,0.0,0.0,0.302500013113,0.0,0.0,0.0,1.21000005245,1,312.45388891699247,320.17055088420994,363.93779616858865,13.032458791727079,16.403791018501007,0.2735677170917541,0,Fixed-Wing
1970-01-01 00:00:22.034294848,1435,1539875289242568872,base_link,0,1,40.5932224,-79.8974813,364.06354739,0.302500013113,0.0,0.0,0.0,0.302500013113,0.0,0.0,0.0,1.21000005245,1,318.71812871993035,326.0343887115817,364.04724282498853,15.656059250162151,14.655344518519012,0.27353731517830365,0,Fixed-Wing
1970-01-01 00:00:22.449263840,1437,1539875289657323784,base_link,0,1,40.5932674,-79.897396,364.133616059,0.302500013113,0.0,0.0,0.0,0.302500013113,0.0,0.0,0.0,1.21000005245,1,325.93899703808216,331.032062941533,364.1166890695365,18.046937183596295,12.490563311517946,0.17356527743948194,0,Fixed-Wing
1970-01-01 00:00:22.815411744,1439,1539875290023424328,base_link,0,1,40.5933037,-79.8973015,364.183697711,0.302500013113,0.0,0.0,0.0,0.302500013113,0.0,0.0,0.0,1.21000005245,1,333.93872430989825,335.06362212903304,364.16614648593026,19.99352005872318,10.075975935728694,0.12360769475289668,0,Fixed-Wing
1970-01-01 00:00:23.206139232,1441,1539875290414072456,base_link,0,1,40.593331,-79.8972002,364.103790016,0.302500013113,0.0,0.0,0.0,0.302500013113,0.0,0.0,0.0,1.21000005245,1,342.514135950605,338.09573779441234,364.0856243229292,21.432313730784973,7.5780915169083665,-0.20124704585928854,0,Fixed-Wing
1970-01-01 00:00:23.624456928,1443,1539875290832688008,base_link,0,1,40.5933487,-79.8970936,363.863891692,0.302500013113,0.0,0.0,0.0,0.302500013113,0.0,0.0,0.0,1.21000005245,1,351.53825318990675,340.06177272709914,363.8451309615639,22.553752510026452,4.9136623696297965,-0.6010590962754261,0,Fixed-Wing
1970-01-01 00:00:24.049345248,1445,1539875291257254856,base_link,0,1,40.5933549,-79.8969839,363.544001271,0.302500013113,0.0,0.0,0.0,0.302500013113,0.0,0.0,0.0,1.21000005245,1,360.8248526385085,340.75072422746223,363.52468584502896,23.209767788845603,1.7218794058800173,-0.8008805359818825,0,Fixed-Wing
1970-01-01 00:00:24.416742592,1447,1539875291624688360,base_link,0,1,40.5933499,-79.8968727,363.114117,0.302500013113,0.0,0.0,0.0,0.302500013113,0.0,0.0,0.0,1.21000005245,1,370.23848726821745,340.1959008230607,363.09429256089095,23.527263667808715,-1.3866563806534395,-1.0756712656779683,0,Fixed-Wing
1970-01-01 00:00:24.832613472,1449,1539875292040583560,base_link,0,1,40.5933347,-79.8967617,362.594236736,0.302500013113,0.0,0.0,0.0,0.302500013113,0.0,0.0,0.0,1.21000005245,1,379.6352433781964,338.5083493979846,362.5739507261616,23.48507960186277,-4.217655442611878,-1.3004774483632802,0,Fixed-Wing
1970-01-01 00:00:25.206454880,1451,1539875292414528104,base_link,0,1,40.5933102,-79.8966529,362.12435807,0.302500013113,0.0,0.0,0.0,0.302500013113,0.0,0.0,0.0,1.21000005245,1,388.84581815657816,335.78801593724506,362.10366214456894,23.01976121520205,-6.798861981874103,-1.1753805936095616,0,Fixed-Wing
1970-01-01 00:00:25.614272288,1453,1539875292822560904,base_link,0,1,40.5932792,-79.8965474,361.70447873,0.302500013113,0.0,0.0,0.0,0.302500013113,0.0,0.0,0.0,1.21000005245,1,397.77707834851765,332.3458415858448,361.6834135875314,22.32167719346261,-8.602941025603174,-1.050316800721673,0,Fixed-Wing
1970-01-01 00:00:26.005668128,1455,1539875293214001352,base_link,0,1,40.5932437,-79.896445,361.464598101,0.302500013113,0.0,0.0,0.0,0.302500013113,0.0,0.0,0.0,1.21000005245,1,406.44595360455133,328.4039377688795,361.4431919052213,21.665905027626202,-9.851902490691074,-0.6003800955475589,0,Fixed-Wing
1970-01-01 00:00:26.405897312,1457,1539875293613904456,base_link,0,1,40.5932045,-79.8963466,361.164714935,0.302500013113,0.0,0.0,0.0,0.302500013113,0.0,0.0,0.0,1.21000005245,1,414.7762358720131,324.05112872551393,361.14299641545307,20.819667964944585,-10.878867736770184,-0.7502711457882563,0,Fixed-Wing
1970-01-01 00:00:26.815977408,1459,1539875294023980328,base_link,0,1,40.5931604,-79.8962542,361.02482768,0.302500013113,0.0,0.0,0.0,0.302500013113,0.0,0.0,0.0,1.21000005245,1,422.598637517861,319.1541521278199,361.0028439353508,19.550334517609617,-12.23889221549263,-0.35027961916605355,0,Fixed-Wing
1970-01-01 00:00:27.208886176,1461,1539875294416215080,base_link,0,1,40.5931116,-79.8961685,360.994935537,0.302500013113,0.0,0.0,0.0,0.302500013113,0.0,0.0,0.0,1.21000005245,1,429.85389655950917,313.7352106434505,360.9727371662938,18.13288906629121,-13.543426117349428,-0.07524510156304517,0,Fixed-Wing
1970-01-01 00:00:27.627364640,1463,1539875294834922984,base_link,0,1,40.5930588,-79.8960895,360.865038219,0.302500013113,0.0,0.0,0.0,0.302500013113,0.0,0.0,0.0,1.21000005245,1,436.54199476625655,307.8720288407617,360.8426726674895,16.715398051433542,-14.653704932291669,-0.3250669775872542,0,Fixed-Wing
1970-01-01 00:00:27.999070176,1465,1539875295206176648,base_link,0,1,40.5930021,-79.896018,360.565134865,0.302500013113,0.0,0.0,0.0,0.302500013113,0.0,0.0,0.0,1.21000005245,1,442.59520190787106,301.57570340492146,360.542654290198,15.128630551176427,-15.736250077078223,-0.7498284929658097,0,Fixed-Wing
1970-01-01 00:00:28.430019584,1467,1539875295637987496,base_link,0,1,40.5929406,-79.8959566,360.295223184,0.302500013113,0.0,0.0,0.0,0.302500013113,0.0,0.0,0.0,1.21000005245,1,447.7934329184085,294.74628230886697,360.2727003319015,12.99180990147214,-17.06860284531108,-0.6746892358629142,0,Fixed-Wing
1970-01-01 00:00:28.804771712,1469,1539875296013012072,base_link,0,1,40.5928747,-79.8959077,360.135300552,0.302500013113,0.0,0.0,0.0,0.302500013113,0.0,0.0,0.0,1.21000005245,1,451.9335164575488,287.4281759788238,360.11282090934407,10.347208157485166,-18.289961736204447,-0.39958267741710857,0,Fixed-Wing
1970-01-01 00:00:29.187567136,1471,1539875296395807240,base_link,0,1,40.5928054,-79.8958719,360.045365939,0.302500013113,0.0,0.0,0.0,0.302500013113,0.0,0.0,0.0,1.21000005245,1,454.9646475193487,279.73242979612394,360.0230141046725,7.575630721590481,-19.23378765832871,-0.22445192062197483,0,Fixed-Wing
1970-01-01 00:00:29.627030272,1473,1539875296835364872,base_link,0,1,40.5927343,-79.8958485,360.115419396,0.302500013113,0.0,0.0,0.0,0.302500013113,0.0,0.0,0.0,1.21000005245,1,456.94607781604884,271.8367333838741,360.0932683473474,4.952139621260148,-19.73351831031459,0.17558468712806943,0,Fixed-Wing
1970-01-01 00:00:30.024760992,1475,1539875297233043720,base_link,0,1,40.592663,-79.8958368,360.325460974,0.302500013113,0.0,0.0,0.0,0.302500013113,0.0,0.0,0.0,1.21000005245,1,457.9370509923243,263.9187718556283,360.30357230735797,2.476714693427592,-19.78916496277536,0.5256074738589532,0,Fixed-Wing
1970-01-01 00:00:30.403104448,1477,1539875297611326920,base_link,0,1,40.5925933,-79.8958343,360.735492486,0.31360000267,0.0,0.0,0.0,0.31360000267,0.0,0.0,0.0,1.25440001068,1,458.1491956069863,256.17845391271067,360.71390495408184,0.5302077763998658,-19.345184753715454,1.025534211888235,0,Fixed-Wing
1970-01-01 00:00:30.818869312,1479,1539875298023975528,base_link,0,1,40.5925258,-79.8958387,361.225516034,0.31360000267,0.0,0.0,0.0,0.31360000267,0.0,0.0,0.0,1.25440001068,1,457.7772051543583,248.6824174607537,361.2042525620308,-0.9297065166802632,-18.734658079049495,1.2255136209222668,0,Fixed-Wing
1970-01-01 00:00:31.301819680,1481,1539875298509940840,base_link,0,1,40.5924609,-79.8958477,361.775533806,0.31360000267,0.0,0.0,0.0,0.31360000267,0.0,0.0,0.0,1.25440001068,1,457.0157825616309,241.4750944688746,361.75460246559345,-1.9030046104814582,-18.013083685428963,1.3754758709041277,0,Fixed-Wing
1970-01-01 00:00:31.601396544,1483,1539875298809524648,base_link,0,1,40.5923984,-79.8958584,362.375548856,0.31360000267,0.0,0.0,0.0,0.31360000267,0.0,0.0,0.0,1.25440001068,1,456.1104301618224,234.53428909185766,362.3549418542637,-2.262724809326456,-17.346982817525273,1.5004133518036011,0,Fixed-Wing
1970-01-01 00:00:32.039095616,1485,1539875299247181896,base_link,0,1,40.592338,-79.8958695,363.075562639,0.31360000267,0.0,0.0,0.0,0.31360000267,0.0,0.0,0.0,1.25440001068,1,455.1712062916419,227.82669408316724,363.0552663439353,-2.347378935559969,-16.764125925207736,1.7503036361244557,0,Fixed-Wing
1970-01-01 00:00:32.384372192,1487,1539875299592157352,base_link,0,1,40.5922788,-79.8958797,363.705576862,0.31360000267,0.0,0.0,0.0,0.31360000267,0.0,0.0,0.0,1.25440001068,1,454.30815811934485,221.25236285891782,363.6855740127956,-2.1569949022209953,-16.43106305233837,1.575312331574657,0,Fixed-Wing
1970-01-01 00:00:32.807856480,1489,1539875300015795240,base_link,0,1,40.5922205,-79.8958883,364.005592365,0.31360000267,0.0,0.0,0.0,0.31360000267,0.0,0.0,0.0,1.25440001068,1,453.58052898622293,214.77797475403574,363.9858630637701,-1.818545454622966,-16.181277691674616,0.75050498099183,0,Fixed-Wing
1970-01-01 00:00:33.206581088,1491,1539875300414873480,base_link,0,1,40.5921625,-79.8958957,363.96560899,0.31360000267,0.0,0.0,0.0,0.31360000267,0.0,0.0,0.0,1.25440001068,1,452.95446015874893,208.33689693229917,363.9461382747865,-1.5647183003778915,-16.098026126764662,-0.09928318033675089,0,Fixed-Wing
1970-01-01 00:00:33.655309152,1493,1539875300863637064,base_link,0,1,40.5921044,-79.8959012,363.555627621,0.31360000267,0.0,0.0,0.0,0.31360000267,0.0,0.0,0.0,1.25440001068,1,452.48921215728404,201.8847120894497,363.5363978712755,-1.1627827966511857,-16.125785629291194,-1.0240540331079562,0,Fixed-Wing
1970-01-01 00:00:34.049432512,1495,1539875301257352616,base_link,0,1,40.5920454,-79.8959055,363.055647875,0.302500013113,0.0,0.0,0.0,0.302500013113,0.0,0.0,0.0,1.21000005245,1,452.1255510310637,195.33258444123817,363.03664839078584,-0.908889237671915,-16.37557020516931,-1.2490114878926124,0,Fixed-Wing
1970-01-01 00:00:34.435081152,1497,1539875301643063624,base_link,0,1,40.5919855,-79.8959089,362.565669446,0.31360000267,0.0,0.0,0.0,0.31360000267,0.0,0.0,0.0,1.25440001068,1,451.8380870950186,188.68051569742238,362.5468910372366,-0.7184514891809582,-16.625350507892183,-1.2240384127333996,0,Fixed-Wing
1970-01-01 00:00:34.821103840,1499,1539875302028672936,base_link,0,1,40.5919247,-79.8959109,362.025692847,0.31360000267,0.0,0.0,0.0,0.31360000267,0.0,0.0,0.0,1.25440001068,1,451.6691446542836,181.92850669504463,362.00712302140505,-0.4222336540776975,-16.87512871861597,-1.349028821220734,0,Fixed-Wing
1970-01-01 00:00:35.202718848,1501,1539875302410929672,base_link,0,1,40.5918629,-79.8959124,361.615717198,0.31360000267,0.0,0.0,0.0,0.31360000267,0.0,0.0,0.0,1.25440001068,1,451.54254626110463,175.06545271923653,361.59734885161225,-0.3164042257220273,-17.15266066792655,-1.0241384243389346,0,Fixed-Wing
1970-01-01 00:00:35.600971296,1503,1539875302807948808,base_link,0,1,40.5918003,-79.8959133,361.315742519,0.302500013113,0.0,0.0,0.0,0.302500013113,0.0,0.0,0.0,1.21000005245,1,451.46675493910334,168.11356382124183,361.2975670057663,-0.18942337222528913,-17.37468358674661,-0.7492373357874411,0,Fixed-Wing
1970-01-01 00:00:35.988101248,1505,1539875303196118376,base_link,0,1,40.591737,-79.8959134,361.185768975,0.302500013113,0.0,0.0,0.0,0.302500013113,0.0,0.0,0.0,1.21000005245,1,451.4587057821686,161.08394743181725,361.1677758776397,-0.02011705838996703,-17.56894597922746,-0.32438374902931255,0,Fixed-Wing
1970-01-01 00:00:36.446004288,1507,1539875303654278984,base_link,0,1,40.5916736,-79.895913,361.035796005,0.302500013113,0.0,0.0,0.0,0.302500013113,0.0,0.0,0.0,1.21000005245,1,451.49298439260525,154.04322825206071,361.0179748343531,0.08567168130410269,-17.596694907868056,-0.3743940339467291,0,Fixed-Wing
1970-01-01 00:00:36.837571328,1509,1539875304044226024,base_link,0,1,40.5916101,-79.8959125,361.1658232,0.302500013113,0.0,0.0,0.0,0.302500013113,0.0,0.0,0.0,1.21000005245,1,451.5357492423351,146.99141123183443,361.14816582337767,0.10688112879727173,-17.624431465440722,0.32538311145913634,0,Fixed-Wing
1970-01-01 00:00:37.201818496,1511,1539875304409807336,base_link,0,1,40.5915468,-79.8959116,361.675850741,0.31360000267,0.0,0.0,0.0,0.31360000267,0.0,0.0,0.0,1.25440001068,1,451.61240258048446,139.9618148765797,361.65834645802363,0.1915777878149235,-17.568895908323434,1.2750818128891683,0,Fixed-Wing
1970-01-01 00:00:37.641724320,1513,1539875304849727272,base_link,0,1,40.5914845,-79.8959116,362.215876959,0.31360000267,0.0,0.0,0.0,0.31360000267,0.0,0.0,0.0,1.25440001068,1,451.6128598929746,133.04326582523578,362.198521069255,0.0011429497699198441,-17.291358134500783,1.3500450150240189,0,Fixed-Wing
1970-01-01 00:00:38.028115360,1515,1539875305233337416,base_link,0,1,40.591423,-79.8959136,362.625900806,0.31360000267,0.0,0.0,0.0,0.31360000267,0.0,0.0,0.0,1.25440001068,1,451.44398785597156,126.21354471993145,362.6086959951846,-0.42205769577582747,-17.069352650992037,1.0251400242169664,0,Fixed-Wing
1970-01-01 00:00:38.393642528,1517,1539875305600266120,base_link,0,1,40.5913618,-79.8959165,362.575923622,0.302500013113,0.0,0.0,0.0,0.302500013113,0.0,0.0,0.0,1.21000005245,1,451.1988892526566,119.41712527269567,362.5588673126574,-0.6125688633169964,-16.98612264252311,-0.12453559099651959,0,Fixed-Wing
1970-01-01 00:00:38.845246912,1519,1539875306053425768,base_link,0,1,40.5913009,-79.8959208,362.265944893,0.31360000267,0.0,0.0,0.0,0.31360000267,0.0,0.0,0.0,1.25440001068,1,450.83524928244844,112.65400994269231,362.24903759562505,-0.9088363629751596,-16.902886487926896,-0.774349731158858,0,Fixed-Wing
1970-01-01 00:00:39.216053536,1521,1539875306423406504,base_link,0,1,40.59124,-79.8959273,361.945963923,0.31360000267,0.0,0.0,0.0,0.31360000267,0.0,0.0,0.0,1.25440001068,1,450.285361239622,105.8908839435889,361.9292115573886,-1.3743215538155609,-16.902913152944166,-0.7993332889373141,0,Fixed-Wing
1970-01-01 00:00:39.675002816,1523,1539875306883243432,base_link,0,1,40.5911794,-79.8959376,361.605978944,0.31360000267,0.0,0.0,0.0,0.31360000267,0.0,0.0,0.0,1.25440001068,1,449.41376964497374,99.16105472131369,361.5893964011551,-2.178347265913477,-16.819695344038262,-0.8492915960209009,0,Fixed-Wing
1970-01-01 00:00:40.008775872,1525,1539875307217010696,base_link,0,1,40.5911199,-79.8959537,361.205987563,0.31360000267,0.0,0.0,0.0,0.31360000267,0.0,0.0,0.0,1.25440001068,1,448.0511500457409,92.55335354318399,361.18960029106444,-3.4055613852804125,-16.514463750836512,-0.9992005070796378,0,Fixed-Wing
1970-01-01 00:00:40.403214432,1527,1539875307611295624,base_link,0,1,40.5910628,-79.895977,360.865987792,0.31360000267,0.0,0.0,0.0,0.31360000267,0.0,0.0,0.0,1.25440001068,1,446.07898013156654,86.21214336839873,360.84982763030223,-4.928995376776595,-15.848429392439343,-0.8491853881429574,0,Fixed-Wing
1970-01-01 00:00:40.817337024,1529,1539875308025590280,base_link,0,1,40.5910089,-79.8960086,360.63597816,0.31360000267,0.0,0.0,0.0,0.31360000267,0.0,0.0,0.0,1.25440001068,1,443.4041331120952,80.22626138692917,360.62008252533764,-6.685178846812711,-14.960366447404153,-0.5741962455002871,0,Fixed-Wing
1970-01-01 00:00:41.209041056,1531,1539875308417008168,base_link,0,1,40.5909596,-79.8960483,360.595958278,0.31360000267,0.0,0.0,0.0,0.31360000267,0.0,0.0,0.0,1.25440001068,1,440.0435355401583,74.75118315898172,360.5803617177963,-8.399058202963444,-13.683727288954826,-0.09927322961680442,0,Fixed-Wing
1970-01-01 00:00:41.604672960,1533,1539875308812809032,base_link,0,1,40.5909166,-79.8960969,360.735926601,0.31360000267,0.0,0.0,0.0,0.31360000267,0.0,0.0,0.0,1.25440001068,1,435.92944818274134,69.97569394582749,360.7206664515713,-10.282236544944373,-11.935261806961556,0.350660142996023,0,Fixed-Wing
1970-01-01 00:00:42.040160672,1535,1539875309248240840,base_link,0,1,40.5908816,-79.8961539,361.16588292,0.31360000267,0.0,0.0,0.0,0.31360000267,0.0,0.0,0.0,1.25440001068,1,431.1041958861135,66.08858713735748,361.15099181677834,-12.059633447869782,-9.714949685766149,1.0755015175775724,0,Fixed-Wing
1970-01-01 00:00:42.421384448,1537,1539875309629518024,base_link,0,1,40.5908516,-79.8962148,361.325833124,0.302500013113,0.0,0.0,0.0,0.302500013113,0.0,0.0,0.0,1.21000005245,1,425.94872158260665,62.75672300893797,361.31132162500955,-12.884949123521231,-8.327245419877013,0.40070831516662864,0,Fixed-Wing
1970-01-01 00:00:42.804418912,1539,1539875310012187208,base_link,0,1,40.5908275,-79.8962788,361.205777653,0.302500013113,0.0,0.0,0.0,0.302500013113,0.0,0.0,0.0,1.21000005245,1,420.5307468086194,60.08005351019071,361.19165098619226,-13.541010042055866,-6.689733724088161,-0.2990898609835573,0,Fixed-Wing
1970-01-01 00:00:43.217154368,1541,1539875310422505384,base_link,0,1,40.5908115,-79.8963451,361.235716394,0.302500013113,0.0,0.0,0.0,0.302500013113,0.0,0.0,0.0,1.21000005245,1,414.9180142842898,58.30290229991263,361.2219733136811,-14.027763259478753,-4.441589964605458,0.07578384140803728,0,Fixed-Wing
1970-01-01 00:00:43.642366400,1543,1539875310850272936,base_link,0,1,40.5908019,-79.896412,361.465651813,0.302500013113,0.0,0.0,0.0,0.302500013113,0.0,0.0,0.0,1.21000005245,1,409.254457931008,57.23648911089887,361.4522837937368,-14.154785995265922,-2.6652600471207304,0.5756092734500013,0,Fixed-Wing
1970-01-01 00:00:44.061543968,1545,1539875311263511080,base_link,0,1,40.5907969,-79.8964784,361.765585802,0.302500013113,0.0,0.0,0.0,0.302500013113,0.0,0.0,0.0,1.21000005245,1,403.6332053986548,56.68092373184567,361.7525804385293,-14.049057104322737,-1.3885107795069584,0.7505239600329019,0,Fixed-Wing
1970-01-01 00:00:44.435923040,1547,1539875311643891912,base_link,0,1,40.5907953,-79.8965436,362.015519589,0.302500013113,0.0,0.0,0.0,0.302500013113,0.0,0.0,0.0,1.21000005245,1,398.1135180344096,56.502945429330396,362.0028622183132,-13.795217797451775,-0.4448167594279434,0.6255230477759057,0,Fixed-Wing
1970-01-01 00:00:44.806927040,1549,1539875312014851912,base_link,0,1,40.5907955,-79.8966073,362.225454159,0.302500013113,0.0,0.0,0.0,0.302500013113,0.0,0.0,0.0,1.21000005245,1,392.7208042485369,56.52487172632644,362.2131304247565,-13.477875880676283,0.05479985053345164,0.525518115854623,0,Fixed-Wing
1970-01-01 00:00:45.216063296,1551,1539875312423184168,base_link,0,1,40.5907964,-79.8966693,362.325390182,0.302500013113,0.0,0.0,0.0,0.302500013113,0.0,0.0,0.0,1.21000005245,1,387.4719983281198,56.624545057404475,362.3133861141406,-13.118210519991981,0.24911108548030347,0.25056655915805587,0,Fixed-Wing
1970-01-01 00:00:45.621469760,1553,1539875312829507112,base_link,0,1,40.5907978,-79.8967302,362.405327129,0.302500013113,0.0,0.0,0.0,0.302500013113,0.0,0.0,0.0,1.21000005245,1,382.3163123301637,56.779752850195166,362.39363234308223,-12.885478206210408,0.38790698894993136,0.20055741070497698,0,Fixed-Wing
1970-01-01 00:00:46.022876832,1555,1539875313230985800,base_link,0,1,40.5907989,-79.8967903,362.36526503,0.302500013113,0.0,0.0,0.0,0.302500013113,0.0,0.0,0.0,1.21000005245,1,377.22834755458905,56.9016508668233,362.35387166014425,-12.716224233908855,0.3046566911299146,-0.09937288920708262,0,Fixed-Wing
1970-01-01 00:00:46.429296192,1557,1539875313637343528,base_link,0,1,40.5907994,-79.8968501,362.215203498,0.302500013113,0.0,0.0,0.0,0.302500013113,0.0,0.0,0.0,1.21000005245,1,372.1657773781772,56.95692124029043,362.20410660501113,-12.652756141748489,0.13813587426427346,-0.37430408964679296,0,Fixed-Wing
1970-01-01 00:00:46.837257856,1559,1539875314045015848,base_link,0,1,40.5907997,-79.89691,361.915141955,0.302500013113,0.0,0.0,0.0,0.302500013113,0.0,0.0,0.0,1.21000005245,1,367.0947341700552,56.98998281960232,361.90433821303054,-12.673932579856928,0.08262998558390794,-0.7492037108753267,0,Fixed-Wing
1970-01-01 00:00:47.185660864,1561,1539875314393916712,base_link,0,1,40.5907998,-79.8969703,361.505080092,0.302500013113,0.0,0.0,0.0,0.302500013113,0.0,0.0,0.0,1.21000005245,1,361.98982306453576,57.00083475425558,361.49456759360874,-12.75857777624344,0.027121971261484884,-1.02412955098473,0,Fixed-Wing
1970-01-01 00:00:47.655172352,1563,1539875314863321224,base_link,0,1,40.5908003,-79.8970317,361.165016939,0.302500013113,0.0,0.0,0.0,0.302500013113,0.0,0.0,0.0,1.21000005245,1,356.79179044529195,57.05610727714685,361.15479640685044,-12.991314067030071,0.13814124626676275,-0.8491817042015276,0,Fixed-Wing
1970-01-01 00:00:48.008854848,1565,1539875315216982600,base_link,0,1,40.5908007,-79.8970934,360.874953527,0.302500013113,0.0,0.0,0.0,0.302500013113,0.0,0.0,0.0,1.21000005245,1,351.5683642869725,57.100277439134544,360.86502223029834,-13.054779509740813,0.11039339088587745,-0.7242254160096083,0,Fixed-Wing
1970-01-01 00:00:48.420413216,1567,1539875315628601480,base_link,0,1,40.5908012,-79.897156,360.614889157,0.302500013113,0.0,0.0,0.0,0.302500013113,0.0,0.0,0.0,1.21000005245,1,346.2687474454818,57.15555321729923,360.60524685297867,-13.245200995438116,0.13814938209090527,-0.6492501607525568,0,Fixed-Wing
1970-01-01 00:00:48.790497632,1569,1539875315998616840,base_link,0,1,40.5908016,-79.8972187,360.534824733,0.302500013113,0.0,0.0,0.0,0.302500013113,0.0,0.0,0.0,1.21000005245,1,340.9606754147116,57.199728758140225,360.52546757689856,-13.266332840401725,0.11040683412059518,-0.1993903669938294,0,Fixed-Wing
1970-01-01 00:00:49.235848416,1571,1539875316444132264,base_link,0,1,40.5908019,-79.8972818,360.494759949,0.302500013113,0.0,0.0,0.0,0.302500013113,0.0,0.0,0.0,1.21000005245,1,335.6187429244251,57.232801684721835,360.48568540880564,-13.35095944747654,0.08265834553382098,-0.09942658652222579,0,Fixed-Wing
1970-01-01 00:00:49.586430720,1573,1539875316794691240,base_link,0,1,40.5908023,-79.8973453,360.644694719,0.302500013113,0.0,0.0,0.0,0.302500013113,0.0,0.0,0.0,1.21000005245,1,330.24295662350943,57.27698387674238,360.6358999769932,-13.435569437152349,0.11042345724875471,0.37542754648039667,0,Fixed-Wing
1970-01-01 00:00:49.987023360,1575,1539875317195150632,base_link,0,1,40.5908028,-79.8974089,360.694629351,0.302500013113,0.0,0.0,0.0,0.302500013113,0.0,0.0,0.0,1.21000005245,1,324.85869874881024,57.33227390756534,360.686110212146,-13.456742231500833,0.13818500340641107,0.125489196015165,0,Fixed-Wing
1970-01-01 00:00:50.417273792,1577,1539875317625140680,base_link,0,1,40.5908033,-79.8974726,360.664563888,0.302500013113,0.0,0.0,0.0,0.302500013113,0.0,0.0,0.0,1.21000005245,1,319.46597105519083,57.387566745085934,360.65631623949696,-13.477910639962925,0.13819201811623766,-0.0744633372547743,0,Fixed-Wing
1970-01-01 00:00:50.800000224,1579,1539875318007847656,base_link,0,1,40.5908043,-79.8975364,360.224498118,0.302500013113,0.0,0.0,0.0,0.302500013113,0.0,0.0,0.0,1.21000005245,1,314.06475517780615,57.498385571057185,360.2165173194618,-13.499124947227019,0.2769667445722005,-1.0991785383118222,0,Fixed-Wing
1970-01-01 00:00:51.241485984,1581,1539875318449673704,base_link,0,1,40.5908043,-79.897601,359.494431959,0.302500013113,0.0,0.0,0.0,0.302500013113,0.0,0.0,0.0,1.21000005245,1,308.5958042908749,57.498150585595994,359.4867177183993,-13.668413377448601,-0.0005872933379088005,-1.82397005134135,0,Fixed-Wing
1970-01-01 00:00:51.661601376,1583,1539875318869906216,base_link,0,1,40.5908028,-79.8976666,359.044365416,0.302500013113,0.0,0.0,0.0,0.302500013113,0.0,0.0,0.0,1.21000005245,1,303.0422165903405,57.33134028832396,359.0369185716671,-13.879944067556462,-0.41690484077626544,-1.1241718569919106,0,Fixed-Wing
1970-01-01 00:00:52.087309216,1585,1539875319295186408,base_link,0,1,40.5908008,-79.8977333,359.014297964,0.302500013113,0.0,0.0,0.0,0.302500013113,0.0,0.0,0.0,1.21000005245,1,297.3955272627768,57.10900807391036,359.0071185159708,-14.11263065601902,-0.5556693919103403,-0.07447854046411936,0,Fixed-Wing
1970-01-01 00:00:52.492244160,1587,1539875319693039560,base_link,0,1,40.5907984,-79.8977998,359.344230894,0.302500013113,0.0,0.0,0.0,0.302500013113,0.0,0.0,0.0,1.21000005245,1,291.76578745998125,56.84226310818747,359.33731346811294,-14.070269128941458,-0.6666690802739527,0.8252480584184705,0,Fixed-Wing
1970-01-01 00:00:52.814675328,1589,1539875320022844616,base_link,0,1,40.5907958,-79.8978657,359.734164529,0.302500013113,0.0,0.0,0.0,0.302500013113,0.0,0.0,0.0,1.21000005245,1,286.18684509730383,56.553314393202044,359.7275020727029,-13.943312346113185,-0.7221623603790482,0.9751887067499926,0,Fixed-Wing
1970-01-01 00:00:53.179257216,1591,1539875320387023304,base_link,0,1,40.590793,-79.8979304,360.174099485,0.302500013113,0.0,0.0,0.0,0.302500013113,0.0,0.0,0.0,1.21000005245,1,280.70949443259366,56.24216362613572,360.1676828445144,-13.689406733822622,-0.7776513987601669,1.1001328909902868,0,Fixed-Wing
1970-01-01 00:00:53.618068832,1593,1539875320825461832,base_link,0,1,40.5907904,-79.8979947,360.294034771,0.302500013113,0.0,0.0,0.0,0.302500013113,0.0,0.0,0.0,1.21000005245,1,275.2659912112044,55.953225738188024,360.2878575798504,-13.604812657802432,-0.7221353006320579,0.3003497369163844,0,Fixed-Wing
1970-01-01 00:00:54.020256096,1595,1539875321222309288,base_link,0,1,40.5907888,-79.8980587,360.44396995,0.302500013113,0.0,0.0,0.0,0.302500013113,0.0,0.0,0.0,1.21000005245,1,269.84788205720486,55.775345291278455,360.4380255115126,-13.541345894689348,-0.4445721913384342,0.37531098896861803,0,Fixed-Wing
1970-01-01 00:00:54.435034848,1597,1539875321643045736,base_link,0,1,40.5907874,-79.8981225,360.723905255,0.302500013113,0.0,0.0,0.0,0.302500013113,0.0,0.0,0.0,1.21000005245,1,264.44670861868605,55.61968097208191,360.71818807410625,-13.499018880821588,-0.3890479740788829,0.7002033475133698,0,Fixed-Wing
1970-01-01 00:00:54.837714848,1599,1539875322045491144,base_link,0,1,40.5907866,-79.8981866,360.853840007,0.302500013113,0.0,0.0,0.0,0.302500013113,0.0,0.0,0.0,1.21000005245,1,259.02012863105836,55.53064974508297,360.84834596036933,-13.56251683918586,-0.22251353857116643,0.32530037854791527,0,Fixed-Wing
1970-01-01 00:00:55.241686112,1601,1539875322449737544,base_link,0,1,40.5907868,-79.8982508,361.003774242,0.302500013113,0.0,0.0,0.0,0.302500013113,0.0,0.0,0.0,1.21000005245,1,253.58507949352358,55.55267465749213,360.998498085082,-13.583683575600014,0.05504631759081154,0.3752714830516406,0,Fixed-Wing
1970-01-01 00:00:55.610137664,1603,1539875322817960488,base_link,0,1,40.5907875,-79.8983155,360.993707761,0.302500013113,0.0,0.0,0.0,0.302500013113,0.0,0.0,0.0,1.21000005245,1,248.10769298465027,55.63022688045504,360.9886460313604,-13.689496318250978,0.19382434834624843,-0.024622993635850115,0,Fixed-Wing
1970-01-01 00:00:56.047265344,1605,1539875323255273128,base_link,0,1,40.5907902,-79.8983808,361.053639831,0.302500013113,0.0,0.0,0.0,0.302500013113,0.0,0.0,0.0,1.21000005245,1,242.57950713783282,55.92988670493102,361.04878780874685,-13.816457844268788,0.7489323708024196,0.15031085331862287,0,Fixed-Wing
1970-01-01 00:00:56.397568512,1607,1539875323605740136,base_link,0,1,40.590793,-79.8984466,361.483571355,0.302500013113,0.0,0.0,0.0,0.302500013113,0.0,0.0,0.0,1.21000005245,1,237.00900592501677,56.240657788894765,361.4789257154148,-13.922215589519174,0.7767024661941622,1.075033007097785,0,Fixed-Wing
1970-01-01 00:00:56.796018432,1609,1539875324004099144,base_link,0,1,40.5907951,-79.8985129,361.65350267,0.302500013113,0.0,0.0,0.0,0.302500013113,0.0,0.0,0.0,1.21000005245,1,231.3961683367899,56.47369283105621,361.6490607648965,-14.02802584307264,0.5824187039794632,0.425214311553901,0,Fixed-Wing
1970-01-01 00:00:57.214352416,1611,1539875324422644264,base_link,0,1,40.5907971,-79.8985799,361.413433319,0.302500013113,0.0,0.0,0.0,0.302500013113,0.0,0.0,0.0,1.21000005245,1,225.7240559319265,56.695621430123936,361.4091923982627,-14.176169922880895,0.5546606460819451,-0.5994970624363939,0,Fixed-Wing
1970-01-01 00:00:57.656364384,1613,1539875324864098568,base_link,0,1,40.5907983,-79.898647,361.283364211,0.302500013113,0.0,0.0,0.0,0.302500013113,0.0,0.0,0.0,1.21000005245,1,220.04348488720916,56.828713212808026,361.2793203183439,-14.197310391779732,0.33263299314221445,-0.32458606983677674,0,Fixed-Wing
1970-01-01 00:00:58.007228160,1615,1539875325215112424,base_link,0,1,40.5907982,-79.8987145,361.33329525,0.302500013113,0.0,0.0,0.0,0.302500013113,0.0,0.0,0.0,1.21000005245,1,214.32906120496654,56.81744194984054,361.3294457562437,-14.281917449546194,-0.028169988122152458,0.12527726434282602,0,Fixed-Wing
1970-01-01 00:00:58.409607968,1617,1539875325617390312,base_link,0,1,40.5907972,-79.8987814,361.483227289,0.302500013113,0.0,0.0,0.0,0.302500013113,0.0,0.0,0.0,1.21000005245,1,208.66543837462748,56.70623029523853,361.47956631613505,-14.154952139727106,-0.27794853143092524,0.37519259387621856,0,Fixed-Wing
1970-01-01 00:00:58.795681248,1619,1539875326002743304,base_link,0,1,40.5907969,-79.8988476,361.753159755,0.302500013113,0.0,0.0,0.0,0.302500013113,0.0,0.0,0.0,1.21000005245,1,203.06107752502106,56.67276224429639,361.7496797012935,-14.006840140375346,-0.0836458700530177,0.6750876874666959,0,Fixed-Wing
1970-01-01 00:00:59.230460832,1621,1539875326438720168,base_link,0,1,40.5907972,-79.898913,362.183092794,0.302500013113,0.0,0.0,0.0,0.302500013113,0.0,0.0,0.0,1.21000005245,1,197.52444586916369,56.70593301964183,362.1797860567542,-13.837566245432267,0.08290289652360702,1.0749541519477768,0,Fixed-Wing
1970-01-01 00:00:59.638897856,1623,1539875326847051816,base_link,0,1,40.590797,-79.8989776,362.313026868,0.302500013113,0.0,0.0,0.0,0.302500013113,0.0,0.0,0.0,1.21000005245,1,192.05553246889082,56.68358081627065,362.30988710420866,-13.668319687972657,-0.05586430777870539,0.3251583227225242,0,Fixed-Wing
1970-01-01 00:01:00.030320096,1625,1539875327236637448,base_link,0,1,40.590797,-79.8990427,362.232960354,0.302500013113,0.0,0.0,0.0,0.302500013113,0.0,0.0,0.0,1.21000005245,1,186.54428303659245,56.683440159436,362.22998392090483,-13.774129083311765,-0.00035154013997283184,-0.19970004524644616,0,Fixed-Wing
1970-01-01 00:01:00.400140480,1627,1539875327608287144,base_link,0,1,40.5907973,-79.8991084,362.262893108,0.302500013113,0.0,0.0,0.0,0.302500013113,0.0,0.0,0.0,1.21000005245,1,180.98224114613382,56.716619020966846,362.2600763932823,-13.901073414856267,0.08292310612632985,0.07520937022632333,0,Fixed-Wing
1970-01-01 00:01:00.810104832,1629,1539875328017580936,base_link,0,1,40.5907973,-79.8991743,362.292825791,0.302500013113,0.0,0.0,0.0,0.302500013113,0.0,0.0,0.0,1.21000005245,1,175.4032684038247,56.71648593709074,362.2901647134661,-13.943388273173541,-0.000332613232432034,0.07519899275154994,0,Fixed-Wing
1970-01-01 00:01:01.212507456,1631,1539875328415576616,base_link,0,1,40.5907968,-79.8992404,362.192758487,0.302500013113,0.0,0.0,0.0,0.302500013113,0.0,0.0,0.0,1.21000005245,1,169.80736178370415,56.6608293184612,362.19024911902903,-13.985710694200078,-0.13910120722375835,-0.24971656828782152,0,Fixed-Wing
1970-01-01 00:01:01.632917600,1633,1539875328840031112,base_link,0,1,40.5907957,-79.8993066,362.052691341,0.302500013113,0.0,0.0,0.0,0.302500013113,0.0,0.0,0.0,1.21000005245,1,164.2029898753942,56.538544964992326,362.05032959059423,-14.006867779118949,-0.30562225321874326,-0.349697408838443,0,Fixed-Wing
1970-01-01 00:01:02.083503872,1635,1539875329291636296,base_link,0,1,40.5907943,-79.8993734,362.012623716,0.302500013113,0.0,0.0,0.0,0.302500013113,0.0,0.0,0.0,1.21000005245,1,158.54782631937314,56.382948938358396,362.01040621801286,-14.13381008512794,-0.38887729217009515,-0.09977949539975939,0,Fixed-Wing
1970-01-01 00:01:02.528612544,1637,1539875329735279464,base_link,0,1,40.5907929,-79.8994401,361.6825562,0.302500013113,0.0,0.0,0.0,0.302500013113,0.0,0.0,0.0,1.21000005245,1,152.90112147124916,56.22735481421765,361.6804777403257,-14.112669446170582,-0.38887253731604865,-0.8245820654188615,0,Fixed-Wing
1970-01-01 00:01:02.834283840,1639,1539875330042320680,base_link,0,1,40.5907927,-79.8995069,361.322488085,0.302500013113,0.0,0.0,0.0,0.302500013113,0.0,0.0,0.0,1.21000005245,1,147.24594783287063,56.20502732884904,361.32054269011405,-14.133835283714042,-0.0558025306876166,-0.8995767482721884,0,Fixed-Wing
1970-01-01 00:01:03.218147328,1641,1539875330426056200,base_link,0,1,40.5907935,-79.8995742,361.102419047,0.302500013113,0.0,0.0,0.0,0.302500013113,0.0,0.0,0.0,1.21000005245,1,141.54844670995774,56.293756874770054,361.1006016658001,-14.239623316520415,0.22175955453171636,-0.54969314977138,0,Fixed-Wing
1970-01-01 00:01:03.645590752,1643,1539875330853782728,base_link,0,1,40.5907937,-79.8996418,360.912349962,0.302500013113,0.0,0.0,0.0,0.302500013113,0.0,0.0,0.0,1.21000005245,1,135.82555052030548,56.31585919098717,360.91065664093753,-14.303092577283238,0.05523977100919484,-0.47472489193782635,0,Fixed-Wing
1970-01-01 00:01:04.015693696,1645,1539875331223656616,base_link,0,1,40.5907932,-79.8997097,360.882280873,0.302500013113,0.0,0.0,0.0,0.302500013113,0.0,0.0,0.0,1.21000005245,1,130.07726187242562,56.26023025829298,360.8807076893197,-14.36655531865724,-0.1390320124518659,-0.0748506723495824,0,Fixed-Wing
1970-01-01 00:01:04.455723584,1647,1539875331657886504,base_link,0,1,40.5907925,-79.8997776,360.942211876,0.302500013113,0.0,0.0,0.0,0.302500013113,0.0,0.0,0.0,1.21000005245,1,124.32897531610487,56.18239609070744,360.94075385253416,-14.366550091275403,-0.19452900555222946,0.15007188718884412,0,Fixed-Wing
1970-01-01 00:01:04.798583296,1649,1539875332006812968,base_link,0,1,40.5907921,-79.8998457,360.952142556,0.302500013113,0.0,0.0,0.0,0.302500013113,0.0,0.0,0.0,1.21000005245,1,118.56375544083744,56.13788133755705,360.9507945391184,-14.408871115545075,-0.11125461903646662,0.02509443907332247,0,Fixed-Wing
1970-01-01 00:01:05.223599488,1651,1539875332431792968,base_link,0,1,40.5907925,-79.8999136,360.852073112,0.302500013113,0.0,0.0,0.0,0.302500013113,0.0,0.0,0.0,1.21000005245,1,112.81546382346814,56.18221217150426,360.8508288148718,-14.366562740228593,0.11079495433127876,-0.24984185647812493,0,Fixed-Wing
1970-01-01 00:01:05.617489760,1653,1539875332825820328,base_link,0,1,40.5907949,-79.8999812,360.842003143,0.302500013113,0.0,0.0,0.0,0.302500013113,0.0,0.0,0.0,1.21000005245,1,107.09256822077802,56.448653206948336,360.8408550023405,-14.303091110303301,0.6659094748624766,-0.02492730241058542,0,Fixed-Wing
1970-01-01 00:01:06.037440576,1655,1539875333245623336,base_link,0,1,40.5907986,-79.9000488,360.901932636,0.302500013113,0.0,0.0,0.0,0.302500013113,0.0,0.0,0.0,1.21000005245,1,101.36967219321836,56.85946725716485,360.9008742221542,-14.30309217216921,1.0267373717034949,0.1500045482152236,0,Fixed-Wing
1970-01-01 00:01:06.399370272,1657,1539875333607367208,base_link,0,1,40.5908035,-79.900116,360.851862043,0.302500013113,0.0,0.0,0.0,0.302500013113,0.0,0.0,0.0,1.21000005245,1,95.68063659068596,57.40354791793885,360.8508864942114,-14.218465651292123,1.3598073078157336,-0.12493308926105888,0,Fixed-Wing
1970-01-01 00:01:06.803035168,1659,1539875334011081512,base_link,0,1,40.590811,-79.900183,360.751790571,0.302500013113,0.0,0.0,0.0,0.302500013113,0.0,0.0,0.0,1.21000005245,1,90.00852934338343,58.236368649414686,360.7508898989246,-14.176157032716848,2.08144820870906,-0.24991901170366876,0,Fixed-Wing
1970-01-01 00:01:07.217362208,1661,1539875334423107688,base_link,0,1,40.590823,-79.9002492,360.681718037,0.302500013113,0.0,0.0,0.0,0.302500013113,0.0,0.0,0.0,1.21000005245,1,84.40414477945802,59.568930078441014,360.68088154404484,-14.006899408984912,3.3304377456195886,-0.1749701458570678,0,Fixed-Wing
1970-01-01 00:01:07.583521568,1663,1539875334791756232,base_link,0,1,40.5908406,-79.9003143,360.861644287,0.302500013113,0.0,0.0,0.0,0.302500013113,0.0,0.0,0.0,1.21000005245,1,78.89288276239316,61.523391984206825,360.860859642542,-13.774160536106692,4.884738190339329,0.44981479995087637,0,Fixed-Wing
1970-01-01 00:01:08.012838560,1665,1539875335221083816,base_link,0,1,40.5908629,-79.9003774,361.121570619,0.302500013113,0.0,0.0,0.0,0.302500013113,0.0,0.0,0.0,1.21000005245,1,73.55093525591884,63.99980640890462,361.12082529248863,-13.350996977062433,6.189241181801761,0.6497257044123467,0,Fixed-Wing
1970-01-01 00:01:08.412677792,1667,1539875335620987240,base_link,0,1,40.5908891,-79.9004386,361.091497267,0.302500013113,0.0,0.0,0.0,0.302500013113,0.0,0.0,0.0,1.21000005245,1,68.36983408096825,66.90932732818649,361.090779567251,-12.948997728035364,7.27169350708763,-0.07509253625858955,0,Fixed-Wing
1970-01-01 00:01:08.805410848,1669,1539875336013515848,base_link,0,1,40.5909199,-79.9004961,361.181425773,0.302500013113,0.0,0.0,0.0,0.302500013113,0.0,0.0,0.0,1.21000005245,1,63.50196847020937,70.32969645419621,361.1807214357409,-12.166135847501415,8.548443766332056,0.22478948227493034,0,Fixed-Wing
1970-01-01 00:01:09.208828480,1671,1539875336416991048,base_link,0,1,40.5909564,-79.9005477,361.641357922,0.302500013113,0.0,0.0,0.0,0.302500013113,0.0,0.0,0.0,1.21000005245,1,59.133587592303975,74.38307534104973,361.6406494259286,-10.91778603681281,10.130509369416675,1.1494866243481385,0,Fixed-Wing
1970-01-01 00:01:09.685358688,1673,1539875336893361832,base_link,0,1,40.5909977,-79.9005923,362.381295212,0.302500013113,0.0,0.0,0.0,0.302500013113,0.0,0.0,0.0,1.21000005245,1,55.357814770039475,78.96951643574084,362.38056528514085,-9.436695413991192,11.4627785309538,1.8492533645549298,0,Fixed-Wing
1970-01-01 00:01:10.039824608,1675,1539875337248085960,base_link,0,1,40.5910418,-79.9006306,362.911237766,0.302500013113,0.0,0.0,0.0,0.302500013113,0.0,0.0,0.0,1.21000005245,1,52.11538646904283,83.86690806399207,362.9104724505496,-8.103720673496293,12.239929491075657,1.3243838422076557,0,Fixed-Wing
1970-01-01 00:01:10.397420096,1677,1539875337605653608,base_link,0,1,40.5910876,-79.9006641,362.951184516,0.302500013113,0.0,0.0,0.0,0.302500013113,0.0,0.0,0.0,1.21000005245,1,49.27931441792697,88.95308678474404,362.95037263790385,-7.088124571663875,12.711760391366438,0.09972154913637252,0,Fixed-Wing
1970-01-01 00:01:10.847511232,1679,1539875338055469608,base_link,0,1,40.5911357,-79.9006921,362.551135924,0.302500013113,0.0,0.0,0.0,0.302500013113,0.0,0.0,0.0,1.21000005245,1,46.908859034169616,94.29468348506833,362.5502649753382,-5.924420377483911,13.350120215948095,-0.9999791624569649,0,Fixed-Wing
1970-01-01 00:01:11.184769248,1681,1539875338393138280,base_link,0,1,40.5911859,-79.9007141,361.871092583,0.302500013113,0.0,0.0,0.0,0.302500013113,0.0,0.0,0.0,1.21000005245,1,45.04635006153809,99.86948887330539,361.87014998285747,-4.654922504052634,13.93297290844918,-1.6997945407850554,0,Fixed-Wing
1970-01-01 00:01:11.602278336,1683,1539875338810428456,base_link,0,1,40.5912385,-79.9007308,361.111053655,0.302500013113,0.0,0.0,0.0,0.302500013113,0.0,0.0,0.0,1.21000005245,1,43.63252746994209,105.71082043345868,361.11002650196923,-3.5335317547811185,14.599095162786023,-1.8997577724665835,0,Fixed-Wing
1970-01-01 00:01:12.016388000,1685,1539875339224606824,base_link,0,1,40.5912934,-79.9007414,360.391019998,0.302500013113,0.0,0.0,0.0,0.302500013113,0.0,0.0,0.0,1.21000005245,1,42.73511713457408,111.80757486774075,360.3898947009378,-2.242875404552699,15.237467220211327,-1.7998075583866027,0,Fixed-Wing
1970-01-01 00:01:12.399720448,1687,1539875339608049480,base_link,0,1,40.5913498,-79.9007462,359.910991638,0.302500013113,0.0,0.0,0.0,0.302500013113,0.0,0.0,0.0,1.21000005245,1,42.32872228401605,118.07091375756458,359.90975590541063,-1.0156925755481658,15.653807620349667,-1.199998989111113,0,Fixed-Wing
1970-01-01 00:01:12.798749408,1689,1539875340007042856,base_link,0,1,40.5914069,-79.9007449,359.780969214,0.302500013113,0.0,0.0,0.0,0.302500013113,0.0,0.0,0.0,1.21000005245,1,42.43873999798335,124.41199815483888,359.7796119238775,0.2749645452001297,15.848115039824203,-0.3252656268010721,0,Fixed-Wing
1970-01-01 00:01:13.210783680,1691,1539875340418451080,base_link,0,1,40.591464,-79.9007413,359.810949147,0.302500013113,0.0,0.0,0.0,0.302500013113,0.0,0.0,0.0,1.21000005245,1,42.74347037547176,130.7530867593531,359.8094626774415,0.7616050782483363,15.848125554874615,0.07460524838798141,0,Fixed-Wing
1970-01-01 00:01:13.607683264,1693,1539875340815844840,base_link,0,1,40.5915209,-79.9007372,360.090929689,0.302500013113,0.0,0.0,0.0,0.302500013113,0.0,0.0,0.0,1.21000005245,1,43.09053066714531,137.07197066718837,360.0893079009379,0.8673991834206832,15.792629906915172,0.6994102297743875,0,Fixed-Wing
1970-01-01 00:01:14.036978976,1695,1539875341244812328,base_link,0,1,40.5915775,-79.9007345,360.600908946,0.302500013113,0.0,0.0,0.0,0.302500013113,0.0,0.0,0.0,1.21000005245,1,43.31907212526937,143.35754401013597,360.59914710004915,0.5711880007899284,15.709377637854022,1.2742284715213605,0,Fixed-Wing
1970-01-01 00:01:14.405117696,1697,1539875341613333416,base_link,0,1,40.5916332,-79.9007341,361.21088625,0.302500013113,0.0,0.0,0.0,0.302500013113,0.0,0.0,0.0,1.21000005245,1,43.35290315954353,149.54317255118266,361.20898180339145,0.08455306529645877,15.459588072075839,1.5241447563764035,0,Fixed-Wing
1970-01-01 00:01:14.814562400,1699,1539875342022656232,base_link,0,1,40.5916881,-79.900734,361.620863596,0.302500013113,0.0,0.0,0.0,0.302500013113,0.0,0.0,0.0,1.21000005245,1,43.361336189069654,155.63995542639816,361.61881288050756,0.02107646164143374,15.237538301931178,1.0242806514013674,0,Fixed-Wing
1970-01-01 00:01:15.228483808,1701,1539875342436746248,base_link,0,1,40.5917419,-79.9007339,361.960841413,0.302500013113,0.0,0.0,0.0,0.302500013113,0.0,0.0,0.0,1.21000005245,1,43.369769442304346,161.61457979168858,361.9586416896949,0.021077020750712334,14.932230566361815,0.8493257185099777,0,Fixed-Wing
1970-01-01 00:01:15.691201344,1703,1539875342899266824,base_link,0,1,40.5917951,-79.9007344,361.980818882,0.302500013113,0.0,0.0,0.0,0.302500013113,0.0,0.0,0.0,1.21000005245,1,43.32740675098342,167.52256471716674,361.9784666428463,-0.10587602425527781,14.765680266418139,0.049548013954416256,0,Fixed-Wing
1970-01-01 00:01:16.030520192,1705,1539875343238655912,base_link,0,1,40.591848,-79.9007339,361.880797506,0.302500013113,0.0,0.0,0.0,0.302500013113,0.0,0.0,0.0,1.21000005245,1,43.36970034958401,173.39723125601273,361.8782875974154,0.10570334253213265,14.682408448664852,-0.25037500482579433,0,Fixed-Wing
1970-01-01 00:01:16.434600320,1707,1539875343642694472,base_link,0,1,40.5919012,-79.9007314,361.720778056,0.302500013113,0.0,0.0,0.0,0.302500013113,0.0,0.0,0.0,1.21000005245,1,43.58130682514933,179.30521266240245,361.7181029625247,0.5288628186958919,14.765671471247645,-0.4003454870355033,0,Fixed-Wing
1970-01-01 00:01:16.807141600,1709,1539875344014971336,base_link,0,1,40.5919547,-79.9007277,361.480759717,0.302500013113,0.0,0.0,0.0,0.302500013113,0.0,0.0,0.0,1.21000005245,1,43.89450025239858,185.24650780206142,361.47791227773627,0.7827565687181862,14.848931658966304,-0.6003026242100908,0,Fixed-Wing
1970-01-01 00:01:17.244211520,1711,1539875344452515304,base_link,0,1,40.5920083,-79.9007244,361.230740944,0.302500013113,0.0,0.0,0.0,0.302500013113,0.0,0.0,0.0,1.21000005245,1,44.17383036884051,191.19890729527066,361.2277154974881,0.6981228354825433,14.876684494519694,-0.6253106105434139,0,Fixed-Wing
1970-01-01 00:01:17.604853248,1713,1539875344812915368,base_link,0,1,40.5920623,-79.900721,360.910722121,0.302500013113,0.0,0.0,0.0,0.302500013113,0.0,0.0,0.0,1.21000005245,1,44.461624921968934,197.1957251998985,360.9075116516677,0.7192777922612971,14.98769832905419,-0.8002775340661246,0,Fixed-Wing
1970-01-01 00:01:18.029072416,1715,1539875345237073960,base_link,0,1,40.5921168,-79.9007179,360.510702801,0.302500013113,0.0,0.0,0.0,0.302500013113,0.0,0.0,0.0,1.21000005245,1,44.724021143204055,203.2480660222374,360.5073000489387,0.6558003709802198,15.12646538088677,-1.0002389375305487,0,Fixed-Wing
1970-01-01 00:01:18.404883968,1717,1539875345613074440,base_link,0,1,40.5921716,-79.9007159,360.170682253,0.302500013113,0.0,0.0,0.0,0.302500013113,0.0,0.0,0.0,1.21000005245,1,44.89329507505538,209.33372325855964,360.167081008538,0.4230621416072386,15.20973226844777,-0.8503010137078034,0,Fixed-Wing
