time,field.header.seq,field.header.stamp,field.header.frame_id,field.status.status,field.status.service,lat,lon,alt,field.position_covariance0,field.position_covariance1,field.position_covariance2,field.position_covariance3,field.position_covariance4,field.position_covariance5,field.position_covariance6,field.position_covariance7,field.position_covariance8,field.position_covariance_type,x,y,z,vel_x,vel_y,vel_z,track_id,uav_category
1970-01-01 00:00:00.000000000,10960,1536693419520305432,base_link,0,1,40.5914808,-79.8982403,382.713493477,0.489999983311,0.0,0.0,0.0,0.489999983311,0.0,0.0,0.0,1.95999993324,1,240.1481615506563,143.38399246207425,382.7073636088952,-17.27079523116512,5.024714228759756,-0.4497138706061127,0,Fixed-Wing
1970-01-01 00:00:00.382653248,10962,1536693419903046712,base_link,0,1,40.5914989,-79.8983219,382.5334025,0.592899970627,0.0,0.0,0.0,0.592899970627,0.0,0.0,0.0,2.37159988251,1,233.2400334369378,145.39382288172163,382.52748300750534,-17.27079523116512,5.024714228759756,-0.4497138706061127,0,Fixed-Wing
1970-01-01 00:00:00.811857696,10964,1536693420325402104,base_link,0,1,40.5915217,-79.8984013,382.193311824,0.592899970627,0.0,0.0,0.0,0.592899970627,0.0,0.0,0.0,2.37159988251,1,226.5181344726318,147.92560919635054,382.1875758847834,-16.805209554027755,6.329639851668178,-0.8497911760621193,0,Fixed-Wing
1970-01-01 00:00:01.146467296,10966,1536693420666928088,base_link,0,1,40.5915498,-79.8984772,381.623222528,0.592899970627,0.0,0.0,0.0,0.592899970627,0.0,0.0,0.0,2.37159988251,1,220.09251670048522,151.04598382690583,381.61763791610986,-16.064486203737054,7.801151108043696,-1.4248841059968427,0,Fixed-Wing
1970-01-01 00:00:01.560441824,10968,1536693421080986840,base_link,0,1,40.5915832,-79.8985488,380.86313543,0.592899970627,0.0,0.0,0.0,0.592899970627,0.0,0.0,0.0,2.37159988251,1,214.03090917083892,154.75494843852843,380.8576676744102,-15.154435571093943,9.272666527386017,-1.8999778536400949,0,Fixed-Wing
1970-01-01 00:00:01.959292416,10970,1536693421479249816,base_link,0,1,40.5916199,-79.8986165,379.713050959,0.592899970627,0.0,0.0,0.0,0.592899970627,0.0,0.0,0.0,2.37159988251,1,208.29944992067198,158.8303903628201,379.70767225122137,-14.329042174077161,10.188885005066842,-2.8750676223317164,0,Fixed-Wing
1970-01-01 00:00:02.360017280,10972,1536693421879762424,base_link,0,1,40.5916587,-79.8986812,378.082968697,0.592899970627,0.0,0.0,0.0,0.592899970627,0.0,0.0,0.0,2.37159988251,1,202.82194932991416,163.139040370342,378.0776572478885,-13.694128065416333,10.77192124663901,-4.075149574945455,0,Fixed-Wing
1970-01-01 00:00:02.803208448,10974,1536693422323230136,base_link,0,1,40.5916989,-79.8987439,375.982887914,0.592899970627,0.0,0.0,0.0,0.592899970627,0.0,0.0,0.0,2.37159988251,1,197.51375366399157,167.603157958808,375.97762678507235,-13.270854113294607,11.160600887689402,-5.250220538105209,0,Fixed-Wing
1970-01-01 00:00:03.204830784,10976,1536693422725243000,base_link,0,1,40.5917408,-79.8988056,373.522807465,0.592899970627,0.0,0.0,0.0,0.592899970627,0.0,0.0,0.0,2.37159988251,1,192.29020927747285,172.25605818469916,373.5175814538003,-13.059220094849385,11.63257046041556,-6.150282460947817,0,Fixed-Wing
1970-01-01 00:00:03.594710432,10978,1536693423115286360,base_link,0,1,40.5917843,-79.8988673,370.882726372,0.489999983311,0.0,0.0,0.0,0.489999983311,0.0,0.0,0.0,1.95999993324,1,187.06666570340678,177.08663749927362,370.87752286456475,-13.059218063661927,12.076780397897103,-6.600327982108349,0,Fixed-Wing
1970-01-01 00:00:03.953194144,10980,1536693423472684216,base_link,0,1,40.5918292,-79.8989301,368.202643596,0.489999983311,0.0,0.0,0.0,0.489999983311,0.0,0.0,0.0,1.95999993324,1,181.7500056415651,182.07268652185869,368.19745285545025,-13.292015685035523,12.465465356759971,-6.700359282666528,0,Fixed-Wing
1970-01-01 00:00:04.392940704,10982,1536693423913512664,base_link,0,1,40.5918753,-79.8989942,365.542559018,0.489999983311,0.0,0.0,0.0,0.489999983311,0.0,0.0,0.0,1.95999993324,1,176.32330063802743,187.19199604723275,365.53737183096456,-13.567135605073332,12.79862577564399,-6.650385446814017,0,Fixed-Wing
1970-01-01 00:00:04.752708640,10984,1536693424273202584,base_link,0,1,40.5919222,-79.89906,362.902472398,0.489999983311,0.0,0.0,0.0,0.489999983311,0.0,0.0,0.0,1.95999993324,1,170.75268960962643,192.4001444790527,362.89728119989525,-13.926910561042938,13.02072914960149,-6.600408088895728,0,Fixed-Wing
1970-01-01 00:00:05.151922496,10986,1536693424672377336,base_link,0,1,40.5919697,-79.8991275,360.28238382,0.592899970627,0.0,0.0,0.0,0.592899970627,0.0,0.0,0.0,2.37159988251,1,165.03817367522817,197.6749216186809,360.27718113867195,-14.286682719770454,13.187305499971783,-6.5504302898912155,0,Fixed-Wing
1970-01-01 00:00:05.550316000,10988,1536693425070430584,base_link,0,1,40.5920184,-79.8991971,357.96229263,0.489999983311,0.0,0.0,0.0,0.489999983311,0.0,0.0,0.0,1.95999993324,1,159.14589634200308,203.08296734312762,357.957069159899,-14.731098438269756,13.520486124485195,-5.8004394590175155,0,Fixed-Wing
1970-01-01 00:00:05.978640000,10990,1536693425498966200,base_link,0,1,40.5920684,-79.8992686,356.172198991,0.489999983311,0.0,0.0,0.0,0.489999983311,0.0,0.0,0.0,1.95999993324,1,153.0927942568081,208.63539580975709,356.1669438231995,-15.133171375200266,13.881452906528592,-4.475436416250135,0,Fixed-Wing
1970-01-01 00:00:06.357953152,10992,1536693425877585304,base_link,0,1,40.5921196,-79.899342,355.242102948,0.489999983311,0.0,0.0,0.0,0.489999983311,0.0,0.0,0.0,1.95999993324,1,146.87887456625347,214.32111457205173,355.2368047162911,-15.535226445113823,14.21468780965137,-2.3254117160932615,0,Fixed-Wing
1970-01-01 00:00:06.800442528,10994,1536693426320930200,base_link,0,1,40.5921711,-79.8994163,355.342005894,0.489999983311,0.0,0.0,0.0,0.489999983311,0.0,0.0,0.0,1.95999993324,1,140.58879750578308,220.0401867502457,355.33665399266926,-15.7256251058664,14.298073642510127,0.24963005577194758,0,Fixed-Wing
1970-01-01 00:00:07.201746592,10996,1536693426722302648,base_link,0,1,40.5922218,-79.8994903,356.211909508,0.489999983311,0.0,0.0,0.0,0.489999983311,0.0,0.0,0.0,1.95999993324,1,134.32414457875063,225.67045044235772,356.20649522231025,-15.662063024314278,14.076046321553868,2.174662877331619,0,Fixed-Wing
1970-01-01 00:00:07.548214464,10998,1536693427068705240,base_link,0,1,40.592271,-79.8995628,357.521815301,0.489999983311,0.0,0.0,0.0,0.489999983311,0.0,0.0,0.0,1.95999993324,1,128.18649546624604,231.13416075281282,357.516331008894,-15.344544756242273,13.659651416551704,3.2746795201461363,0,Fixed-Wing
1970-01-01 00:00:07.960482144,11000,1536693427480696216,base_link,0,1,40.592319,-79.8996333,358.981723656,0.489999983311,0.0,0.0,0.0,0.489999983311,0.0,0.0,0.0,1.95999993324,1,122.21817030056891,236.4646240039512,358.9761604845735,-14.921223247832138,13.326524607272658,3.6496740552352653,0,Fixed-Wing
1970-01-01 00:00:08.398957056,11002,1536693427919477912,base_link,0,1,40.5923657,-79.8997012,360.481635223,0.489999983311,0.0,0.0,0.0,0.489999983311,0.0,0.0,0.0,1.95999993324,1,116.46995996724374,241.65073145005204,360.47598460542474,-14.370921033641364,12.96562516994426,3.749663417872137,0,Fixed-Wing
1970-01-01 00:00:08.754752192,11004,1536693428275062008,base_link,0,1,40.5924116,-79.8997667,361.69154959,0.489999983311,0.0,0.0,0.0,0.489999983311,0.0,0.0,0.0,1.95999993324,1,110.92492593372832,246.74799570508134,361.68580204514217,-13.862966315362225,12.743511084128068,3.02462677652992,0,Fixed-Wing
1970-01-01 00:00:09.196319264,11006,1536693428715845144,base_link,0,1,40.5924569,-79.8998301,362.561466368,0.489999983311,0.0,0.0,0.0,0.489999983311,0.0,0.0,0.0,1.95999993324,1,105.55767049104264,251.77862370394126,362.55561270085957,-13.418507615673619,12.576915862336033,2.174586440420615,0,Fixed-Wing
1970-01-01 00:00:09.578101984,11008,1536693429098455864,base_link,0,1,40.5925023,-79.899891,363.031385674,0.489999983311,0.0,0.0,0.0,0.489999983311,0.0,0.0,0.0,1.95999993324,1,100.40205448883063,256.820348919858,363.0254136271801,-12.889394463877792,12.60465966793276,1.1745346155032887,0,Fixed-Wing
1970-01-01 00:00:10.038168960,11010,1536693429558285784,base_link,0,1,40.5925488,-79.8999491,363.121307402,0.489999983311,0.0,0.0,0.0,0.489999983311,0.0,0.0,0.0,1.95999993324,1,95.48347420304977,261.98422349656744,363.1152002503894,-12.29678887614625,12.910041467913913,0.22447273102336948,0,Fixed-Wing
1970-01-01 00:00:10.342842624,11012,1536693429862977976,base_link,0,1,40.5925976,-79.9000035,362.901231974,0.489999983311,0.0,0.0,0.0,0.489999983311,0.0,0.0,0.0,1.95999993324,1,90.87811996525676,267.4035127639229,362.89496656195666,-11.513702221293608,13.548595754771888,-0.5505993625643617,0,Fixed-Wing
1970-01-01 00:00:10.739672800,11014,1536693430260191064,base_link,0,1,40.5926496,-79.9000524,362.451160854,0.489999983311,0.0,0.0,0.0,0.489999983311,0.0,0.0,0.0,1.95999993324,1,86.73837263354939,273.1781676697889,362.44470769249415,-10.349652944724403,14.437034283107753,-1.1256781298048597,0,Fixed-Wing
1970-01-01 00:00:11.270593504,11016,1536693430790912728,base_link,0,1,40.5927056,-79.9000942,361.911095344,0.489999983311,0.0,0.0,0.0,0.489999983311,0.0,0.0,0.0,1.95999993324,1,83.19968211980671,279.3970362869228,361.9044192179937,-8.84696957602004,15.547599101810103,-1.3507583321053112,0,Fixed-Wing
1970-01-01 00:00:11.551474048,11018,1536693431071994072,base_link,0,1,40.5927664,-79.900126,361.331038066,0.489999983311,0.0,0.0,0.0,0.489999983311,0.0,0.0,0.0,1.95999993324,1,80.5075486807676,286.14896417322916,361.32409637310906,-6.730518686861666,16.880283923573803,-1.4508470105043385,0,Fixed-Wing
1970-01-01 00:00:11.982072960,11020,1536693431502560952,base_link,0,1,40.5928315,-79.9001447,360.860992382,0.489999983311,0.0,0.0,0.0,0.489999983311,0.0,0.0,0.0,1.95999993324,1,78.9244051732568,293.3784336748994,360.853741215342,-3.9579676128863484,18.07417079387239,-1.1759202322240705,0,Fixed-Wing
1970-01-01 00:00:12.364412032,11022,1536693431884739096,base_link,0,1,40.5928997,-79.9001467,360.690962444,0.489999983311,0.0,0.0,0.0,0.489999983311,0.0,0.0,0.0,1.95999993324,1,78.7550118836808,300.95219376187475,360.68335964766123,-0.42349487004894404,18.934920927763937,-0.4259656332567881,0,Fixed-Wing
1970-01-01 00:00:12.786642400,11024,1536693432306432760,base_link,0,1,40.5929677,-79.9001307,360.890950922,0.489999983311,0.0,0.0,0.0,0.489999983311,0.0,0.0,0.0,1.95999993324,1,80.10942124047358,308.50377723027805,360.88296962463096,3.386116510185995,18.87947785664929,0.49903866598762786,0,Fixed-Wing
1970-01-01 00:00:13.177729152,11026,1536693432698143448,base_link,0,1,40.5930323,-79.9000967,361.430959121,0.489999983311,0.0,0.0,0.0,0.489999983311,0.0,0.0,0.0,1.95999993324,1,82.98763257161166,315.67781718586735,361.4225891980766,7.195726210315972,17.93559311778401,1.349086033480006,0,Fixed-Wing
1970-01-01 00:00:13.593076672,11028,1536693433113387192,base_link,0,1,40.5930907,-79.900046,362.160986856,0.489999983311,0.0,0.0,0.0,0.489999983311,0.0,0.0,0.0,1.95999993324,1,87.27959249228475,322.16336090429036,362.1522346584595,10.73019488204199,16.21430518945022,1.8241638154622406,0,Fixed-Wing
1970-01-01 00:00:13.969182400,11030,1536693433489710552,base_link,0,1,40.593141,-79.8999815,362.96103195,0.489999983311,0.0,0.0,0.0,0.489999983311,0.0,0.0,0.0,1.95999993324,1,92.7398000990123,327.7494023738585,362.95191752849314,13.650894416415328,13.96548772483283,1.9992621547933092,0,Fixed-Wing
1970-01-01 00:00:14.351376384,11032,1536693433871857272,base_link,0,1,40.5931827,-79.8999067,363.631091042,0.489999983311,0.0,0.0,0.0,0.489999983311,0.0,0.0,0.0,1.95999993324,1,99.0719598491515,332.3804033869823,363.6216413186789,15.830834723302885,11.577820922884898,1.6743555202411617,0,Fixed-Wing
1970-01-01 00:00:14.764074720,11034,1536693434284625624,base_link,0,1,40.5932153,-79.8998238,364.061162097,0.489999983311,0.0,0.0,0.0,0.489999983311,0.0,0.0,0.0,1.95999993324,1,106.0898300796703,336.00083089397106,364.05140951715646,17.5451580681439,9.051317678707997,1.0744500435701356,0,Fixed-Wing
1970-01-01 00:00:15.197042624,11036,1536693434717549144,base_link,0,1,40.5932383,-79.8997343,364.261243793,0.489999983311,0.0,0.0,0.0,0.489999983311,0.0,0.0,0.0,1.95999993324,1,113.66643033713942,338.5551585926426,364.2512254845533,18.94202154926538,6.3859948615375846,0.4995536562176217,0,Fixed-Wing
1970-01-01 00:00:15.588297248,11038,1536693435108409304,base_link,0,1,40.5932509,-79.8996399,364.191334729,0.489999983311,0.0,0.0,0.0,0.489999983311,0.0,0.0,0.0,1.95999993324,1,121.65784954590549,339.95454137468647,364.1810945995195,19.979097447094983,3.498553165321692,-0.1753320342154183,0,Fixed-Wing
1970-01-01 00:00:16.004178720,11040,1536693435522510456,base_link,0,1,40.5932525,-79.8995424,363.91143332,0.489999983311,0.0,0.0,0.0,0.489999983311,0.0,0.0,0.0,1.95999993324,1,129.9117133659581,340.13234953673395,363.90102115172135,20.635227018874524,0.44453262976602764,-0.7002028750744271,0,Fixed-Wing
1970-01-01 00:00:16.396545504,11042,1536693435916802968,base_link,0,1,40.5932435,-79.8994442,363.511536964,0.489999983311,0.0,0.0,0.0,0.489999983311,0.0,0.0,0.0,1.95999993324,1,138.22485386552046,339.13300608037014,363.5010036546795,20.783422793032724,-2.4984273476616043,-1.0000712445638715,0,Fixed-Wing
1970-01-01 00:00:16.774871520,11044,1536693436295235864,base_link,0,1,40.5932247,-79.8993479,363.231642693,0.489999983311,0.0,0.0,0.0,0.489999983311,0.0,0.0,0.0,1.95999993324,1,146.37717496492868,337.0453617837457,363.2210386944613,20.381363236009555,-5.2192542710535355,-0.6999316486658244,0,Fixed-Wing
1970-01-01 00:00:17.205578432,11046,1536693436725713624,base_link,0,1,40.5931991,-79.8992546,363.191748166,0.5625,0.0,0.0,0.0,0.5625,0.0,0.0,0.0,2.25,1,154.27555590853905,334.20257770237845,363.1811082339812,19.74649538764907,-7.1071556501985205,-0.09982889649488659,0,Fixed-Wing
1970-01-01 00:00:17.580374976,11048,1536693437100941624,base_link,0,1,40.5931709,-79.8991646,363.391851364,0.489999983311,0.0,0.0,0.0,0.489999983311,0.0,0.0,0.0,1.95999993324,1,161.8945930132315,331.0710722366098,363.3811865782684,19.048116584937254,-7.828978961343109,0.5002096164824335,0,Fixed-Wing
1970-01-01 00:00:17.962726912,11050,1536693437483183128,base_link,0,1,40.5931431,-79.8990761,363.731952893,0.489999983311,0.0,0.0,0.0,0.489999983311,0.0,0.0,0.0,1.95999993324,1,169.38665685202167,327.9839996668021,363.7212537020956,18.730674690529387,-7.717893666595017,0.8501911898257833,0,Fixed-Wing
1970-01-01 00:00:18.388059296,11052,1536693437908490744,base_link,0,1,40.5931181,-79.8989891,364.092051771,0.489999983311,0.0,0.0,0.0,0.489999983311,0.0,0.0,0.0,1.95999993324,1,176.7517379639188,325.20787905512867,364.0812955205875,18.413209142994248,-6.940492392724386,0.9001292997854428,0,Fixed-Wing
1970-01-01 00:00:18.742799872,11054,1536693438263325496,base_link,0,1,40.5930969,-79.8989028,364.342148401,0.489999983311,0.0,0.0,0.0,0.489999983311,0.0,0.0,0.0,1.95999993324,1,184.05755308743994,322.8537575398735,364.33130569794633,18.265040097405535,-5.885465638442919,0.6250426320694601,0,Fixed-Wing
1970-01-01 00:00:19.223917344,11056,1536693438744236248,base_link,0,1,40.5930793,-79.8988169,364.242243167,0.50409996953,0.0,0.0,0.0,0.50409996953,0.0,0.0,0.0,2.01639987812,1,191.32949052200092,320.89941317627336,364.23128564825373,18.18034354584997,-4.88599527387046,-0.2500570007990287,0,Fixed-Wing
1970-01-01 00:00:19.607661024,11058,1536693439128163544,base_link,0,1,40.5930654,-79.8987309,363.852336536,0.50409996953,0.0,0.0,0.0,0.50409996953,0.0,0.0,0.0,2.01639987812,1,198.6098771101767,319.35595554661046,363.8412344491988,18.201467010782267,-3.8587501897874597,-0.9751548143947398,0,Fixed-Wing
1970-01-01 00:00:19.950254688,11060,1536693439470256056,base_link,0,1,40.593055,-79.8986445,363.242428895,0.489999983311,0.0,0.0,0.0,0.489999983311,0.0,0.0,0.0,1.95999993324,1,205.92411013305696,318.2011785320848,363.23115305129045,18.28608542454979,-2.887021929417253,-1.5252454390204369,0,Fixed-Wing
1970-01-01 00:00:20.398923808,11062,1536693439919446520,base_link,0,1,40.5930483,-79.8985575,362.552520364,0.489999983311,0.0,0.0,0.0,0.489999983311,0.0,0.0,0.0,1.95999993324,1,213.28912280289896,317.457300179774,362.54103999394056,18.41303803315092,-1.8597470238201232,-1.7253300899521997,0,Fixed-Wing
1970-01-01 00:00:20.807350144,11064,1536693440324726904,base_link,0,1,40.5930448,-79.8984699,361.962611146,0.489999983311,0.0,0.0,0.0,0.489999983311,0.0,0.0,0.0,1.95999993324,1,220.70492148703394,317.06880332561184,361.9508982190331,18.540006560517874,-0.9712688452986359,-1.4753950106314557,0,Fixed-Wing
1970-01-01 00:00:21.216667008,11066,1536693440736895096,base_link,0,1,40.5930439,-79.8983821,361.46270108,0.489999983311,0.0,0.0,0.0,0.489999983311,0.0,0.0,0.0,1.95999993324,1,228.13764501803442,316.96905504945624,361.450731980426,18.58231984129683,-0.24937754827156333,-1.250449983892326,0,Fixed-Wing
1970-01-01 00:00:21.586877376,11068,1536693441107100088,base_link,0,1,40.5930451,-79.8982942,361.062790267,0.489999983311,0.0,0.0,0.0,0.489999983311,0.0,0.0,0.0,1.95999993324,1,235.57882943541807,317.1025293870104,361.0505444104331,18.603472638956703,0.33369502049846883,-1.0004964386343342,0,Fixed-Wing
1970-01-01 00:00:21.933355168,11070,1536693441453866424,base_link,0,1,40.5930475,-79.8982063,360.802878974,0.489999983311,0.0,0.0,0.0,0.489999983311,0.0,0.0,0.0,1.95999993324,1,243.02001363498212,317.36928093131206,360.7903410472719,18.603472094392718,0.6668972004271505,-0.6505262973760967,0,Fixed-Wing
1970-01-01 00:00:22.386529824,11072,1536693441906989208,base_link,0,1,40.5930501,-79.8981186,360.592967407,0.50409996953,0.0,0.0,0.0,0.50409996953,0.0,0.0,0.0,2.01639987812,1,250.4442668494067,317.6582522791384,360.5801282811895,18.561143467506774,0.7224482368924185,-0.5255463677311294,0,Fixed-Wing
1970-01-01 00:00:22.825117344,11074,1536693442345601912,base_link,0,1,40.5930525,-79.8980312,360.503055629,0.489999983311,0.0,0.0,0.0,0.489999983311,0.0,0.0,0.0,1.95999993324,1,257.84312802170524,317.9250256485632,360.48990879950037,18.497661616440833,0.6669517647354165,-0.22555490698277306,0,Fixed-Wing
1970-01-01 00:00:23.185099200,11076,1536693442705618264,base_link,0,1,40.5930545,-79.897944,360.453143824,0.489999983311,0.0,0.0,0.0,0.489999983311,0.0,0.0,0.0,1.95999993324,1,265.2250606378055,318.1473868185146,360.43968363223337,18.455339062074817,0.5559182126293426,-0.1255663712427125,0,Fixed-Wing
1970-01-01 00:00:23.581713728,11078,1536693443102316952,base_link,0,1,40.5930558,-79.8978567,360.47323242,0.489999983311,0.0,0.0,0.0,0.489999983311,0.0,0.0,0.0,1.95999993324,1,272.6154640559383,318.29202246616643,360.4594538526841,18.476516649539843,0.36159906310386813,0.049426910366808914,0,Fixed-Wing
1970-01-01 00:00:24.021394432,11080,1536693443541924632,base_link,0,1,40.5930564,-79.8977699,360.473320807,0.489999983311,0.0,0.0,0.0,0.489999983311,0.0,0.0,0.0,1.95999993324,1,279.9635416293162,318.3589262115763,360.45922105692347,18.37069912767078,0.16726396328371135,-0.0005820054066733353,0,Fixed-Wing
1970-01-01 00:00:24.365241472,11082,1536693443885745272,base_link,0,1,40.5930566,-79.8976828,360.363409677,0.489999983311,0.0,0.0,0.0,0.489999983311,0.0,0.0,0.0,1.95999993324,1,287.3370124251779,318.3814117372305,360.3489813688413,18.434183929712297,0.056215360057876695,-0.2756067993924191,0,Fixed-Wing
1970-01-01 00:00:24.818906752,11084,1536693444339083032,base_link,0,1,40.593057,-79.8975957,360.153498477,0.489999983311,0.0,0.0,0.0,0.489999983311,0.0,0.0,0.0,1.95999993324,1,294.7104774295153,318.4261100197313,360.13873198990535,18.434169450503507,0.11174877934344081,-0.5256379023821691,0,Fixed-Wing
1970-01-01 00:00:25.159284256,11086,1536693444679619160,base_link,0,1,40.5930578,-79.8975084,359.96358733,0.489999983311,0.0,0.0,0.0,0.489999983311,0.0,0.0,0.0,1.95999993324,1,302.1008720642682,318.5152382119283,359.94847112604157,18.476494690486117,0.22282660822421332,-0.47566524045357345,0,Fixed-Wing
1970-01-01 00:00:25.588294304,11088,1536693445108695352,base_link,0,1,40.5930594,-79.8974211,359.923675867,0.489999983311,0.0,0.0,0.0,0.489999983311,0.0,0.0,0.0,1.95999993324,1,309.49126966186327,318.6932231014557,359.9081969467559,18.476502097795432,0.44497446061618834,-0.100688217140193,0,Fixed-Wing
1970-01-01 00:00:25.997810240,11090,1536693445518193848,base_link,0,1,40.5930611,-79.8973344,359.933763762,0.489999983311,0.0,0.0,0.0,0.489999983311,0.0,0.0,0.0,1.95999993324,1,316.830875651539,318.88232089627724,359.91791552905755,18.349519585977873,0.4727574878847191,0.024297123925090428,0,Fixed-Wing
1970-01-01 00:00:26.371736384,11092,1536693445892241336,base_link,0,1,40.5930634,-79.8972479,360.033851219,0.489999983311,0.0,0.0,0.0,0.489999983311,0.0,0.0,0.0,1.95999993324,1,324.153551904245,319.1380610950467,360.0176227536164,18.307194079602198,0.6393680795457994,0.24927491645737687,0,Fixed-Wing
1970-01-01 00:00:26.774069920,11094,1536693446294605688,base_link,0,1,40.5930661,-79.8971621,360.163937807,0.489999983311,0.0,0.0,0.0,0.489999983311,0.0,0.0,0.0,1.95999993324,1,331.4169687673998,319.4382283011762,360.14732154792205,18.15904153152916,0.7504386523867289,0.3242559028013899,0,Fixed-Wing
1970-01-01 00:00:27.153021568,11096,1536693446673613528,base_link,0,1,40.5930689,-79.8970767,360.374023957,0.489999983311,0.0,0.0,0.0,0.489999983311,0.0,0.0,0.0,1.95999993324,1,338.6465269650437,319.7495103115155,360.3570128681187,18.074392539904554,0.7782264270750243,0.5242427171663936,0,Fixed-Wing
1970-01-01 00:00:27.554202656,11098,1536693447074800728,base_link,0,1,40.5930714,-79.8969916,360.524109936,0.489999983311,0.0,0.0,0.0,0.489999983311,0.0,0.0,0.0,1.95999993324,1,345.85068674748095,320.0274794548327,360.50669886949566,18.010894755698963,0.6949419691971364,0.3742252946379756,0,Fixed-Wing
1970-01-01 00:00:27.981402048,11100,1536693447502002360,base_link,0,1,40.5930734,-79.8969067,360.674195928,0.489999983311,0.0,0.0,0.0,0.489999983311,0.0,0.0,0.0,1.95999993324,1,353.0379179038662,320.2499285985835,360.6563804775542,17.968572026693792,0.5561381531761964,0.3742143110398762,0,Fixed-Wing
1970-01-01 00:00:28.361233824,11102,1536693447881778136,base_link,0,1,40.5930747,-79.8968215,360.744282527,0.489999983311,0.0,0.0,0.0,0.489999983311,0.0,0.0,0.0,1.95999993324,1,360.2505447986436,320.39464523887926,360.726057080297,18.03206311867934,0.36180155028205563,0.17419629725514557,0,Fixed-Wing
1970-01-01 00:00:28.742160800,11104,1536693448262686040,base_link,0,1,40.5930756,-79.8967358,360.724369814,0.489999983311,0.0,0.0,0.0,0.489999983311,0.0,0.0,0.0,1.95999993324,1,367.5054962233286,320.49494547284706,360.7057260256189,18.137877353339658,0.250757480750222,-0.05082903449365176,0,Fixed-Wing
1970-01-01 00:00:29.149245216,11106,1536693448669334168,base_link,0,1,40.5930752,-79.8966497,360.684458059,0.489999983311,0.0,0.0,0.0,0.489999983311,0.0,0.0,0.0,1.95999993324,1,374.79431560370665,320.45088541372104,360.6653929707392,18.222549571058387,-0.11015317702743065,-0.10083541017298386,0,Fixed-Wing
1970-01-01 00:00:29.550779072,11108,1536693449071043608,base_link,0,1,40.5930735,-79.8965632,360.624547262,0.489999983311,0.0,0.0,0.0,0.489999983311,0.0,0.0,0.0,1.95999993324,1,382.11700329297855,320.26246516142754,360.6050577976001,18.30722267180323,-0.4710635849823296,-0.15084208100496369,0,Fixed-Wing
1970-01-01 00:00:30.004562656,11110,1536693449524293560,base_link,0,1,40.5930702,-79.8964766,360.594637239,0.489999983311,0.0,0.0,0.0,0.489999983311,0.0,0.0,0.0,1.95999993324,1,389.44816785694627,319.8963703056721,360.574723419999,18.32841544134393,-0.915262309102052,-0.07583802954868811,0,Fixed-Wing
1970-01-01 00:00:30.377499744,11112,1536693449897479160,base_link,0,1,40.5930632,-79.8963897,360.584729064,0.489999983311,0.0,0.0,0.0,0.489999983311,0.0,0.0,0.0,1.95999993324,1,396.8047527729241,319.1193913492868,360.564401494662,18.391968069066415,-1.9425008097356056,-0.02580552299437164,0,Fixed-Wing
1970-01-01 00:00:30.765624032,11114,1536693450286162488,base_link,0,1,40.5930511,-79.896303,360.634822803,0.489999983311,0.0,0.0,0.0,0.489999983311,0.0,0.0,0.0,1.95999993324,1,404.1444426413588,317.77605478240673,360.61410229415486,18.34972928864227,-3.3584337741289256,0.1242554157561388,0,Fixed-Wing
1970-01-01 00:00:31.168641248,11116,1536693450688730328,base_link,0,1,40.5930325,-79.8962176,360.67491791,0.489999983311,0.0,0.0,0.0,0.489999983311,0.0,0.0,0.0,1.95999993324,1,411.3741225402131,315.71087861331245,360.6538386901459,18.074696801297716,-5.163082407501922,0.09934372192995851,0,Fixed-Wing
1970-01-01 00:00:31.649544928,11118,1536693451169970616,base_link,0,1,40.5930053,-79.8961348,360.625013925,0.489999983311,0.0,0.0,0.0,0.489999983311,0.0,0.0,0.0,1.95999993324,1,418.3837503182816,312.69064249073375,360.6036285627612,17.52455137033402,-7.550797953390455,-0.1255287705030143,0,Fixed-Wing
1970-01-01 00:00:31.981155552,11120,1536693451501493080,base_link,0,1,40.5929687,-79.8960571,360.665108623,0.489999983311,0.0,0.0,0.0,0.489999983311,0.0,0.0,0.0,1.95999993324,1,424.9617066279937,308.6265007484521,360.6434874473374,16.44534302121328,-10.160633773132918,0.0996499518142582,0,Fixed-Wing
1970-01-01 00:00:32.360651680,11122,1536693451880886104,base_link,0,1,40.5929218,-79.8959865,360.765200332,0.489999983311,0.0,0.0,0.0,0.489999983311,0.0,0.0,0.0,1.95999993324,1,430.9386866032494,303.4184937421356,360.74342919338517,14.942860866813058,-13.02037557611961,0.24986123630340243,0,Fixed-Wing
1970-01-01 00:00:32.756128832,11124,1536693452276694680,base_link,0,1,40.5928664,-79.8959247,360.785286571,0.489999983311,0.0,0.0,0.0,0.489999983311,0.0,0.0,0.0,1.95999993324,1,436.1707561938698,297.2664991126563,360.76345069757673,13.080533691227576,-15.380409534960473,0.05005513699517045,0,Fixed-Wing
1970-01-01 00:00:33.166827232,11126,1536693452687272920,base_link,0,1,40.5928044,-79.8958728,360.725365431,0.489999983311,0.0,0.0,0.0,0.489999983311,0.0,0.0,0.0,1.95999993324,1,440.5647816771056,290.38150948570006,360.70354593799095,10.98536580564914,-17.212947423444675,-0.14976601752992433,0,Fixed-Wing
1970-01-01 00:00:33.564288288,11128,1536693453084832504,base_link,0,1,40.5927369,-79.8958322,360.585435022,0.489999983311,0.0,0.0,0.0,0.489999983311,0.0,0.0,0.0,1.95999993324,1,444.0022366272685,282.88567419579215,360.56371518753855,8.593873706934124,-18.740103577618175,-0.3495864897594787,0,Fixed-Wing
1970-01-01 00:00:33.990632864,11130,1536693453511126264,base_link,0,1,40.5926643,-79.895805,360.575493028,0.489999983311,0.0,0.0,0.0,0.489999983311,0.0,0.0,0.0,1.95999993324,1,446.3053537837545,274.8234116215201,360.55396602142747,5.757951234874091,-20.156210731475216,-0.02437358555129769,0,Fixed-Wing
1970-01-01 00:00:34.348455456,11132,1536693453868776152,base_link,0,1,40.592589,-79.8957907,360.725538965,0.489999983311,0.0,0.0,0.0,0.489999983311,0.0,0.0,0.0,1.95999993324,1,447.5164441820136,266.4612496431456,360.7042829073399,3.0278092604022757,-20.905979860382416,0.37580254935122154,0,Fixed-Wing
1970-01-01 00:00:34.784453472,11134,1536693454304444760,base_link,0,1,40.5925131,-79.8957883,361.135572982,0.489999983311,0.0,0.0,0.0,0.489999983311,0.0,0.0,0.0,1.95999993324,1,447.720153308159,258.03240614845527,361.1146500489541,0.5092868207511724,-21.072688235652333,1.0259460675523273,0,Fixed-Wing
1970-01-01 00:00:35.263761120,11136,1536693454783718200,base_link,0,1,40.5924383,-79.8957951,361.755597139,0.489999983311,0.0,0.0,0.0,0.489999983311,0.0,0.0,0.0,1.95999993324,1,447.14503422240756,249.72568075099784,361.7350459352101,-1.4378372549031424,-20.767384596719978,1.5510323690301626,0,Fixed-Wing
1970-01-01 00:00:35.575828256,11138,1536693455096382552,base_link,0,1,40.5923651,-79.8958073,362.455615119,0.489999983311,0.0,0.0,0.0,0.489999983311,0.0,0.0,0.0,1.95999993324,1,446.11276522205657,241.59661333290802,362.43544994792256,-2.5807434713229447,-20.323227433978982,1.7510581858812468,0,Fixed-Wing
1970-01-01 00:00:35.965232544,11140,1536693455485525880,base_link,0,1,40.5922938,-79.8958221,363.075629665,0.489999983311,0.0,0.0,0.0,0.489999983311,0.0,0.0,0.0,1.95999993324,1,444.8603692015803,233.67852780561458,363.05584756448343,-3.1310761557849918,-19.79575820158415,1.5510366949112728,0,Fixed-Wing
1970-01-01 00:00:36.381248384,11142,1536693455900978456,base_link,0,1,40.5922244,-79.8958373,363.535643032,0.489999983311,0.0,0.0,0.0,0.489999983311,0.0,0.0,0.0,1.95999993324,1,443.5740840522225,225.9714328711951,363.5162287666552,-3.2158013079304912,-19.268267213397053,1.1509846575075529,0,Fixed-Wing
1970-01-01 00:00:36.807317696,11144,1536693456327776088,base_link,0,1,40.5921566,-79.895852,363.955656266,0.489999983311,0.0,0.0,0.0,0.489999983311,0.0,0.0,0.0,1.95999993324,1,442.3301109836895,218.44202209282054,363.9365912129048,-3.110018196832829,-18.82404460716312,1.0509350163368378,0,Fixed-Wing
1970-01-01 00:00:37.200730368,11146,1536693456721292152,base_link,0,1,40.5920898,-79.8958648,364.145671051,0.489999983311,0.0,0.0,0.0,0.489999983311,0.0,0.0,0.0,1.95999993324,1,441.2469602622158,211.02366489743392,364.1269312682542,-2.7079512723442756,-18.546403014549448,0.47586322461230707,0,Fixed-Wing
1970-01-01 00:00:37.602163872,11148,1536693457122672152,base_link,0,1,40.5920235,-79.8958756,363.865687699,0.489999983311,0.0,0.0,0.0,0.489999983311,0.0,0.0,0.0,1.95999993324,1,440.33308494542143,203.660828652723,363.84725090845814,-2.284751122641774,-18.407596820689832,-0.6992201280437433,0,Fixed-Wing
1970-01-01 00:00:37.961354688,11150,1536693457479297016,base_link,0,1,40.5919575,-79.8958837,363.305707011,0.489999983311,0.0,0.0,0.0,0.489999983311,0.0,0.0,0.0,1.95999993324,1,439.64775982973094,196.3313138020477,363.2875478062198,-1.7133599066236544,-18.324291044692004,-1.3992962362423942,0,Fixed-Wing
1970-01-01 00:00:38.370977024,11152,1536693457891170136,base_link,0,1,40.5918912,-79.895889,362.475729342,0.518400041199,0.0,0.0,0.0,0.518400041199,0.0,0.0,0.0,2.07360016479,1,439.1994559185551,188.9684906219818,362.45782390238764,-1.1207905996811307,-18.407564158179106,-2.074366804667459,0,Fixed-Wing
1970-01-01 00:00:38.822429856,11154,1536693458342994072,base_link,0,1,40.5918242,-79.8958913,361.545755064,0.518400041199,0.0,0.0,0.0,0.518400041199,0.0,0.0,0.0,2.07360016479,1,439.0051195455923,181.52794493690539,361.52807960561955,-0.48585429339998426,-18.601875764274556,-2.3244246635984798,0,Fixed-Wing
1970-01-01 00:00:39.160421376,11156,1536693458680792856,base_link,0,1,40.5917563,-79.8958905,360.665784367,0.518400041199,0.0,0.0,0.0,0.518400041199,0.0,0.0,0.0,2.07360016479,1,439.0732286799864,173.9874712504734,360.64831488296704,0.1702775186169921,-18.85170263790253,-2.1994722921193084,0,Fixed-Wing
1970-01-01 00:00:39.554371232,11158,1536693459073997880,base_link,0,1,40.5916874,-79.8958871,359.905816781,0.489999983311,0.0,0.0,0.0,0.489999983311,0.0,0.0,0.0,1.95999993324,1,439.36146096921084,166.33596354169703,359.88853210094476,0.7206005395759001,-19.12929532756242,-1.8995091915584796,0,Fixed-Wing
1970-01-01 00:00:39.958628576,11160,1536693459478886168,base_link,0,1,40.5916177,-79.8958816,359.27585171,0.489999983311,0.0,0.0,0.0,0.489999983311,0.0,0.0,0.0,1.95999993324,1,439.8274878740259,158.59562965747065,359.25873259341466,1.1650993022684792,-19.351366873154948,-1.5745420687321268,0,Fixed-Wing
1970-01-01 00:00:40.467062816,11162,1536693459987567640,base_link,0,1,40.5915476,-79.8958742,358.935888782,0.489999983311,0.0,0.0,0.0,0.489999983311,0.0,0.0,0.0,1.95999993324,1,440.4543869126689,150.8108928910653,358.91891574285887,1.5672906971016431,-19.46237713138451,-0.8495654894404394,0,Fixed-Wing
1970-01-01 00:00:40.768481568,11164,1536693460282328824,base_link,0,1,40.5914771,-79.8958664,359.035926459,0.489999983311,0.0,0.0,0.0,0.489999983311,0.0,0.0,0.0,1.95999993324,1,441.11518311252854,142.98174808455866,359.0190885695863,1.652035930637209,-19.573400284774415,0.2504389538898075,0,Fixed-Wing
1970-01-01 00:00:41.188910688,11166,1536693460709423960,base_link,0,1,40.5914069,-79.8958595,359.305963112,0.489999983311,0.0,0.0,0.0,0.489999983311,0.0,0.0,0.0,1.95999993324,1,441.69979887402684,135.18591796911613,359.289255230927,1.461579597184669,-19.49011126666615,0.6754352278204687,0,Fixed-Wing
1970-01-01 00:00:41.604017152,11168,1536693461124167960,base_link,0,1,40.5913367,-79.8958547,359.625997635,0.489999983311,0.0,0.0,0.0,0.489999983311,0.0,0.0,0.0,1.95999993324,1,442.10663870875237,127.39007778715253,359.6094224645992,1.0171275578216679,-19.490136433660922,0.8004400962832398,0,Fixed-Wing
1970-01-01 00:00:42.027433312,11170,1536693461546363960,base_link,0,1,40.5912671,-79.8958533,359.766028441,0.489999983311,0.0,0.0,0.0,0.489999983311,0.0,0.0,0.0,1.95999993324,1,442.22562735051815,119.6608478518905,359.7495950874746,0.2974797851085448,-19.32360623732663,0.35044119432123033,0,Fixed-Wing
1970-01-01 00:00:42.453635456,11172,1536693461973955320,base_link,0,1,40.5911977,-79.8958565,359.766054464,0.489999983311,0.0,0.0,0.0,0.489999983311,0.0,0.0,0.0,1.95999993324,1,441.9551801123909,111.95380257209237,359.7497801009017,-0.6761366890770664,-19.26814307342983,0.00046254628787833325,0,Fixed-Wing
1970-01-01 00:00:42.767139872,11174,1536693462287697656,base_link,0,1,40.5911285,-79.8958653,359.526074677,0.489999983311,0.0,0.0,0.0,0.489999983311,0.0,0.0,0.0,1.95999993324,1,441.2106311788805,104.2689358453942,359.50998235965636,-1.861423522922955,-19.2126951658625,-0.5995108396614763,0,Fixed-Wing
1970-01-01 00:00:43.204204160,11176,1536693462724333752,base_link,0,1,40.5910593,-79.8958822,359.156086597,0.489999983311,0.0,0.0,0.0,0.489999983311,0.0,0.0,0.0,1.95999993324,1,439.78034361496776,96.5840274088471,359.1402142060792,-3.5758172447560153,-19.212799443352417,-0.9244458062026294,0,Fixed-Wing
1970-01-01 00:00:43.600780096,11178,1536693463121291416,base_link,0,1,40.5909912,-79.8959092,358.696087702,0.489999983311,0.0,0.0,0.0,0.489999983311,0.0,0.0,0.0,1.95999993324,1,437.4949953146404,89.02122624645196,358.68048255119686,-5.713527872834931,-18.907522862866596,-1.1493607446262741,0,Fixed-Wing
1970-01-01 00:00:43.959291520,11180,1536693463479659704,base_link,0,1,40.5909252,-79.8959484,358.326075411,0.489999983311,0.0,0.0,0.0,0.489999983311,0.0,0.0,0.0,1.95999993324,1,434.1768081273969,81.69157764861572,358.3107949923891,-8.295696099751481,-18.3246254217897,-0.9242443137380144,0,Fixed-Wing
1970-01-01 00:00:44.411763680,11182,1536693463932219064,base_link,0,1,40.5908633,-79.8960011,358.086047539,0.489999983311,0.0,0.0,0.0,0.489999983311,0.0,0.0,0.0,1.95999993324,1,429.7157137953391,74.81718127410599,358.0711533375606,-11.15304253881424,-17.186463564022333,-0.599120612888148,0,Fixed-Wing
1970-01-01 00:00:44.828354816,11184,1536693464348907224,base_link,0,1,40.5908083,-79.8960675,358.076002691,0.489999983311,0.0,0.0,0.0,0.489999983311,0.0,0.0,0.0,1.95999993324,1,424.0947671632833,68.70898511843916,358.0615530515138,-14.052753030847969,-15.270910339201409,-0.02400137515482861,0,Fixed-Wing
1970-01-01 00:00:45.152605056,11186,1536693464673043256,base_link,0,1,40.5907613,-79.8961454,358.275942656,0.489999983311,0.0,0.0,0.0,0.489999983311,0.0,0.0,0.0,1.95999993324,1,417.50020632913663,63.48915882934065,358.26198167768473,-16.486855473892152,-13.049924595672648,0.5010853452743618,0,Fixed-Wing
1970-01-01 00:00:45.573603616,11188,1536693465093580248,base_link,0,1,40.5907251,-79.8962328,358.695868298,0.489999983311,0.0,0.0,0.0,0.489999983311,0.0,0.0,0.0,1.95999993324,1,410.1013308368275,59.46866028854217,358.68242548342005,-18.49769741745177,-10.051522768872356,1.0511384206448608,0,Fixed-Wing
1970-01-01 00:00:46.002688480,11190,1536693465522587928,base_link,0,1,40.5907017,-79.896327,359.46578154,0.489999983311,0.0,0.0,0.0,0.489999983311,0.0,0.0,0.0,1.95999993324,1,402.1267155338163,56.869609724574474,359.45286950627985,-19.93708652740752,-6.497805099559473,1.9261630266327474,0,Fixed-Wing
1970-01-01 00:00:46.405736512,11192,1536693465926043032,base_link,0,1,40.5906905,-79.8964235,360.435687256,0.489999983311,0.0,0.0,0.0,0.489999983311,0.0,0.0,0.0,1.95999993324,1,393.95731940534836,55.62539649234543,360.4232952998145,-20.4240519825994,-3.1106186225847297,2.42613120244475,0,Fixed-Wing
1970-01-01 00:00:46.773581408,11194,1536693466294061528,base_link,0,1,40.5906897,-79.8965186,361.47559001,0.489999983311,0.0,0.0,0.0,0.489999983311,0.0,0.0,0.0,1.95999993324,1,385.9063841458118,55.536142627807465,361.46369030931385,-20.127891665862244,-0.223140797716852,2.6010590528722557,0,Fixed-Wing
1970-01-01 00:00:47.180481952,11196,1536693466700347480,base_link,0,1,40.5906961,-79.8966111,362.565492393,0.489999983311,0.0,0.0,0.0,0.489999983311,0.0,0.0,0.0,1.95999993324,1,378.0755200914672,56.24648581910276,362.5540547596577,-19.577698522570877,1.7759068156756668,2.7259860904770563,0,Fixed-Wing
1970-01-01 00:00:47.607338944,11198,1536693467120695928,base_link,0,1,40.5907062,-79.8967003,363.345396609,0.489999983311,0.0,0.0,0.0,0.489999983311,0.0,0.0,0.0,1.95999993324,1,370.5239888769731,57.3677422679514,363.3343914731045,-18.879347218283765,2.803218210622394,1.9508954332415218,0,Fixed-Wing
1970-01-01 00:00:47.976443552,11200,1536693467496524280,base_link,0,1,40.590718,-79.8967867,363.855302991,0.489999983311,0.0,0.0,0.0,0.489999983311,0.0,0.0,0.0,1.95999993324,1,363.20947677734114,58.67780471116805,363.8447060140553,-18.28678313561608,3.2752461773115042,1.275821437466499,0,Fixed-Wing
1970-01-01 00:00:48.393164544,11202,1536693467912813912,base_link,0,1,40.5907307,-79.8968711,364.185211059,0.489999983311,0.0,0.0,0.0,0.489999983311,0.0,0.0,0.0,1.95999993324,1,356.064267844022,60.08782805635755,364.17500321836314,-17.863513579921225,3.5251553047446325,0.825765719326881,0,Fixed-Wing
1970-01-01 00:00:48.808395936,11204,1536693468328726840,base_link,0,1,40.5907431,-79.8969538,364.275121011,0.489999983311,0.0,0.0,0.0,0.489999983311,0.0,0.0,0.0,1.95999993324,1,349.06296837734305,61.46454710749967,364.26528645999986,-17.50373001927296,3.441892279892991,0.22571431123533864,0,Fixed-Wing
1970-01-01 00:00:49.180702400,11206,1536693468701311896,base_link,0,1,40.5907541,-79.8970358,364.275032289,0.489999983311,0.0,0.0,0.0,0.489999983311,0.0,0.0,0.0,1.95999993324,1,342.12093439392305,62.68580129673535,364.2655614153656,-17.355562236511513,3.0532194366237064,0.0006874073180500349,0,Fixed-Wing
1970-01-01 00:00:49.601636160,11208,1536693469121372536,base_link,0,1,40.5907634,-79.8971176,364.144944506,0.489999983311,0.0,0.0,0.0,0.489999983311,0.0,0.0,0.0,1.95999993324,1,335.19583599697614,63.71827239468877,364.1358305337392,-17.313222105975186,2.581248729223601,-0.32433612330942824,0,Fixed-Wing
1970-01-01 00:00:49.974414304,11210,1536693469494434104,base_link,0,1,40.5907708,-79.8971995,363.734857437,0.489999983311,0.0,0.0,0.0,0.489999983311,0.0,0.0,0.0,1.95999993324,1,328.26226888045915,64.53974718805046,363.7260952715266,-17.33439448714089,2.0537434613494066,-1.0243663256053643,0,Fixed-Wing
1970-01-01 00:00:50.404753600,11212,1536693469924851832,base_link,0,1,40.5907765,-79.8972821,363.004770383,0.489999983311,0.0,0.0,0.0,0.489999983311,0.0,0.0,0.0,1.95999993324,1,321.2694354750398,65.17243350334286,362.9963573065752,-17.482564284066143,1.5817592866113903,-1.824395083243353,0,Fixed-Wing
1970-01-01 00:00:50.727158752,11214,1536693470247587032,base_link,0,1,40.5907805,-79.8973653,362.204683445,0.489999983311,0.0,0.0,0.0,0.489999983311,0.0,0.0,0.0,1.95999993324,1,314.22581445385333,65.61633440961157,362.1966161894751,-17.609536815228623,1.1097827846983521,-1.999407776464097,0,Fixed-Wing
1970-01-01 00:00:51.250046784,11216,1536693470770495768,base_link,0,1,40.5907825,-79.8974497,361.384596137,0.489999983311,0.0,0.0,0.0,0.489999983311,0.0,0.0,0.0,1.95999993324,1,307.0806144131369,65.83813283934404,361.37687408991127,-17.86349134780311,0.5545113233925766,-2.0494116077287763,0,Fixed-Wing
1970-01-01 00:00:51.569473376,11218,1536693471089803832,base_link,0,1,40.5907825,-79.8975354,360.594508354,0.489999983311,0.0,0.0,0.0,0.489999983311,0.0,0.0,0.0,1.95999993324,1,299.82537135511274,65.83782934345214,360.58713098296556,-18.138606456738003,-0.0007587605956634296,-1.9744120636960194,0,Fixed-Wing
1970-01-01 00:00:52.010910432,11220,1536693471531473816,base_link,0,1,40.5907808,-79.8976224,359.954419971,0.489999983311,0.0,0.0,0.0,0.489999983311,0.0,0.0,0.0,1.95999993324,1,292.4600887586992,65.64874125031096,359.94738602556,-18.41371286813768,-0.47273323301685805,-1.5994063771893294,0,Fixed-Wing
1970-01-01 00:00:52.378291488,11222,1536693471898508760,base_link,0,1,40.5907777,-79.8977102,359.614331373,0.489999983311,0.0,0.0,0.0,0.489999983311,0.0,0.0,0.0,1.95999993324,1,285.02710007207315,65.3041877742645,359.6076369738537,-18.58298274859074,-0.8614073788190596,-0.8493959876553906,0,Fixed-Wing
1970-01-01 00:00:52.760069472,11224,1536693472280351320,base_link,0,1,40.5907739,-79.8977979,359.494243185,0.489999983311,0.0,0.0,0.0,0.489999983311,0.0,0.0,0.0,1.95999993324,1,277.6025897617008,64.8819077104367,359.48788009018904,-18.561786225052042,-1.0557291921222804,-0.2994004426737977,0,Fixed-Wing
1970-01-01 00:00:53.207667456,11226,1536693472727816568,base_link,0,1,40.59077,-79.8978849,359.514155769,0.489999983311,0.0,0.0,0.0,0.489999983311,0.0,0.0,0.0,1.95999993324,1,270.2373459336167,64.44853339454372,359.5081129235371,-18.413615944648704,-1.083465585036065,0.050583474415733985,0,Fixed-Wing
1970-01-01 00:00:53.541857344,11228,1536693473062383000,base_link,0,1,40.5907668,-79.8979717,359.524068273,0.489999983311,0.0,0.0,0.0,0.489999983311,0.0,0.0,0.0,1.95999993324,1,262.88902968382837,64.09290344610034,359.518335678683,-18.371295835106352,-0.8890993213397853,0.025557590698468084,0,Fixed-Wing
1970-01-01 00:00:53.953757280,11230,1536693473474041464,base_link,0,1,40.5907638,-79.8980577,359.573981524,0.489999983311,0.0,0.0,0.0,0.489999983311,0.0,0.0,0.0,1.95999993324,1,255.60844009308968,63.75949391894963,359.5685477730416,-18.20197453114632,-0.8335467404121282,0.12553368807288473,0,Fixed-Wing
1970-01-01 00:00:54.311627168,11232,1536693473832085592,base_link,0,1,40.5907615,-79.8981438,359.533894389,0.489999983311,0.0,0.0,0.0,0.489999983311,0.0,0.0,0.0,1.95999993324,1,248.3193778296537,63.50382691605611,359.52875071950206,-18.22315679540186,-0.6391850848236259,-0.09949536997149978,0,Fixed-Wing
1970-01-01 00:00:54.743815872,11234,1536693474264288952,base_link,0,1,40.5907597,-79.8982301,359.423806851,0.489999983311,0.0,0.0,0.0,0.489999983311,0.0,0.0,0.0,1.95999993324,1,241.01337908410125,63.303691938975646,359.41894502167185,-18.26549916510815,-0.5003512023592314,-0.2745217939248607,0,Fixed-Wing
1970-01-01 00:00:55.136567424,11236,1536693474655119800,base_link,0,1,40.5907585,-79.8983163,359.313719174,0.489999983311,0.0,0.0,0.0,0.489999983311,0.0,0.0,0.0,1.95999993324,1,233.71584392917657,63.17019576002059,359.30912985207624,-18.24433960665087,-0.3337496255023417,-0.27454547398955026,0,Fixed-Wing
1970-01-01 00:00:55.599338880,11238,1536693475119741496,base_link,0,1,40.5907578,-79.8984025,359.303631298,0.489999983311,0.0,0.0,0.0,0.489999983311,0.0,0.0,0.0,1.95999993324,1,226.41831062262335,63.09223385817384,359.29930559279774,-18.244334985595152,-0.19491011464502414,-0.024561323632656704,0,Fixed-Wing
1970-01-01 00:00:55.936609888,11240,1536693475456559032,base_link,0,1,40.5907574,-79.8984884,359.513543615,0.489999983311,0.0,0.0,0.0,0.489999983311,0.0,0.0,0.0,1.95999993324,1,219.14618120853046,63.047597709310566,359.50947198489723,-18.180823507878685,-0.11159344097781701,0.5254304295855515,0,Fixed-Wing
1970-01-01 00:00:56.389345856,11242,1536693475909716472,base_link,0,1,40.5907601,-79.8985727,359.713456274,0.489999983311,0.0,0.0,0.0,0.489999983311,0.0,0.0,0.0,1.95999993324,1,212.0094942117842,63.34723448441173,359.70962252984043,-17.84220815258989,0.7491125383477127,0.500390123086382,0,Fixed-Wing
1970-01-01 00:00:56.724823200,11244,1536693476245080632,base_link,0,1,40.5907697,-79.8986539,359.583369207,0.489999983311,0.0,0.0,0.0,0.489999983311,0.0,0.0,0.0,1.95999993324,1,205.13521603138983,64.4131427752207,359.5797492262025,-17.18616807060783,2.6648440102327244,-0.3246921881299426,0,Fixed-Wing
1970-01-01 00:00:57.141135424,11246,1536693476661740344,base_link,0,1,40.5907854,-79.8987328,359.103281935,0.489999983311,0.0,0.0,0.0,0.489999983311,0.0,0.0,0.0,1.95999993324,1,198.4556249515835,66.15647781315059,359.099855087432,-16.69943693403151,4.358457452404645,-1.199768340555697,0,Fixed-Wing
1970-01-01 00:00:57.613470336,11248,1536693477133839928,base_link,0,1,40.5908063,-79.8988096,358.513194634,0.489999983311,0.0,0.0,0.0,0.489999983311,0.0,0.0,0.0,1.95999993324,1,191.95380187718348,68.47729375149675,358.50994193048234,-16.255004698629268,5.802199406349069,-1.474823450018998,0,Fixed-Wing
1970-01-01 00:00:57.944086784,11250,1536693477464303768,base_link,0,1,40.5908308,-79.898885,357.863107265,0.489999983311,0.0,0.0,0.0,0.489999983311,0.0,0.0,0.0,1.95999993324,1,185.5704936640722,71.19790533308807,357.86001333629565,-15.958709397286656,6.801716001168352,-1.6248661692863808,0,Fixed-Wing
1970-01-01 00:00:58.344279264,11252,1536693477864529720,base_link,0,1,40.5908568,-79.8989604,357.293019283,0.489999983311,0.0,0.0,0.0,0.489999983311,0.0,0.0,0.0,1.95999993324,1,179.18718965082115,74.08510113052921,357.2900746495528,-15.958698897347265,7.2181879937726725,-1.424885901219359,0,Fixed-Wing
1970-01-01 00:00:58.728258016,11254,1536693478245281112,base_link,0,1,40.5908834,-79.8990379,356.85292892,0.489999983311,0.0,0.0,0.0,0.489999983311,0.0,0.0,0.0,1.95999993324,1,172.6261119101683,77.03893068648219,356.85012989412195,-16.40314543813167,7.384776971249156,-1.09989213561091,0,Fixed-Wing
1970-01-01 00:00:59.159392864,11256,1536693478679821528,base_link,0,1,40.5909093,-79.899118,356.572836214,0.489999983311,0.0,0.0,0.0,0.489999983311,0.0,0.0,0.0,1.95999993324,1,165.84493547751,79.91502616959943,356.5701813794785,-16.95340730034651,7.190436444795332,-0.6998905335982294,0,Fixed-Wing
1970-01-01 00:00:59.542471808,11258,1536693479058396440,base_link,0,1,40.590933,-79.8992014,356.62274108,0.489999983311,0.0,0.0,0.0,0.489999983311,0.0,0.0,0.0,1.95999993324,1,158.78440714643557,82.54681100542027,356.62023206319446,-17.651806252358032,6.579643029735413,0.12513015036897965,0,Fixed-Wing
1970-01-01 00:00:59.972817280,11260,1536693479493211928,base_link,0,1,40.5909539,-79.8992877,356.89264418,0.489999983311,0.0,0.0,0.0,0.489999983311,0.0,0.0,0.0,1.95999993324,1,151.47838732068027,84.86765426305934,356.89028206873473,-18.265551867064595,5.802267706459601,0.675143580299133,0,Fixed-Wing
1970-01-01 00:01:00.380833600,11262,1536693479901343288,base_link,0,1,40.5909725,-79.8993762,357.212546018,0.489999983311,0.0,0.0,0.0,0.489999983311,0.0,0.0,0.0,1.95999993324,1,143.98613014942762,86.9330818089484,357.2103293049099,-18.73115803497758,5.163710866771499,0.8001400942905553,0,Fixed-Wing
1970-01-01 00:01:00.752746944,11264,1536693480272819192,base_link,0,1,40.5909893,-79.8994659,357.542447405,0.489999983311,0.0,0.0,0.0,0.489999983311,0.0,0.0,0.0,1.95999993324,1,136.392290813684,88.79862132869235,357.54037159385575,-18.985120430170856,4.663977058728984,0.8251284133959514,0,Fixed-Wing
1970-01-01 00:01:01.199223232,11266,1536693480719638840,base_link,0,1,40.5910042,-79.8995571,357.822348075,0.489999983311,0.0,0.0,0.0,0.489999983311,0.0,0.0,0.0,1.95999993324,1,128.67147035061626,90.45316659063678,357.8204091528712,-19.302581978673796,4.136476907976056,0.700113150650279,0,Fixed-Wing
1970-01-01 00:01:01.600583808,11268,1536693481120812056,base_link,0,1,40.5910173,-79.8996495,357.982248294,0.489999983311,0.0,0.0,0.0,0.489999983311,0.0,0.0,0.0,1.95999993324,1,120.849064202938,91.90782254574654,357.9804413123166,-19.55655317440796,3.6367398981215917,0.4000914011270137,0,Fixed-Wing
1970-01-01 00:01:01.970886752,11270,1536693481491445048,base_link,0,1,40.5910284,-79.8997436,358.122147634,0.489999983311,0.0,0.0,0.0,0.489999983311,0.0,0.0,0.0,1.95999993324,1,112.88274542556469,93.14037979085072,358.1204684790468,-19.91634464291094,3.0814778534014065,0.3500775439579394,0,Fixed-Wing
1970-01-01 00:01:02.389693504,11272,1536693481910133080,base_link,0,1,40.5910374,-79.8998387,358.26204685,0.489999983311,0.0,0.0,0.0,0.489999983311,0.0,0.0,0.0,1.95999993324,1,104.83177439685511,94.13973465660186,358.260490194339,-20.127981091253968,2.4984558719143375,0.3500639149882146,0,Fixed-Wing
1970-01-01 00:01:02.770316960,11274,1536693482290862360,base_link,0,1,40.5910432,-79.8999348,358.501946404,0.489999983311,0.0,0.0,0.0,0.489999983311,0.0,0.0,0.0,1.95999993324,1,96.69615349337978,94.78373140134823,358.5005085267977,-20.339611598007266,1.6100361378597272,0.6000623328609119,0,Fixed-Wing
1970-01-01 00:01:03.209913952,11276,1536693482730102904,base_link,0,1,40.5910454,-79.9000314,358.991846972,0.489999983311,0.0,0.0,0.0,0.489999983311,0.0,0.0,0.0,1.95999993324,1,88.51821268933915,95.02795212002465,358.9905240164828,-20.4454142589937,0.6105685873271928,1.2250724137041427,0,Fixed-Wing
1970-01-01 00:01:03.583713056,11278,1536693483103965400,base_link,0,1,40.5910457,-79.9001266,359.761749777,0.489999983311,0.0,0.0,0.0,0.489999983311,0.0,0.0,0.0,1.95999993324,1,80.45879792052389,95.06118796693067,359.7605329286837,-20.149091022041254,0.08309190229237275,1.9250752200707142,0,Fixed-Wing
1970-01-01 00:01:04.000375552,11280,1536693483520612280,base_link,0,1,40.5910471,-79.9002191,360.94165489,0.489999983311,0.0,0.0,0.0,0.489999983311,0.0,0.0,0.0,1.95999993324,1,72.62796090759394,95.21659842677553,360.9405295567925,-19.577630917175092,0.3885368343750926,2.9500726972712363,0,Fixed-Wing
1970-01-01 00:01:04.412762176,11282,1536693483933062360,base_link,0,1,40.5910539,-79.9003066,362.331562857,0.489999983311,0.0,0.0,0.0,0.489999983311,0.0,0.0,0.0,1.95999993324,1,65.22040749710877,95.97170662301349,362.33050610916825,-18.519392809515207,1.887822405711046,3.4750369444553284,0,Fixed-Wing
1970-01-01 00:01:04.779101184,11284,1536693484299355128,base_link,0,1,40.5910691,-79.9003873,363.651474258,0.489999983311,0.0,0.0,0.0,0.489999983311,0.0,0.0,0.0,1.95999993324,1,58.38851786104429,97.65966574847548,363.65045793035824,-17.080193795490562,4.220013864036228,3.2999703021582807,0,Fixed-Wing
1970-01-01 00:01:05.198278368,11286,1536693484718781528,base_link,0,1,40.5910948,-79.9004585,364.591390968,0.489999983311,0.0,0.0,0.0,0.489999983311,0.0,0.0,0.0,1.95999993324,1,52.36086673275461,100.51368145746488,364.5903824508052,-15.069542233135621,7.135235491449535,2.349875922705216,0,Fixed-Wing
1970-01-01 00:01:05.578409760,11288,1536693485098812632,base_link,0,1,40.5911313,-79.9005167,365.111316431,0.489999983311,0.0,0.0,0.0,0.489999983311,0.0,0.0,0.0,1.95999993324,1,47.433759202750366,104.56706875872393,365.1102810803484,-12.318107572968863,10.133746931188234,1.2997823178717576,0,Fixed-Wing
1970-01-01 00:01:05.954436320,11290,1536693485473756664,base_link,0,1,40.5911769,-79.9005574,365.241255941,0.489999983311,0.0,0.0,0.0,0.489999983311,0.0,0.0,0.0,1.95999993324,1,43.988158202475766,109.63103867980467,365.2401600096882,-8.614239392269788,12.660272960208259,0.3247062527715477,0,Fixed-Wing
1970-01-01 00:01:06.330617440,11292,1536693485851114840,base_link,0,1,40.5912284,-79.9005769,365.221214603,0.489999983311,0.0,0.0,0.0,0.489999983311,0.0,0.0,0.0,1.95999993324,1,42.33729978956126,115.35022680964292,365.2200287164444,-4.127259531923401,14.298363529592674,-0.050329617174025655,0,Fixed-Wing
1970-01-01 00:01:06.810913216,11294,1536693486331355352,base_link,0,1,40.5912806,-79.900577,365.111192749,0.489999983311,0.0,0.0,0.0,0.489999983311,0.0,0.0,0.0,1.95999993324,1,42.32880037956695,121.14715942501641,365.10989918791404,-0.02124910933627532,14.492730088511166,-0.2753313929392182,0,Fixed-Wing
1970-01-01 00:01:07.178287232,11296,1536693486698819992,base_link,0,1,40.5913308,-79.9005637,364.921185389,0.489999983311,0.0,0.0,0.0,0.489999983311,0.0,0.0,0.0,1.95999993324,1,43.45471268022962,126.72199205164252,364.9197756801884,2.814858160256081,13.93746484684855,-0.4753218406646584,0,Fixed-Wing
1970-01-01 00:01:07.605253344,11298,1536693487125739640,base_link,0,1,40.5913794,-79.9005437,364.451185529,0.489999983311,0.0,0.0,0.0,0.489999983311,0.0,0.0,0.0,1.95999993324,1,45.147827370704896,132.11913834801243,364.4496542998742,4.232903131024295,13.493236804936913,-1.1753357725192364,0,Fixed-Wing
1970-01-01 00:01:08.000256224,11300,1536693487520248184,base_link,0,1,40.5914275,-79.9005212,363.551188434,0.489999983311,0.0,0.0,0.0,0.489999983311,0.0,0.0,0.0,1.95999993324,1,47.05258004265282,137.46075013474342,363.54953030001934,4.762012635217282,13.354396712737085,-2.2503718848640437,0,Fixed-Wing
1970-01-01 00:01:08.416933984,11302,1536693487937097400,base_link,0,1,40.5914762,-79.9004984,362.321191404,0.489999983311,0.0,0.0,0.0,0.489999983311,0.0,0.0,0.0,1.95999993324,1,48.98272367599184,142.86898510861766,362.31939962382825,4.825491784371624,13.52095926106529,-3.0754112642875056,0,Fixed-Wing
1970-01-01 00:01:08.769869952,11304,1536693488290290264,base_link,0,1,40.5915271,-79.900477,360.811192045,0.489999983311,0.0,0.0,0.0,0.489999983311,0.0,0.0,0.0,1.95999993324,1,50.7943397403246,148.52152630133588,360.8092566852679,4.529164712861505,14.131741604689674,-3.775461171583128,0,Fixed-Wing
1970-01-01 00:01:09.220996352,11306,1536693488741538232,base_link,0,1,40.5915819,-79.900459,359.231187616,0.489999983311,0.0,0.0,0.0,0.489999983311,0.0,0.0,0.0,1.95999993324,1,52.31811428065515,154.60716552005215,359.22909499454784,3.809541113206987,15.214516445992933,-3.9505128659039297,0,Fixed-Wing
1970-01-01 00:01:09.597909952,11308,1536693489118399832,base_link,0,1,40.591641,-79.9004464,357.761175917,0.489999983311,0.0,0.0,0.0,0.489999983311,0.0,0.0,0.0,1.95999993324,1,53.38473499405262,161.17032632359022,357.75891161114237,2.6666251156843552,16.40835323855923,-3.6755595364009253,0,Fixed-Wing
1970-01-01 00:01:09.998160128,11310,1536693489518361656,base_link,0,1,40.5917037,-79.9004413,356.741155103,0.489999983311,0.0,0.0,0.0,0.489999983311,0.0,0.0,0.0,1.95999993324,1,53.81642708272333,168.1332796679074,356.7387069908082,1.0792599013240567,17.407862077000082,-2.550581691831878,0,Fixed-Wing
