time,field.header.seq,field.header.stamp,field.header.frame_id,field.status.status,field.status.service,lat,lon,alt,field.position_covariance0,field.position_covariance1,field.position_covariance2,field.position_covariance3,field.position_covariance4,field.position_covariance5,field.position_covariance6,field.position_covariance7,field.position_covariance8,field.position_covariance_type,x,y,z,vel_x,vel_y,vel_z,track_id,uav_category
1970-01-01 00:00:00.000000000,1915,1538765324993637032,base_link,0,1,40.5917928,-79.8988041,405.582787354,0.448900022364,0.0,0.0,0.0,0.448900022364,0.0,0.0,0.0,1.79560008945,1,103.3075364958842,155.11967382950834,405.58006112852786,23.929406637945632,0.19460420729672395,-1.024801609648315,0,Fixed-Wing
1970-01-01 00:00:00.394138592,1917,1538765325387699720,base_link,0,1,40.5917935,-79.898691,405.172902538,0.448900022364,0.0,0.0,0.0,0.448900022364,0.0,0.0,0.0,1.79560008945,1,112.88229032689219,155.19753983795295,405.1700123844673,23.929406637945632,0.19460420729672395,-1.024801609648315,0,Fixed-Wing
1970-01-01 00:00:00.788956160,1919,1538765325782634984,base_link,0,1,40.5917865,-79.8985815,404.643017273,0.448900022364,0.0,0.0,0.0,0.448900022364,0.0,0.0,0.0,1.79560008945,1,122.15228752325348,154.4203014247582,404.6399754831299,23.167753068069448,-1.9424890051727275,-1.3246782913775428,0,Fixed-Wing
1970-01-01 00:00:01.194542912,1921,1538765326187969544,base_link,0,1,40.5917713,-79.8984765,404.00313085,0.448900022364,0.0,0.0,0.0,0.448900022364,0.0,0.0,0.0,1.79560008945,1,131.04134016776,152.73243007591952,403.9999536247262,22.215689208388714,-4.21836013455466,-1.5995547851389276,0,Fixed-Wing
1970-01-01 00:00:01.614992608,1923,1538765326608503976,base_link,0,1,40.5917467,-79.898377,403.363242748,0.448900022364,0.0,0.0,0.0,0.448900022364,0.0,0.0,0.0,1.79560008945,1,139.46479829114583,150.00066213123742,403.35995214642946,21.05206653767151,-6.82728633472566,-1.5995038507884047,0,Fixed-Wing
1970-01-01 00:00:01.979904480,1925,1538765326972397608,base_link,0,1,40.5917125,-79.8982852,403.023350807,0.448900022364,0.0,0.0,0.0,0.448900022364,0.0,0.0,0.0,1.79560008945,1,147.23642579513077,146.2027889436531,403.0199741933694,19.422999072752127,-9.491716807458458,-0.8496793578507782,0,Fixed-Wing
1970-01-01 00:00:02.479694592,1927,1538765327471127304,base_link,0,1,40.5916718,-79.8982009,403.233453941,0.448900022364,0.0,0.0,0.0,0.448900022364,0.0,0.0,0.0,1.79560008945,1,154.37315665171454,141.6830785194674,403.23001108298746,17.836253312299323,-11.295746139795607,0.5249281839876,0,Fixed-Wing
1970-01-01 00:00:02.842563520,1929,1538765327836101352,base_link,0,1,40.5916258,-79.898125,403.483550731,0.435600034618,0.0,0.0,0.0,0.435600034618,0.0,0.0,0.0,1.74240013847,1,160.79878593468132,136.57477890697362,403.4800610466859,16.059054752806702,-12.766759418916005,0.6249296187401835,0,Fixed-Wing
1970-01-01 00:00:03.242512448,1931,1538765328236072520,base_link,0,1,40.5915741,-79.8980589,403.683639911,0.435600034618,0.0,0.0,0.0,0.435600034618,0.0,0.0,0.0,1.74240013847,1,166.39479154699356,130.83346238849052,403.68012754750987,13.98564351718148,-14.348807293928404,0.5000099989353164,0,Fixed-Wing
1970-01-01 00:00:03.637350624,1933,1538765328630947304,base_link,0,1,40.5915177,-79.8980034,403.793720247,0.435600034618,0.0,0.0,0.0,0.435600034618,0.0,0.0,0.0,1.74240013847,1,171.09344291426385,124.57017792245128,403.79020945946763,11.742958743568352,-15.653319502753485,0.2751188052677629,0,Fixed-Wing
1970-01-01 00:00:04.005933888,1935,1538765328999521288,base_link,0,1,40.5914571,-79.8979594,403.883790609,0.435600034618,0.0,0.0,0.0,0.435600034618,0.0,0.0,0.0,1.74240013847,1,174.81854702887105,117.84045010920289,403.8803071510836,9.309850958093609,-16.819063575753546,0.22517386220804694,0,Fixed-Wing
1970-01-01 00:00:04.442856128,1937,1538765329436473032,base_link,0,1,40.5913934,-79.897927,403.883850433,0.435600034618,0.0,0.0,0.0,0.435600034618,0.0,0.0,0.0,1.74240013847,1,177.56163122452938,110.76643450006483,403.8804183908148,6.855568124107033,-17.679514174665563,0.00027801244899582756,0,Fixed-Wing
1970-01-01 00:00:04.842609056,1939,1538765329836046920,base_link,0,1,40.5913277,-79.897907,403.733898438,0.435600034618,0.0,0.0,0.0,0.435600034618,0.0,0.0,0.0,1.74240013847,1,179.2549619028054,103.47028609199955,403.7305419286309,4.232004194379324,-18.23467268494915,-0.3745741010531641,0,Fixed-Wing
1970-01-01 00:00:05.243754176,1941,1538765330237236232,base_link,0,1,40.5912613,-79.8979015,403.613931928,0.435600034618,0.0,0.0,0.0,0.435600034618,0.0,0.0,0.0,1.74240013847,1,179.72075559074045,96.09637211069133,403.6106779696852,1.164120432202555,-18.42902588268221,-0.2995662829008441,0,Fixed-Wing
1970-01-01 00:00:05.643465760,1943,1538765330636421384,base_link,0,1,40.5911955,-79.8979114,403.623949432,0.435600034618,0.0,0.0,0.0,0.435600034618,0.0,0.0,0.0,1.74240013847,1,178.8828156732139,88.7890607745289,403.6208251581663,-2.094195357767049,-18.26257128687892,0.025360046188420395,0,Fixed-Wing
1970-01-01 00:00:06.001878112,1945,1538765330995298696,base_link,0,1,40.5911321,-79.8979357,403.623951214,0.435600034618,0.0,0.0,0.0,0.435600034618,0.0,0.0,0.0,1.74240013847,1,176.82578796821608,81.74824778746088,403.6209785701394,-5.1409627116472,-17.59653355093539,0.00038341011705770374,0,Fixed-Wing
1970-01-01 00:00:06.445011104,1947,1538765331438518376,base_link,0,1,40.5910728,-79.8979738,403.643937169,0.435600034618,0.0,0.0,0.0,0.435600034618,0.0,0.0,0.0,1.74240013847,1,173.60046069633242,75.1627259164357,403.6411341966647,-8.060799179965404,-16.458661345892356,0.05037332464931931,0,Fixed-Wing
1970-01-01 00:00:06.826825792,1949,1538765331820041992,base_link,0,1,40.5910198,-79.8980264,403.783905653,0.448900022364,0.0,0.0,0.0,0.448900022364,0.0,0.0,0.0,1.79560008945,1,169.14756750435652,69.27681307656155,403.7812889553147,-11.128755243926031,-14.710185166820748,0.3502774349265822,0,Fixed-Wing
1970-01-01 00:00:07.243172224,1951,1538765332236551528,base_link,0,1,40.5909752,-79.8980919,404.123857414,0.448900022364,0.0,0.0,0.0,0.448900022364,0.0,0.0,0.0,1.79560008945,1,163.60255694638045,64.32372637070677,404.1214371448847,-13.858195708781182,-12.37884837451993,0.8501048161698443,0,Fixed-Wing
1970-01-01 00:00:07.632362592,1953,1538765332625758280,base_link,0,1,40.5909407,-79.8981687,404.683793372,0.448900022364,0.0,0.0,0.0,0.448900022364,0.0,0.0,0.0,1.79560008945,1,157.10087843264637,60.492261162870506,404.6815738972073,-16.24911843482431,-9.57567062252111,1.3999044106781424,0,Fixed-Wing
1970-01-01 00:00:08.020731168,1955,1538765333014232072,base_link,0,1,40.5909166,-79.898253,405.303717289,0.448900022364,0.0,0.0,0.0,0.448900022364,0.0,0.0,0.0,1.79560008945,1,149.96423073625687,57.815740772939535,405.3016942347382,-17.83604547676227,-6.689210596516016,1.5498165261628754,0,Fixed-Wing
1970-01-01 00:00:08.449481248,1957,1538765333442893928,base_link,0,1,40.590902,-79.8983426,405.633631794,0.448900022364,0.0,0.0,0.0,0.448900022364,0.0,0.0,0.0,1.79560008945,1,142.37885916926757,56.19421994629761,405.6317968474168,-18.957504697255345,-4.0525356492144375,0.8249987195966648,0,Fixed-Wing
1970-01-01 00:00:08.832543424,1959,1538765333825668872,base_link,0,1,40.590896,-79.8984347,405.533540135,0.50409996953,0.0,0.0,0.0,0.50409996953,0.0,0.0,0.0,2.01639987812,1,134.58181062614378,55.52775570824011,405.53188007694826,-19.48653181661679,-1.6656400826179327,-0.2497138905805768,0,Fixed-Wing
1970-01-01 00:00:09.252538944,1961,1538765334243990632,base_link,0,1,40.590901,-79.8985289,405.423441711,0.50409996953,0.0,0.0,0.0,0.50409996953,0.0,0.0,0.0,2.01639987812,1,126.60695686794509,56.08288047161105,405.42193982910203,-19.93090598737567,1.3873783526921357,-0.2747647556294289,0,Fixed-Wing
1970-01-01 00:00:09.641824992,1963,1538765334635018632,base_link,0,1,40.5909164,-79.8986227,405.323339337,0.50409996953,0.0,0.0,0.0,0.50409996953,0.0,0.0,0.0,2.01639987812,1,118.66594981644616,57.792966440251746,405.32197461339234,-19.8463156551051,4.273879334309773,-0.2498349658473915,0,Fixed-Wing
1970-01-01 00:00:10.027410016,1965,1538765335020958696,base_link,0,1,40.5909447,-79.8987133,405.383234829,0.50409996953,0.0,0.0,0.0,0.50409996953,0.0,0.0,0.0,2.01639987812,1,110.99583554048583,60.93565113902861,405.3819786713109,-19.169295285124225,7.854257291538548,0.14996328127097147,0,Fixed-Wing
1970-01-01 00:00:10.446999584,1967,1538765335440535720,base_link,0,1,40.5909842,-79.8987985,405.703131157,0.448900022364,0.0,0.0,0.0,0.448900022364,0.0,0.0,0.0,1.79560008945,1,103.78287052033735,65.32214739324763,405.70195274438674,-18.026779181876847,10.962814755936334,0.7996852810393125,0,Fixed-Wing
1970-01-01 00:00:10.864556864,1969,1538765335858048840,base_link,0,1,40.5910297,-79.8988785,405.853030307,0.448900022364,0.0,0.0,0.0,0.448900022364,0.0,0.0,0.0,1.79560008945,1,97.01012604172513,70.37497351938549,405.8519044657114,-16.926571642892156,12.628119028148351,0.37476219012725787,0,Fixed-Wing
1970-01-01 00:00:11.266700608,1971,1538765336259840328,base_link,0,1,40.5910802,-79.8989533,405.922932701,0.448900022364,0.0,0.0,0.0,0.448900022364,0.0,0.0,0.0,1.79560008945,1,90.67760622466605,75.98307595449359,405.9218353955913,-15.826353807082985,14.015876126480709,0.1747727082283987,0,Fixed-Wing
1970-01-01 00:00:11.686857344,1973,1538765336679939752,base_link,0,1,40.5911334,-79.8990239,406.042838283,0.448900022364,0.0,0.0,0.0,0.448900022364,0.0,0.0,0.0,1.79560008945,1,84.70065804631378,81.89103198451204,406.04174973527296,-14.937702413876346,14.765275926319159,0.2996921953930813,0,Fixed-Wing
1970-01-01 00:00:12.042836672,1975,1538765337036227592,base_link,0,1,40.5911876,-79.8990913,406.152746746,0.448900022364,0.0,0.0,0.0,0.448900022364,0.0,0.0,0.0,1.79560008945,1,78.99462425988614,87.91004891387311,406.1516510008678,-14.260628019812906,15.0428414354541,0.27466733044630703,0,Fixed-Wing
1970-01-01 00:00:12.429664640,1977,1538765337423198824,base_link,0,1,40.5912421,-79.8991568,406.032657054,0.448900022364,0.0,0.0,0.0,0.448900022364,0.0,0.0,0.0,1.79560008945,1,73.44944708733735,93.96238459450836,406.031540980467,-13.85861211508601,15.126112291497037,-0.30018124436306903,0,Fixed-Wing
1970-01-01 00:00:12.829802400,1979,1538765337823328200,base_link,0,1,40.591297,-79.8992203,405.812569266,0.448900022364,0.0,0.0,0.0,0.448900022364,0.0,0.0,0.0,1.79560008945,1,68.07359389894872,100.05914543823843,405.8114197928369,-13.435434397722291,15.237140502918004,-0.5501310531212177,0,Fixed-Wing
1970-01-01 00:00:13.202210080,1981,1538765338195367880,base_link,0,1,40.5913528,-79.8992818,405.532483174,0.448900022364,0.0,0.0,0.0,0.448900022364,0.0,0.0,0.0,1.79560008945,1,62.867064534899924,106.25585800870311,405.5312866013842,-13.012257079784543,15.486941756862688,-0.7001141929464678,0,Fixed-Wing
1970-01-01 00:00:13.606573856,1983,1538765338600145512,base_link,0,1,40.5914108,-79.89934,405.192399561,0.448900022364,0.0,0.0,0.0,0.448900022364,0.0,0.0,0.0,1.79560008945,1,57.93991314473211,112.69689163281507,405.19113876081235,-12.314030340937993,16.09755357478776,-0.8501039439470934,0,Fixed-Wing
1970-01-01 00:00:14.039709696,1985,1538765339033163624,base_link,0,1,40.5914724,-79.8993922,404.962320599,0.448900022364,0.0,0.0,0.0,0.448900022364,0.0,0.0,0.0,1.79560008945,1,53.52071618628169,119.53772469530989,404.96097351457945,-11.044540977070717,17.096739925010493,-0.5752333551587635,0,Fixed-Wing
1970-01-01 00:00:14.402539104,1987,1538765339395885544,base_link,0,1,40.5915374,-79.8994371,404.692247698,0.448900022364,0.0,0.0,0.0,0.448900022364,0.0,0.0,0.0,1.79560008945,1,49.71952681257027,126.75614374350855,404.6907916272711,-9.500004682815161,18.04040999237402,-0.6752437046131932,0,Fixed-Wing
1970-01-01 00:00:14.851360384,1989,1538765339844718696,base_link,0,1,40.5916061,-79.8994743,404.322181143,0.448900022364,0.0,0.0,0.0,0.448900022364,0.0,0.0,0.0,1.79560008945,1,46.570206239434256,134.38546253110695,404.3205922509705,-7.870841794779172,19.067338425737976,-0.9252093128412481,0,Fixed-Wing
1970-01-01 00:00:15.246681216,1991,1538765340239898920,base_link,0,1,40.5916775,-79.8995029,403.702122268,0.518400041199,0.0,0.0,0.0,0.518400041199,0.0,0.0,0.0,2.07360016479,1,44.14894448999107,142.31462383635832,403.7003781619402,-6.051263353809908,19.816710541084333,-1.5500508316908428,0,Fixed-Wing
1970-01-01 00:00:15.639136000,1993,1538765340631861672,base_link,0,1,40.5917517,-79.8995211,403.012072866,0.489999983311,0.0,0.0,0.0,0.489999983311,0.0,0.0,0.0,1.95999993324,1,42.6081242571226,150.55473637420198,403.01014958642554,-3.8508471924235415,20.593845767806705,-1.7250323661722018,0,Fixed-Wing
1970-01-01 00:00:16.047940256,1995,1538765341041294856,base_link,0,1,40.5918282,-79.8995244,402.492037734,0.435600034618,0.0,0.0,0.0,0.435600034618,0.0,0.0,0.0,1.74240013847,1,42.32870279192349,159.05028086531678,402.4899096242166,-0.6983354331749002,21.2322261571129,-1.3001935950239587,0,Fixed-Wing
1970-01-01 00:00:16.449959200,1997,1538765341443325032,base_link,0,1,40.5919046,-79.8995121,402.272018578,0.435600034618,0.0,0.0,0.0,0.435600034618,0.0,0.0,0.0,1.74240013847,1,43.36993802722344,167.53473425131824,402.2696657427158,2.602274877350704,21.204507056548483,-0.5504376919732037,0,Fixed-Wing
1970-01-01 00:00:16.842836000,1999,1538765341836029320,base_link,0,1,40.5919786,-79.8994859,402.162014616,0.435600034618,0.0,0.0,0.0,0.435600034618,0.0,0.0,0.0,1.74240013847,1,45.587908411664635,175.75267013988568,402.15942465132844,5.5431937130676525,20.538421464710876,-0.2755166295216882,0,Fixed-Wing
1970-01-01 00:00:17.269128928,2001,1538765342262196264,base_link,0,1,40.5920482,-79.8994464,402.252026059,0.435600034618,0.0,0.0,0.0,0.435600034618,0.0,0.0,0.0,1.74240013847,1,48.931818221245265,183.4819861692339,402.24919316239993,8.35716291054203,19.31725343167313,0.22435116793876267,0,Fixed-Wing
1970-01-01 00:00:17.653803488,2003,1538765342644024744,base_link,0,1,40.5921111,-79.8993943,402.542053141,0.435600034618,0.0,0.0,0.0,0.435600034618,0.0,0.0,0.0,1.74240013847,1,53.34240687040426,190.46726208962454,402.5389796711785,11.023026926982807,17.45773425902068,0.7242399469629431,0,Fixed-Wing
1970-01-01 00:00:18.024572576,2005,1538765343018108072,base_link,0,1,40.5921657,-79.8993313,403.012094785,0.435600034618,0.0,0.0,0.0,0.435600034618,0.0,0.0,0.0,1.74240013847,1,58.67575757780955,196.5308136663013,403.00879015427086,13.329211389953858,15.15414327191942,1.1741592829550114,0,Fixed-Wing
1970-01-01 00:00:18.434182080,2007,1538765343427421800,base_link,0,1,40.5922114,-79.8992601,403.542148484,0.435600034618,0.0,0.0,0.0,0.435600034618,0.0,0.0,0.0,1.74240013847,1,64.70329635888109,201.6060055265882,403.53862685841625,15.064139409113505,12.684015895749845,1.3241779547526291,0,Fixed-Wing
1970-01-01 00:00:18.840018816,2009,1538765343831906024,base_link,0,1,40.5922487,-79.899183,403.962211683,0.435600034618,0.0,0.0,0.0,0.435600034618,0.0,0.0,0.0,1.74240013847,1,71.23031124600743,205.74835841288655,403.9584880106241,16.312439580446963,10.352647013554115,1.0493249664675526,0,Fixed-Wing
1970-01-01 00:00:19.243460096,2011,1538765344236749992,base_link,0,1,40.5922777,-79.8991021,404.082282198,0.435600034618,0.0,0.0,0.0,0.435600034618,0.0,0.0,0.0,1.74240013847,1,78.07902176726375,208.96897042247622,404.0783735243857,17.11642741957219,8.04901470687828,0.29962015310623075,0,Fixed-Wing
1970-01-01 00:00:19.659371328,2013,1538765344652185000,base_link,0,1,40.5922989,-79.8990185,403.822358699,0.435600034618,0.0,0.0,0.0,0.435600034618,0.0,0.0,0.0,1.74240013847,1,85.15630488261336,211.32336474416707,403.8182818371997,17.687680388252673,5.884147008287028,-0.6500260848134729,0,Fixed-Wing
1970-01-01 00:00:20.047819488,2015,1538765345041464168,base_link,0,1,40.5923101,-79.8989328,403.272441486,0.435600034618,0.0,0.0,0.0,0.435600034618,0.0,0.0,0.0,1.74240013847,1,92.41137180295493,212.567227316354,403.26822235137826,18.132001050525652,3.108684966415349,-1.3747191148302755,0,Fixed-Wing
1970-01-01 00:00:20.469098656,2017,1538765345462755560,base_link,0,1,40.5923095,-79.8988469,402.542529366,0.435600034618,0.0,0.0,0.0,0.435600034618,0.0,0.0,0.0,1.74240013847,1,99.68338112422859,212.50066478638598,402.53820310654237,18.174343820740162,-0.16635433918906434,-1.8244779627263656,0,Fixed-Wing
1970-01-01 00:00:20.839570112,2019,1538765345832923624,base_link,0,1,40.5922958,-79.8987641,401.902619514,0.435600034618,0.0,0.0,0.0,0.435600034618,0.0,0.0,0.0,1.74240013847,1,106.69297518840168,210.97931365091017,401.89823064492083,17.518510625862135,-3.802189654422521,-1.5994313317626727,0,Fixed-Wing
1970-01-01 00:00:21.281071232,2021,1538765346274249352,base_link,0,1,40.5922692,-79.8986878,401.392708381,0.435600034618,0.0,0.0,0.0,0.435600034618,0.0,0.0,0.0,1.74240013847,1,113.15232544686768,208.02538109297012,401.3883056153047,16.143330855272733,-7.382524355988878,-1.2744143195654185,0,Fixed-Wing
1970-01-01 00:00:21.638699520,2023,1538765346631916136,base_link,0,1,40.5922319,-79.8986207,401.132792306,0.448900022364,0.0,0.0,0.0,0.448900022364,0.0,0.0,0.0,1.79560008945,1,118.83286026161028,203.88318273974096,401.1284204621087,14.196900505448548,-10.352260801572413,-0.6495099111428267,0,Fixed-Wing
1970-01-01 00:00:22.046329024,2025,1538765347039546920,base_link,0,1,40.592188,-79.898563,401.16286939,0.435600034618,0.0,0.0,0.0,0.435600034618,0.0,0.0,0.0,1.74240013847,1,123.71764363848314,199.00803490074065,401.1585591486295,12.208143397370472,-12.184062078101357,0.0753231778088997,0,Fixed-Wing
1970-01-01 00:00:22.466035072,2027,1538765347457369320,base_link,0,1,40.5921403,-79.8985133,401.392939903,0.435600034618,0.0,0.0,0.0,0.435600034618,0.0,0.0,0.0,1.74240013847,1,127.92518877726869,193.71088315587218,401.3887102539399,10.515576729235983,-13.238742255216424,0.5751980138967232,0,Fixed-Wing
1970-01-01 00:00:22.841255520,2029,1538765347833045544,base_link,0,1,40.5920916,-79.8984701,401.763004215,0.435600034618,0.0,0.0,0.0,0.435600034618,0.0,0.0,0.0,1.74240013847,1,131.58247415104591,188.30267481736644,401.7588626234897,9.140357072857801,-13.516297003450783,0.9250918326767167,0,Fixed-Wing
1970-01-01 00:00:23.242551104,2031,1538765348234814440,base_link,0,1,40.5920428,-79.8984322,402.243063175,0.435600034618,0.0,0.0,0.0,0.435600034618,0.0,0.0,0.0,1.74240013847,1,134.79108498542558,182.88335741906639,402.23901275211983,8.019021141842348,-13.544060976694913,1.2000003214749322,0,Fixed-Wing
1970-01-01 00:00:23.650121280,2033,1538765348643186088,base_link,0,1,40.5919942,-79.8983988,402.673117475,0.435600034618,0.0,0.0,0.0,0.435600034618,0.0,0.0,0.0,1.74240013847,1,137.6187420834162,177.48624280535756,402.6691595941086,7.06693432799906,-13.488571355723392,1.0750311577350682,0,Fixed-Wing
1970-01-01 00:00:24.051709024,2035,1538765349045125768,base_link,0,1,40.5919455,-79.8983705,403.113166625,0.435600034618,0.0,0.0,0.0,0.435600034618,0.0,0.0,0.0,1.74240013847,1,140.01465202909733,172.0780154203672,403.1093052340218,5.987903644313967,-13.516344604786925,1.1000203434257438,0,Fixed-Wing
1970-01-01 00:00:24.459113376,2037,1538765349450759016,base_link,0,1,40.5918961,-79.8983475,403.483210668,0.435600034618,0.0,0.0,0.0,0.435600034618,0.0,0.0,0.0,1.74240013847,1,141.96188184013704,166.5920405632913,403.4794522964414,4.866553729558775,-13.710652563763544,0.9250785689962362,0,Fixed-Wing
1970-01-01 00:00:24.795802592,2039,1538765349789254504,base_link,0,1,40.5918457,-79.8983302,403.67324932,0.435600034618,0.0,0.0,0.0,0.435600034618,0.0,0.0,0.0,1.74240013847,1,143.42656565538942,160.9949986945873,403.66960230740114,3.6605656113774083,-13.98823334883848,0.4752265191120582,0,Fixed-Wing
1970-01-01 00:00:25.260474528,2041,1538765350253791368,base_link,0,1,40.5917944,-79.8983192,403.593281925,0.435600034618,0.0,0.0,0.0,0.435600034618,0.0,0.0,0.0,1.74240013847,1,144.35790555933627,155.29799212364867,403.5897555289845,2.3276223778740377,-14.238067031399288,-0.19955458523374417,0,Fixed-Wing
1970-01-01 00:00:25.662468928,2043,1538765350655570088,base_link,0,1,40.5917422,-79.8983151,403.33330787,0.435600034618,0.0,0.0,0.0,0.435600034618,0.0,0.0,0.0,1.74240013847,1,144.70510779347956,149.50102251085943,403.3299124635495,0.8677344183524696,-14.487896564296758,-0.649404724611076,0,Fixed-Wing
1970-01-01 00:00:26.070999168,2045,1538765351063957960,base_link,0,1,40.5916893,-79.89832,403.053324924,0.435600034618,0.0,0.0,0.0,0.435600034618,0.0,0.0,0.0,1.74240013847,1,144.2903933043475,143.62630106231992,403.0500742166249,-1.0364623283525203,-14.682215429027186,-0.6993770619795195,0,Fixed-Wing
1970-01-01 00:00:26.430330912,2047,1538765351423850824,base_link,0,1,40.5916369,-79.8983351,402.863331359,0.435600034618,0.0,0.0,0.0,0.435600034618,0.0,0.0,0.0,1.74240013847,1,143.01217110539648,137.80709206713448,402.8602380928054,-3.194557198253115,-14.543477651197621,-0.47444204640932724,0,Fixed-Wing
1970-01-01 00:00:26.841824352,2049,1538765351834412872,base_link,0,1,40.591586,-79.8983606,402.863326553,0.435600034618,0.0,0.0,0.0,0.435600034618,0.0,0.0,0.0,1.74240013847,1,140.85350778793898,132.15445052591113,402.86040116706147,-5.394972364779745,-14.127189106462595,0.0004075582782360479,0,Fixed-Wing
1970-01-01 00:00:27.225816384,2051,1538765352219327016,base_link,0,1,40.591538,-79.8983957,403.023310735,0.435600034618,0.0,0.0,0.0,0.435600034618,0.0,0.0,0.0,1.74240013847,1,137.88212400693882,126.82385162503695,403.02055866154274,-7.42613878413035,-13.322334022803322,0.4002686522493427,0,Fixed-Wing
1970-01-01 00:00:27.651163136,2053,1538765352644610472,base_link,0,1,40.5914943,-79.8984401,403.363283627,0.435600034618,0.0,0.0,0.0,0.435600034618,0.0,0.0,0.0,1.74240013847,1,134.12341308909907,121.97077107407324,403.3607064631542,-9.393841719062168,-12.12891109269281,0.8501038465766078,0,Fixed-Wing
1970-01-01 00:00:28.071732736,2055,1538765353064650344,base_link,0,1,40.5914559,-79.8984923,403.83324634,0.448900022364,0.0,0.0,0.0,0.448900022364,0.0,0.0,0.0,1.79560008945,1,129.7043576744992,117.70626406930535,403.8308407536076,-11.044187227990957,-10.657936906636408,1.174968548462145,0,Fixed-Wing
1970-01-01 00:00:28.472001440,2057,1538765353465176936,base_link,0,1,40.591424,-79.8985516,404.323199087,0.448900022364,0.0,0.0,0.0,0.448900022364,0.0,0.0,0.0,1.79560008945,1,124.68421344321902,114.16359435397877,404.3209580154223,-12.546439815758001,-8.853907442240756,1.224910370046118,0,Fixed-Wing
1970-01-01 00:00:28.864885792,2059,1538765353858273512,base_link,0,1,40.5913991,-79.8986172,404.753142476,0.448900022364,0.0,0.0,0.0,0.448900022364,0.0,0.0,0.0,1.79560008945,1,119.13070481419447,111.39828948600368,404.7510564084514,-13.879434249358447,-6.911102450421967,1.0749100731748429,0,Fixed-Wing
1970-01-01 00:00:29.246486208,2061,1538765354239950760,base_link,0,1,40.5913809,-79.8986874,405.13307837,0.448900022364,0.0,0.0,0.0,0.448900022364,0.0,0.0,0.0,1.79560008945,1,113.18775227071143,109.37703731494685,405.131135441174,-14.852739877495896,-5.051551817699043,0.9499007378259783,0,Fixed-Wing
1970-01-01 00:00:29.711427584,2063,1538765354704938344,base_link,0,1,40.5913674,-79.8987603,405.173009547,0.448900022364,0.0,0.0,0.0,0.448900022364,0.0,0.0,0.0,1.79560008945,1,107.01620592075398,107.87773014408299,405.1711985928059,-15.424045860562206,-3.7470969593598453,0.1001265895205201,0,Fixed-Wing
1970-01-01 00:00:30.074876512,2065,1538765355067650504,base_link,0,1,40.59136,-79.8988361,404.972935219,0.448900022364,0.0,0.0,0.0,0.448900022364,0.0,0.0,0.0,1.79560008945,1,100.59913577526083,107.05584456094815,404.9712424333354,-16.037663593859772,-2.0540720603182594,-0.4997342317288418,0,Fixed-Wing
1970-01-01 00:00:30.475855712,2067,1538765355467551656,base_link,0,1,40.5913595,-79.8989143,404.662855563,0.448900022364,0.0,0.0,0.0,0.448900022364,0.0,0.0,0.0,1.79560008945,1,93.97887405094195,107.00022640754213,404.6612645436853,-16.54548384709498,-0.13900194540709987,-0.7747026295535128,0,Fixed-Wing
1970-01-01 00:00:30.845587296,2069,1538765355838999912,base_link,0,1,40.5913655,-79.8989937,404.282771974,0.448900022364,0.0,0.0,0.0,0.448900022364,0.0,0.0,0.0,1.79560008945,1,87.25701383984392,107.66645675245329,404.2812650775061,-16.799400715021637,1.665055532424008,-0.9497018836094783,0,Fixed-Wing
1970-01-01 00:00:31.247523296,2071,1538765356238694472,base_link,0,1,40.5913793,-79.8990736,403.902684628,0.448900022364,0.0,0.0,0.0,0.448900022364,0.0,0.0,0.0,1.79560008945,1,80.49281727814788,109.19890654751322,403.9012404361706,-16.905208526575542,3.8299276352638105,-0.9497648018380933,0,Fixed-Wing
1970-01-01 00:00:31.636604384,2073,1538765356629976264,base_link,0,1,40.5914026,-79.8991518,403.682595064,0.448900022364,0.0,0.0,0.0,0.448900022364,0.0,0.0,0.0,1.79560008945,1,73.87253424186105,111.78637061842309,403.6811859336117,-16.5455371103701,6.466639352477036,-0.5499643925246449,0,Fixed-Wing
1970-01-01 00:00:32.048213376,2075,1538765357041843080,base_link,0,1,40.5914361,-79.8992256,403.72250575,0.435600034618,0.0,0.0,0.0,0.435600034618,0.0,0.0,0.0,1.74240013847,1,67.62474360961272,115.50658971095217,403.7210993737974,-15.614597019052358,9.297642218129528,0.09975242783062337,0,Fixed-Wing
1970-01-01 00:00:32.430293664,2077,1538765357423349704,base_link,0,1,40.5914793,-79.8992919,403.902420064,0.435600034618,0.0,0.0,0.0,0.435600034618,0.0,0.0,0.0,1.74240013847,1,62.0118855926644,120.30403675814327,403.90098174761215,-14.027761366943636,11.989870783357947,0.4495654453351698,0,Fixed-Wing
1970-01-01 00:00:32.841530592,2079,1538765357835099240,base_link,0,1,40.5915317,-79.8993491,404.062339853,0.435600034618,0.0,0.0,0.0,0.435600034618,0.0,0.0,0.0,1.74240013847,1,57.169412560303904,126.12318208553822,404.0608340270454,-12.102400580719761,14.543318531446296,0.3995058530041028,0,Fixed-Wing
1970-01-01 00:00:33.270194432,2081,1538765358263631336,base_link,0,1,40.5915901,-79.8993968,404.29226686,0.435600034618,0.0,0.0,0.0,0.435600034618,0.0,0.0,0.0,1.74240013847,1,53.13119117376624,132.60865651575085,404.2906640397719,-10.092399591471825,16.208620881506114,0.5743955332121091,0,Fixed-Wing
1970-01-01 00:00:33.635776640,2083,1538765358628375720,base_link,0,1,40.5916534,-79.899433,404.472203586,0.435600034618,0.0,0.0,0.0,0.435600034618,0.0,0.0,0.0,1.74240013847,1,50.066535556735424,139.6382991536536,404.4704751351295,-7.65924552834943,17.56861640213122,0.44938730486121303,0,Fixed-Wing
1970-01-01 00:00:34.092917088,2085,1538765359086415464,base_link,0,1,40.5917203,-79.8994573,404.572150979,0.435600034618,0.0,0.0,0.0,0.435600034618,0.0,0.0,0.0,1.74240013847,1,48.009307511258996,147.06773921079667,404.57027094049147,-5.141463406376578,18.567797706074522,0.24941157228857003,0,Fixed-Wing
1970-01-01 00:00:34.436182112,2087,1538765359429680456,base_link,0,1,40.5917893,-79.8994678,404.622111601,0.435600034618,0.0,0.0,0.0,0.435600034618,0.0,0.0,0.0,1.74240013847,1,47.12035496863385,154.73039771876836,404.6200564575058,-2.221687079350573,19.150661688151665,0.12442490975159419,0,Fixed-Wing
1970-01-01 00:00:34.870609824,2089,1538765359863884456,base_link,0,1,40.5918587,-79.8994638,404.512086869,0.435600034618,0.0,0.0,0.0,0.435600034618,0.0,0.0,0.0,1.74240013847,1,47.45893501524177,162.43748141182817,404.5098371330795,0.8461856834937161,19.261689954538742,-0.27546222911924767,0,Fixed-Wing
1970-01-01 00:00:35.234554208,2091,1538765360223174600,base_link,0,1,40.5919277,-79.8994449,404.362077518,0.435600034618,0.0,0.0,0.0,0.435600034618,0.0,0.0,0.0,1.74240013847,1,49.058908179998205,170.10015083414459,404.35961545980797,3.9986833233525387,19.150688965489316,-0.37543685916030467,0,Fixed-Wing
1970-01-01 00:00:35.620995904,2093,1538765360613902120,base_link,0,1,40.5919941,-79.8994122,404.142083338,0.435600034618,0.0,0.0,0.0,0.435600034618,0.0,0.0,0.0,1.74240013847,1,51.82714899950207,177.47408839003987,404.1393980168998,6.918440036248337,18.42908480073797,-0.550371616140369,0,Fixed-Wing
1970-01-01 00:00:36.026215392,2095,1538765361019349736,base_link,0,1,40.5920562,-79.8993664,403.902104314,0.435600034618,0.0,0.0,0.0,0.435600034618,0.0,0.0,0.0,1.74240013847,1,55.70439596798735,184.370505925097,403.8991902642024,9.690089268316854,17.23565769461328,-0.6003317780628937,0,Fixed-Wing
1970-01-01 00:00:36.469510112,2097,1538765361462687784,base_link,0,1,40.5921118,-79.8993076,403.722141252,0.435600034618,0.0,0.0,0.0,0.435600034618,0.0,0.0,0.0,1.74240013847,1,60.68218363642985,190.5450907005544,403.718999941741,12.440581489390803,15.431639551283698,-0.4503350764420749,0,Fixed-Wing
1970-01-01 00:00:36.876087232,2099,1538765361869281448,base_link,0,1,40.5921596,-79.8992381,403.552192342,0.435600034618,0.0,0.0,0.0,0.435600034618,0.0,0.0,0.0,1.74240013847,1,66.56580042746998,195.8534728582916,403.54883124661944,14.704446837963468,13.266809516369168,-0.4252888350429507,0,Fixed-Wing
1970-01-01 00:00:37.244706176,2101,1538765362238000488,base_link,0,1,40.5921963,-79.8991581,403.552258743,0.435600034618,0.0,0.0,0.0,0.435600034618,0.0,0.0,0.0,1.74240013847,1,73.3383204675403,199.92918432810626,403.54869672175846,16.926010721825225,10.186095519686722,-0.00033620708774085645,0,Fixed-Wing
1970-01-01 00:00:37.657629824,2103,1538765362651164680,base_link,0,1,40.5922229,-79.8990726,403.712334942,0.435600034618,0.0,0.0,0.0,0.435600034618,0.0,0.0,0.0,1.74240013847,1,80.57646024309281,202.8832760111275,403.70859220888684,18.089696408753543,7.382922044414202,0.399613838496422,0,Fixed-Wing
1970-01-01 00:00:38.049050272,2105,1538765363042063432,base_link,0,1,40.5922409,-79.8989847,403.782417157,0.435600034618,0.0,0.0,0.0,0.435600034618,0.0,0.0,0.0,1.74240013847,1,88.0177812230895,204.88231786288495,403.7785121667333,18.597490734137306,4.9960433658418095,0.17474528671410178,0,Fixed-Wing
1970-01-01 00:00:38.451243264,2107,1538765363444560808,base_link,0,1,40.5922503,-79.8988961,403.762503654,0.435600034618,0.0,0.0,0.0,0.435600034618,0.0,0.0,0.0,1.74240013847,1,95.51836908415306,205.9263085212226,403.75845720316545,18.745611649018592,2.6091612829432367,-0.05012174587409589,0,Fixed-Wing
1970-01-01 00:00:38.895894976,2109,1538765363889002984,base_link,0,1,40.5922501,-79.8988083,403.702593319,0.435600034618,0.0,0.0,0.0,0.435600034618,0.0,0.0,0.0,1.74240013847,1,102.95124337355877,205.9041949080468,403.6984321103423,18.576380604575327,-0.05526676207636214,-0.15001585210406485,0,Fixed-Wing
1970-01-01 00:00:39.243192512,2111,1538765364231539048,base_link,0,1,40.5922402,-79.8987232,403.572684256,0.435600034618,0.0,0.0,0.0,0.435600034618,0.0,0.0,0.0,1.74240013847,1,110.15555867862398,204.80486819992052,403.5684383495723,18.005161649647505,-2.747458189631451,-0.324882876026221,0,Fixed-Wing
1970-01-01 00:00:39.647719168,2113,1538765364635260712,base_link,0,1,40.5922216,-79.8986423,403.342774524,0.435600034618,0.0,0.0,0.0,0.435600034618,0.0,0.0,0.0,1.74240013847,1,117.00433012070376,202.7393779667395,403.3384729857817,17.11657967405131,-5.162112422820392,-0.5747338051623808,0,Fixed-Wing
1970-01-01 00:00:40.037312928,2115,1538765365030365288,base_link,0,1,40.5921945,-79.8985679,403.122861694,0.435600034618,0.0,0.0,0.0,0.435600034618,0.0,0.0,0.0,1.74240013847,1,123.3028505551555,199.72993428125017,403.11853685484346,15.741381904284275,-7.5212588203420045,-0.5496685559219375,0,Fixed-Wing
1970-01-01 00:00:40.472750272,2117,1538765365466250568,base_link,0,1,40.5921587,-79.8985014,402.992944423,0.435600034618,0.0,0.0,0.0,0.435600034618,0.0,0.0,0.0,1.74240013847,1,128.93260400136367,195.75432564586086,402.9886319809132,14.069986744662717,-9.935916614531227,-0.32466072834796456,0,Fixed-Wing
1970-01-01 00:00:40.825671200,2119,1538765365819210344,base_link,0,1,40.5921156,-79.898445,402.893019887,0.435600034618,0.0,0.0,0.0,0.435600034618,0.0,0.0,0.0,1.74240013847,1,133.70734229846158,190.96801959826882,402.88875473335725,11.933116643793594,-11.962026985547103,-0.24961511416677382,0,Fixed-Wing
1970-01-01 00:00:41.273744800,2121,1538765366266468616,base_link,0,1,40.5920671,-79.8983986,402.7330874,0.435600034618,0.0,0.0,0.0,0.435600034618,0.0,0.0,0.0,1.74240013847,1,137.63552534309125,185.582012837388,402.7288981831048,9.8173896773,-13.460810398952407,-0.3995165267165778,0,Fixed-Wing
1970-01-01 00:00:41.645784960,2123,1538765366638995752,base_link,0,1,40.5920143,-79.8983623,402.553146404,0.435600034618,0.0,0.0,0.0,0.435600034618,0.0,0.0,0.0,1.74240013847,1,140.70868505587018,179.71846356567903,402.5490585455938,7.680499125970463,-14.654293712487252,-0.4494586379530194,0,Fixed-Wing
1970-01-01 00:00:42.041176640,2125,1538765367034274152,base_link,0,1,40.5919584,-79.8983365,402.563195992,0.435600034618,0.0,0.0,0.0,0.435600034618,0.0,0.0,0.0,1.74240013847,1,142.89295930440727,173.51063957529075,402.5592319548302,5.458979690189549,-15.51471162858676,0.02542557759789707,0,Fixed-Wing
1970-01-01 00:00:42.476000864,2127,1538765367465647272,base_link,0,1,40.5919011,-79.8983227,402.933233923,0.435600034618,0.0,0.0,0.0,0.435600034618,0.0,0.0,0.0,1.74240013847,1,144.0613605656841,167.1473317427765,402.92941398275343,2.920090624871831,-15.903299800098134,0.9251659554470459,0,Fixed-Wing
1970-01-01 00:00:42.854131776,2129,1538765367847589320,base_link,0,1,40.591844,-79.8983195,403.64326096,0.435600034618,0.0,0.0,0.0,0.435600034618,0.0,0.0,0.0,1.74240013847,1,144.33240280377873,160.8062251965882,403.639598316381,0.6773939096397943,-15.847813923619583,1.7749061758889861,0,Fixed-Wing
1970-01-01 00:00:43.236895104,2131,1538765368230481416,base_link,0,1,40.5917884,-79.8983234,404.293280134,0.435600034618,0.0,0.0,0.0,0.435600034618,0.0,0.0,0.0,1.74240013847,1,144.00237286872766,154.6316838379163,404.28977799123976,-0.8248170822894663,-15.431531043228711,1.6249413929615697,0,Fixed-Wing
1970-01-01 00:00:43.618804928,2133,1538765368610828520,base_link,0,1,40.5917347,-79.8983347,404.90329097,0.435600034618,0.0,0.0,0.0,0.435600034618,0.0,0.0,0.0,1.74240013847,1,143.04587144141988,148.6681291873828,404.899952452199,-2.390506534977282,-14.9042290547542,1.5249596025222838,0,Fixed-Wing
1970-01-01 00:00:44.045661472,2135,1538765369039022120,base_link,0,1,40.5916831,-79.8983528,405.513293994,0.435600034618,0.0,0.0,0.0,0.435600034618,0.0,0.0,0.0,1.74240013847,1,141.51369198270893,142.9377741333877,405.51012091305654,-3.8292520055256287,-14.321412193677183,1.5249446069542043,0,Fixed-Wing
1970-01-01 00:00:44.432728192,2137,1538765369426219304,base_link,0,1,40.5916336,-79.8983762,405.983290739,0.435600034618,0.0,0.0,0.0,0.435600034618,0.0,0.0,0.0,1.74240013847,1,139.53281663156906,137.44061844496582,405.98028235255265,-4.9506413024426665,-13.738595909832888,1.1750363998653166,0,Fixed-Wing
1970-01-01 00:00:44.844263008,2139,1538765369837531144,base_link,0,1,40.591586,-79.8984039,406.133282306,0.435600034618,0.0,0.0,0.0,0.435600034618,0.0,0.0,0.0,1.74240013847,1,137.1878989182743,132.15445008328336,406.1304367001786,-5.860462888584223,-13.211292375338846,0.3752685976281693,0,Fixed-Wing
1970-01-01 00:00:45.237118432,2141,1538765370230675144,base_link,0,1,40.5915402,-79.8984357,406.053268942,0.435600034618,0.0,0.0,0.0,0.435600034618,0.0,0.0,0.0,1.74240013847,1,134.4958722537303,127.06816699255052,406.0505841937125,-6.727964172556046,-12.711735309547887,-0.19956890088378593,0,Fixed-Wing
1970-01-01 00:00:45.650727776,2143,1538765370644119016,base_link,0,1,40.5914957,-79.8984712,405.683251262,0.435600034618,0.0,0.0,0.0,0.435600034618,0.0,0.0,0.0,1.74240013847,1,131.49059933583638,122.12624298359785,405.6807258562054,-7.510835158747724,-12.350950350397172,-0.9243569822107655,0,Fixed-Wing
1970-01-01 00:00:46.051924640,2145,1538765371044095656,base_link,0,1,40.5914536,-79.8985125,405.033226661,0.435600034618,0.0,0.0,0.0,0.435600034618,0.0,0.0,0.0,1.74240013847,1,127.99429666959429,117.4508346071174,405.03086029022916,-8.73802603247007,-11.684869419507523,-1.6241563660762417,0,Fixed-Wing
1970-01-01 00:00:46.444175552,2147,1538765371437717736,base_link,0,1,40.5914155,-79.8985627,404.453191301,0.435600034618,0.0,0.0,0.0,0.435600034618,0.0,0.0,0.0,1.74240013847,1,123.74452850096935,113.21962986704366,404.45098536858745,-10.621101327397536,-10.57470725416741,-1.449234418348525,0,Fixed-Wing
1970-01-01 00:00:46.831721824,2149,1538765371824773832,base_link,0,1,40.5913824,-79.8986218,404.003144762,0.435600034618,0.0,0.0,0.0,0.435600034618,0.0,0.0,0.0,1.74240013847,1,118.74129371958276,109.54368388277231,404.0010981431228,-12.5041793974048,-9.18699402504555,-1.1243666990681307,0,Fixed-Wing
1970-01-01 00:00:47.207211840,2151,1538765372199916232,base_link,0,1,40.5913554,-79.8986893,403.753087097,0.435600034618,0.0,0.0,0.0,0.435600034618,0.0,0.0,0.0,1.74240013847,1,113.02692057884613,106.5451580029031,403.7511950658899,-14.281469892500159,-7.493972833162687,-0.6245625172957034,0,Fixed-Wing
1970-01-01 00:00:47.626443680,2153,1538765372619776040,base_link,0,1,40.5913352,-79.8987627,403.463020566,0.435600034618,0.0,0.0,0.0,0.435600034618,0.0,0.0,0.0,1.74240013847,1,106.81304930878642,104.30178972809651,403.4612726342699,-15.52982510480403,-5.606668603078,-0.7245796479099548,0,Fixed-Wing
1970-01-01 00:00:48.043149920,2155,1538765373036670728,base_link,0,1,40.5913237,-79.8988418,403.222944581,0.448900022364,0.0,0.0,0.0,0.448900022364,0.0,0.0,0.0,1.79560008945,1,100.11661171993782,103.02458272612785,403.2213259243327,-16.735864014616922,-3.1920199986720705,-0.5996793750383369,0,Fixed-Wing
1970-01-01 00:00:48.439351840,2157,1538765373433005928,base_link,0,1,40.5913217,-79.8989241,403.122861363,0.448900022364,0.0,0.0,0.0,0.448900022364,0.0,0.0,0.0,1.79560008945,1,93.14925539590017,102.8023846879035,403.1213517041783,-17.412949263449303,-0.5553215575741298,-0.24985746992656147,0,Fixed-Wing
1970-01-01 00:00:48.840584672,2159,1538765373834187880,base_link,0,1,40.5913312,-79.8990077,403.182772019,0.435600034618,0.0,0.0,0.0,0.435600034618,0.0,0.0,0.0,1.74240013847,1,86.07183081799255,103.85730459529273,403.18134451601645,-17.688033934164626,2.6364758697637836,0.14993517485317975,0,Fixed-Wing
1970-01-01 00:00:49.252887648,2161,1538765374246211112,base_link,0,1,40.5913517,-79.8990905,403.292678908,0.435600034618,0.0,0.0,0.0,0.435600034618,0.0,0.0,0.0,1.74240013847,1,79.06212219626192,106.1338164056796,403.29130444821044,-17.518796930285845,5.689501556730683,0.2748139511252426,0,Fixed-Wing
1970-01-01 00:00:49.640674240,2163,1538765374633997640,base_link,0,1,40.5913828,-79.8991701,403.572584654,0.435600034618,0.0,0.0,0.0,0.435600034618,0.0,0.0,0.0,1.74240013847,1,72.32331369507142,109.58750286628506,403.57123150537694,-16.841758203537655,8.63151880188808,0.6995990182230637,0,Fixed-Wing
1970-01-01 00:00:49.996084160,2165,1538765374989293416,base_link,0,1,40.5914228,-79.8992441,403.84249242,0.435600034618,0.0,0.0,0.0,0.435600034618,0.0,0.0,0.0,1.74240013847,1,66.05858648477499,114.0295720483144,403.8411290739258,-15.65692523660463,11.101703672675646,0.6745331297690879,0,Fixed-Wing
1970-01-01 00:00:50.417886336,2167,1538765375410752008,base_link,0,1,40.5914706,-79.8993103,404.022404917,0.435600034618,0.0,0.0,0.0,0.435600034618,0.0,0.0,0.0,1.74240013847,1,60.4541898605147,119.33786450963873,404.02099972603753,-14.006614493621466,13.266585345390386,0.44953615023237997,0,Fixed-Wing
1970-01-01 00:00:50.797501824,2169,1538765375791041256,base_link,0,1,40.5915266,-79.8993656,404.362325143,0.435600034618,0.0,0.0,0.0,0.435600034618,0.0,0.0,0.0,1.74240013847,1,55.772565711314755,125.55680675116815,404.36084286762764,-11.700403996750884,15.54249857301948,0.8493424344645014,0,Fixed-Wing
1970-01-01 00:00:51.208108480,2171,1538765376201496008,base_link,0,1,40.5915887,-79.8994104,404.522253569,0.435600034618,0.0,0.0,0.0,0.435600034618,0.0,0.0,0.0,1.74240013847,1,51.97984900625477,132.4531788769458,404.52066346162115,-9.478829628391097,17.235544206879464,0.3994266641512416,0,Fixed-Wing
1970-01-01 00:00:51.629411872,2173,1538765376622227048,base_link,0,1,40.5916567,-79.8994414,404.552193645,0.489999983311,0.0,0.0,0.0,0.489999983311,0.0,0.0,0.0,1.95999993324,1,49.355409469600254,140.00477134492994,404.5504626767615,-6.559049138780415,18.87308333141927,0.07447476448702747,0,Fixed-Wing
1970-01-01 00:00:52.023715680,2175,1538765377017230856,base_link,0,1,40.5917296,-79.8994578,404.612146604,0.489999983311,0.0,0.0,0.0,0.489999983311,0.0,0.0,0.0,1.95999993324,1,47.96697238249749,148.10053356762296,404.61024292757816,-3.470008340150617,20.23308271838307,0.14940393831085194,0,Fixed-Wing
1970-01-01 00:00:52.420803232,2177,1538765377414185672,base_link,0,1,40.591804,-79.8994632,404.332110188,0.489999983311,0.0,0.0,0.0,0.489999983311,0.0,0.0,0.0,1.95999993324,1,47.50976682825978,156.36287346038304,404.33001225217436,-1.1426568053426054,20.649396795401643,-0.7003578266886598,0,Fixed-Wing
1970-01-01 00:00:52.895957760,2179,1538765377889290536,base_link,0,1,40.5918781,-79.8994542,403.932088608,0.489999983311,0.0,0.0,0.0,0.489999983311,0.0,0.0,0.0,1.95999993324,1,48.27162766465398,164.59190152487886,403.92977741692084,1.9040570731501374,20.566143241476592,-1.0002745023517992,0,Fixed-Wing
1970-01-01 00:00:53.204019264,2181,1538765378196570248,base_link,0,1,40.5919495,-79.8994252,403.892088567,0.489999983311,0.0,0.0,0.0,0.489999983311,0.0,0.0,0.0,1.95999993324,1,50.72663688179612,172.52110653514148,403.8895483012543,6.135605666084701,19.816819769478588,-0.10054136998821418,0,Fixed-Wing
1970-01-01 00:00:53.598188736,2183,1538765378591694504,base_link,0,1,40.5920142,-79.8993771,404.0521108,0.435600034618,0.0,0.0,0.0,0.435600034618,0.0,0.0,0.0,1.74240013847,1,54.79860017960806,179.7062740820425,404.04933802542973,10.176728017024532,17.957307208749835,0.3993495137155273,0,Fixed-Wing
1970-01-01 00:00:54.040564992,2185,1538765379033946248,base_link,0,1,40.5920721,-79.899316,404.232149122,0.435600034618,0.0,0.0,0.0,0.435600034618,0.0,0.0,0.0,1.74240013847,1,59.97110455363739,186.13629266681897,404.22914502825427,12.927221178455058,16.070024579260135,0.44937707672485344,0,Fixed-Wing
1970-01-01 00:00:54.414307872,2187,1538765379407731784,base_link,0,1,40.5921224,-79.8992452,404.432200496,0.435600034618,0.0,0.0,0.0,0.435600034618,0.0,0.0,0.0,1.74240013847,1,65.96478136068508,191.72231960170896,404.42897145427446,14.979510920456585,13.960704617032142,0.4994099994256669,0,Fixed-Wing
1970-01-01 00:00:54.815609792,2189,1538765379808618664,base_link,0,1,40.5921659,-79.8991686,404.342260612,0.448900022364,0.0,0.0,0.0,0.448900022364,0.0,0.0,0.0,1.79560008945,1,72.44946420657689,196.55318650318176,404.33881391662993,16.20664253893611,12.073394317957645,-0.22532343053927992,0,Fixed-Wing
1970-01-01 00:00:55.244470624,2191,1538765380237287560,base_link,0,1,40.5922004,-79.8990855,404.152331092,0.448900022364,0.0,0.0,0.0,0.448900022364,0.0,0.0,0.0,1.79560008945,1,79.48441804091325,200.3845838388784,404.14868122354267,17.581890245139302,9.575500995180596,-0.4751832379562992,0,Fixed-Wing
1970-01-01 00:00:55.647056192,2193,1538765380640321896,base_link,0,1,40.5922234,-79.8989969,404.142411951,0.435600034618,0.0,0.0,0.0,0.435600034618,0.0,0.0,0.0,1.74240013847,1,86.98499459657643,202.9388882899106,404.13858338952946,18.7455833943472,6.383766200642822,-0.025236698564720373,0,Fixed-Wing
1970-01-01 00:00:56.046126336,2195,1538765381039440488,base_link,0,1,40.5922341,-79.8989044,404.452501888,0.435600034618,0.0,0.0,0.0,0.435600034618,0.0,0.0,0.0,1.74240013847,1,94.81575002023574,204.12726176385894,404.4485238758057,19.570772692681818,2.970005558133912,0.7746091503310678,0,Fixed-Wing
1970-01-01 00:00:56.458682080,2197,1538765381450242056,base_link,0,1,40.5922341,-79.8988117,404.802596471,0.435600034618,0.0,0.0,0.0,0.435600034618,0.0,0.0,0.0,1.74240013847,1,102.66345210008373,204.1273769385325,404.7984971448811,19.613126097714442,0.000287846731814441,0.8746598414880495,0,Fixed-Wing
1970-01-01 00:00:56.838456928,2199,1538765381831850568,base_link,0,1,40.5922244,-79.8987213,405.112692736,0.435600034618,0.0,0.0,0.0,0.435600034618,0.0,0.0,0.0,1.74240013847,1,110.31645935148302,203.05028108793806,405.10850028747154,19.12654108440934,-2.6918984082335426,0.7747657421817191,0,Fixed-Wing
1970-01-01 00:00:57.229812704,2201,1538765382222977192,base_link,0,1,40.5922058,-79.8986344,405.282789131,0.435600034618,0.0,0.0,0.0,0.435600034618,0.0,0.0,0.0,1.74240013847,1,117.67318323168553,200.9848112058442,405.2785309697408,18.38606405548893,-5.162061560996815,0.42494391070108334,0,Fixed-Wing
1970-01-01 00:00:57.626698496,2203,1538765382620194952,base_link,0,1,40.5921798,-79.8985528,405.022883201,0.435600034618,0.0,0.0,0.0,0.435600034618,0.0,0.0,0.0,1.74240013847,1,124.58123486954695,198.09753456768505,405.0185845886741,17.264733865320636,-7.21593661520566,-0.6496629330001813,0,Fixed-Wing
1970-01-01 00:00:58.063024960,2205,1538765383051121992,base_link,0,1,40.5921454,-79.8984785,404.53297332,0.435600034618,0.0,0.0,0.0,0.435600034618,0.0,0.0,0.0,1.74240013847,1,130.87130667855388,194.27740066312623,404.5286667191199,15.720266939098861,-9.54735121414262,-1.2244120451214826,0,Fixed-Wing
1970-01-01 00:00:58.442087488,2207,1538765383435298984,base_link,0,1,40.5921027,-79.8984141,403.963056794,0.435600034618,0.0,0.0,0.0,0.435600034618,0.0,0.0,0.0,1.74240013847,1,136.32329412875526,189.53551432526098,403.9587791798375,13.625710590943795,-11.851012403287106,-1.4242737626551116,0,Fixed-Wing
1970-01-01 00:00:58.821407872,2209,1538765383814486344,base_link,0,1,40.5920523,-79.898362,403.453130926,0.435600034618,0.0,0.0,0.0,0.435600034618,0.0,0.0,0.0,1.74240013847,1,140.7340223682859,183.9385062097739,403.4489219170089,11.023375793891011,-13.988148992157663,-1.274244955522979,0,Fixed-Wing
1970-01-01 00:00:59.225948512,2211,1538765384218704296,base_link,0,1,40.5919958,-79.8983246,403.1831926,0.435600034618,0.0,0.0,0.0,0.435600034618,0.0,0.0,0.0,1.74240013847,1,143.90031428125374,177.66406054474973,403.1790913331857,7.913256889641576,-15.681213783253133,-0.6743657202703983,0,Fixed-Wing
1970-01-01 00:00:59.633574944,2213,1538765384627115688,base_link,0,1,40.591936,-79.8983009,403.083241674,0.435600034618,0.0,0.0,0.0,0.435600034618,0.0,0.0,0.0,1.74240013847,1,145.90681769812772,171.02312349454505,403.0792768517394,5.014691451106486,-16.597156014257255,-0.24945824791324603,0,Fixed-Wing
1970-01-01 00:01:00.052563104,2215,1538765385046084072,base_link,0,1,40.591875,-79.8982891,403.243279112,0.435600034618,0.0,0.0,0.0,0.435600034618,0.0,0.0,0.0,1.74240013847,1,146.90591074851704,164.2489103804676,403.23946986339826,2.496952328370683,-16.930242084542183,0.40035741745420034,0,Fixed-Wing
1970-01-01 00:01:00.394965472,2217,1538765385388098728,base_link,0,1,40.5918141,-79.8982876,403.683306005,0.435600034618,0.0,0.0,0.0,0.435600034618,0.0,0.0,0.0,1.74240013847,1,147.03304030561182,157.4857921201619,403.67966481838516,0.3177246037982523,-16.902513615259487,1.1001435925945824,0,Fixed-Wing
1970-01-01 00:01:00.828262208,2219,1538765385821794792,base_link,0,1,40.5917541,-79.8982941,404.163324367,0.435600034618,0.0,0.0,0.0,0.435600034618,0.0,0.0,0.0,1.74240013847,1,146.48290888888147,150.82260837644603,404.1598572499814,-1.3748988859240285,-16.652755373235554,1.2001060458513342,0,Fixed-Wing
1970-01-01 00:01:01.241531488,2221,1538765386234947208,base_link,0,1,40.5916951,-79.8983075,404.443335277,0.435600034618,0.0,0.0,0.0,0.435600034618,0.0,0.0,0.0,1.74240013847,1,145.34863222711564,144.27046087641267,404.44004600648555,-2.834805777609058,-16.375251483994642,0.7002530621783618,0,Fixed-Wing
1970-01-01 00:01:01.652862624,2223,1538765386646281288,base_link,0,1,40.591638,-79.8983286,404.563337542,0.435600034618,0.0,0.0,0.0,0.435600034618,0.0,0.0,0.0,1.74240013847,1,143.56248169710693,137.92929785594544,404.5602292831784,-4.463981330855887,-15.84795506521021,0.30036432787964235,0,Fixed-Wing
1970-01-01 00:01:02.044116352,2225,1538765387037701352,base_link,0,1,40.5915834,-79.8983585,404.643329785,0.435600034618,0.0,0.0,0.0,0.435600034618,0.0,0.0,0.0,1.74240013847,1,141.03133375498618,131.8657528370592,404.64040646579326,-6.325893013735092,-15.154126882564775,0.20038033768166238,0,Fixed-Wing
1970-01-01 00:01:02.445538336,2227,1538765387438854920,base_link,0,1,40.5915312,-79.8983963,404.503312964,0.435600034618,0.0,0.0,0.0,0.435600034618,0.0,0.0,0.0,1.74240013847,1,137.83137523635787,126.06871923350042,404.50057699144674,-7.9973971099739005,-14.488056491243455,-0.3494644782168751,0,Fixed-Wing
1970-01-01 00:01:02.831632512,2229,1538765387825205768,base_link,0,1,40.5914818,-79.8984418,404.213287115,0.448900022364,0.0,0.0,0.0,0.448900022364,0.0,0.0,0.0,1.79560008945,1,133.97953754128602,120.58262134125803,404.2107394297578,-9.626585929576633,-13.710960055588588,-0.7243675393663361,0,Fixed-Wing
1970-01-01 00:01:03.252345792,2231,1538765388243791048,base_link,0,1,40.5914354,-79.8984939,403.683253278,0.435600034618,0.0,0.0,0.0,0.435600034618,0.0,0.0,0.0,1.74240013847,1,129.56894157154838,115.42967110821829,403.68089214682067,-11.023045222712007,-12.878351097881277,-1.324204393469821,0,Fixed-Wing
1970-01-01 00:01:03.591772384,2233,1538765388585105192,base_link,0,1,40.591394,-79.8985543,403.023208877,0.435600034618,0.0,0.0,0.0,0.435600034618,0.0,0.0,0.0,1.74240013847,1,124.45566729695275,110.83197562788936,403.0210311656515,-12.779192188930022,-11.490647873361882,-1.6491370975799424,0,Fixed-Wing
1970-01-01 00:01:04.068114912,2235,1538765389061590376,base_link,0,1,40.5913609,-79.8986251,402.723150386,0.448900022364,0.0,0.0,0.0,0.448900022364,0.0,0.0,0.0,1.79560008945,1,118.46193656227459,107.15601689576286,402.72114961178465,-14.979645697414973,-9.18702588472728,-0.7494696753935384,0,Fixed-Wing
1970-01-01 00:01:04.469081344,2237,1538765389461015336,base_link,0,1,40.5913373,-79.8987041,402.703079551,0.448900022364,0.0,0.0,0.0,0.448900022364,0.0,0.0,0.0,1.79560008945,1,111.7739936686428,104.53506139837984,402.7012429074833,-16.71463391098228,-6.550341761657037,-0.04975121349922393,0,Fixed-Wing
1970-01-01 00:01:04.865219392,2239,1538765389858697992,base_link,0,1,40.5913254,-79.8987891,402.932997699,0.435600034618,0.0,0.0,0.0,0.435600034618,0.0,0.0,0.0,1.74240013847,1,104.5780836385579,103.21342946653519,402.93130449664545,-17.98415502676639,-3.3030476272281146,0.5749742934387404,0,Fixed-Wing
1970-01-01 00:01:05.249692768,2241,1538765390242971752,base_link,0,1,40.591325,-79.8988768,403.21290829,0.435600034618,0.0,0.0,0.0,0.435600034618,0.0,0.0,0.0,1.74240013847,1,97.15357788327321,103.16891233067619,403.2113330497182,-18.555465805147602,-0.11125807150014613,0.6998526787197129,0,Fixed-Wing
1970-01-01 00:01:05.641095296,2243,1538765390634407528,base_link,0,1,40.5913347,-79.8989647,403.492814464,0.435600034618,0.0,0.0,0.0,0.435600034618,0.0,0.0,0.0,1.74240013847,1,89.7121262802596,104.24603828213958,403.4913305143385,-18.597817189662276,2.691973636896937,0.6997749818689011,0,Fixed-Wing
1970-01-01 00:01:06.020063072,2245,1538765391013576840,base_link,0,1,40.5913539,-79.8990505,403.692718828,0.435600034618,0.0,0.0,0.0,0.435600034618,0.0,0.0,0.0,1.74240013847,1,82.44844534187351,106.3781764992321,403.6912974768853,-18.153529368037706,5.328680330128129,0.49976123098244984,0,Fixed-Wing
1970-01-01 00:01:06.420861632,2247,1538765391414402760,base_link,0,1,40.5913829,-79.8991328,403.872622688,0.435600034618,0.0,0.0,0.0,0.435600034618,0.0,0.0,0.0,1.74240013847,1,75.48105984237885,109.59864464450314,403.8712328134833,-17.4130221793056,8.048655158440592,0.44969781092899497,0,Fixed-Wing
