time,field.header.seq,field.header.stamp,field.header.frame_id,field.status.status,field.status.service,lat,lon,alt,field.position_covariance0,field.position_covariance1,field.position_covariance2,field.position_covariance3,field.position_covariance4,field.position_covariance5,field.position_covariance6,field.position_covariance7,field.position_covariance8,field.position_covariance_type,x,y,z,vel_x,vel_y,vel_z,track_id,uav_category
1970-01-01 00:00:00.000000000,1581,1538769499450979360,base_link,0,1,40.5908346,-79.894966,373.737123416,0.489999983311,0.0,0.0,0.0,0.489999983311,0.0,0.0,0.0,1.95999993324,1,564.8823556345533,55.54766410381768,373.7119033626394,8.785703940253901,25.721816054284528,1.1995658675409084,0,Fixed-Wing
1970-01-01 00:00:00.343937312,1583,1538769499795284736,base_link,0,1,40.5909272,-79.8949245,374.217126733,0.489999983311,0.0,0.0,0.0,0.489999983311,0.0,0.0,0.0,1.95999993324,1,568.3949327840904,65.83140049321696,374.1914969938775,8.785703940253901,25.721816054284528,1.1995658675409084,0,Fixed-Wing
1970-01-01 00:00:00.782353856,1585,1538769500233643744,base_link,0,1,40.5910187,-79.894894,374.847119241,0.489999983311,0.0,0.0,0.0,0.489999983311,0.0,0.0,0.0,1.95999993324,1,570.9762849139845,75.99291285761527,374.82114603481926,6.456511732925647,25.416107723241534,1.5748864222692647,0,Fixed-Wing
1970-01-01 00:00:01.164791616,1587,1538769500616034144,base_link,0,1,40.5911088,-79.8948728,375.227102815,0.489999983311,0.0,0.0,0.0,0.489999983311,0.0,0.0,0.0,1.95999993324,1,572.7703010801866,85.998890785979,375.200841622432,4.4872167156124245,25.027082956143065,0.9496995733248874,0,Fixed-Wing
1970-01-01 00:00:01.581266976,1589,1538769501032583680,base_link,0,1,40.5911973,-79.8948574,374.977081141,0.409599981689,0.0,0.0,0.0,0.409599981689,0.0,0.0,0.0,1.63839992676,1,574.0732542183576,95.82713907081543,374.95056255280906,3.2589634426972225,24.582543245565184,-0.6260012846804051,0,Fixed-Wing
1970-01-01 00:00:01.985568832,1591,1538769501436780352,base_link,0,1,40.5912843,-79.8948475,373.957054483,0.409599981689,0.0,0.0,0.0,0.409599981689,0.0,0.0,0.0,1.63839992676,1,574.9105298923187,105.48875944010112,373.9303077431546,2.0942048742665613,24.16577132230553,-2.5518746833576507,0,Fixed-Wing
1970-01-01 00:00:02.340548960,1593,1538769501791721952,base_link,0,1,40.5913704,-79.8948445,372.297021147,0.462400009727,0.0,0.0,0.0,0.462400009727,0.0,0.0,0.0,1.84960003891,1,575.163615839881,115.05037301459885,372.2700859119909,0.6330218845198425,23.915633018258173,-4.152568573667362,0,Fixed-Wing
1970-01-01 00:00:02.759335552,1595,1538769502210440448,base_link,0,1,40.5914557,-79.894849,370.056980476,0.409599981689,0.0,0.0,0.0,0.409599981689,0.0,0.0,0.0,1.63839992676,1,574.7817247750083,124.52307942915294,370.02990127400454,-0.9551909297825982,23.69325726615933,-5.603179136847307,0,Fixed-Wing
1970-01-01 00:00:03.213511424,1597,1538769502664825856,base_link,0,1,40.5915404,-79.8948634,367.526929919,0.409599981689,0.0,0.0,0.0,0.409599981689,0.0,0.0,0.0,1.63839992676,1,573.561706683397,133.92907723514088,367.49976934124777,-3.05152521875944,23.526404821308176,-6.328399105458082,0,Fixed-Wing
1970-01-01 00:00:03.569307840,1599,1538769503020490464,base_link,0,1,40.5916244,-79.8948916,365.066865514,0.409599981689,0.0,0.0,0.0,0.409599981689,0.0,0.0,0.0,1.63839992676,1,571.1734359830773,143.2572431983679,365.0397157473676,-5.973573934157337,23.33173079750431,-6.153118247050223,0,Fixed-Wing
1970-01-01 00:00:04.008365216,1601,1538769503459444544,base_link,0,1,40.5917066,-79.8949343,362.946787008,0.409599981689,0.0,0.0,0.0,0.409599981689,0.0,0.0,0.0,1.63839992676,1,567.5576916235384,152.38542320178226,362.9197474623671,-9.043747116198592,22.831523297335135,-5.302492421325548,0,Fixed-Wing
1970-01-01 00:00:04.408970816,1603,1538769503860117184,base_link,0,1,40.591785,-79.8949917,361.196695044,0.409599981689,0.0,0.0,0.0,0.409599981689,0.0,0.0,0.0,1.63839992676,1,562.6975664962811,161.09151550753836,361.1698710209788,-12.156208579304296,21.77579202352166,-4.376813858192032,0,Fixed-Wing
1970-01-01 00:00:04.798492480,1605,1538769504249728704,base_link,0,1,40.5918567,-79.8950632,359.966591457,0.409599981689,0.0,0.0,0.0,0.409599981689,0.0,0.0,0.0,1.63839992676,1,556.6438955143213,169.0534804889624,359.9400912852772,-15.14152109262924,19.91457102050506,-3.0759411707217597,0,Fixed-Wing
1970-01-01 00:00:05.151125056,1607,1538769504602234912,base_link,0,1,40.5919209,-79.8951449,359.606480589,0.435600034618,0.0,0.0,0.0,0.435600034618,0.0,0.0,0.0,1.74240013847,1,549.7268777573363,176.18251559869464,359.5803860508705,-17.30093534610548,17.831235923753592,-0.8996994402452784,0,Fixed-Wing
1970-01-01 00:00:05.590161536,1609,1538769505041193600,base_link,0,1,40.5919792,-79.8952303,360.13636844,0.435600034618,0.0,0.0,0.0,0.435600034618,0.0,0.0,0.0,1.74240013847,1,542.4967677341382,182.65635058110328,360.11070950130875,-18.084045820218076,16.192440789804674,1.326451955293897,0,Fixed-Wing
1970-01-01 00:00:06.002198016,1611,1538769505453399776,base_link,0,1,40.5920362,-79.8953129,361.116259751,0.435600034618,0.0,0.0,0.0,0.435600034618,0.0,0.0,0.0,1.74240013847,1,535.5037556058826,188.98585608677723,361.0910060580537,-17.49101346216815,15.831442013561453,2.45193057819286,0,Fixed-Wing
1970-01-01 00:00:06.411994944,1613,1538769505863353536,base_link,0,1,40.5920947,-79.8953903,362.13615581,0.435600034618,0.0,0.0,0.0,0.435600034618,0.0,0.0,0.0,1.74240013847,1,528.9509586834154,195.48198114029054,362.1112518569259,-16.389941427760522,16.248193007391862,2.5518521454709724,0,Fixed-Wing
1970-01-01 00:00:06.807686976,1615,1538769506257506400,base_link,0,1,40.5921529,-79.8954641,363.126055726,0.409599981689,0.0,0.0,0.0,0.409599981689,0.0,0.0,0.0,1.63839992676,1,522.7029342750643,201.94481880317684,363.1014642794315,-15.627640426484488,16.164934150278636,2.476732271415725,0,Fixed-Wing
1970-01-01 00:00:07.189859648,1617,1538769506641165984,base_link,0,1,40.5922092,-79.8955372,363.71595719,0.409599981689,0.0,0.0,0.0,0.409599981689,0.0,0.0,0.0,1.63839992676,1,516.5141605264356,208.19665525570338,363.6916676906981,-15.479441900893697,15.637175161269548,1.4762244970475684,0,Fixed-Wing
1970-01-01 00:00:07.541551296,1619,1538769506991756192,base_link,0,1,40.5922615,-79.8956125,364.095858102,0.409599981689,0.0,0.0,0.0,0.409599981689,0.0,0.0,0.0,1.63839992676,1,510.13916567858945,214.00426868470788,364.0718882409409,-15.945220551582901,14.526078720690798,0.9510126167260328,0,Fixed-Wing
1970-01-01 00:00:07.995817440,1621,1538769507447189824,base_link,0,1,40.5923072,-79.8956916,364.085757902,0.409599981689,0.0,0.0,0.0,0.409599981689,0.0,0.0,0.0,1.63839992676,1,503.44250486636537,219.07890733054487,364.06214665533867,-16.749775671761007,12.692752599603269,-0.02436578140955374,0,Fixed-Wing
1970-01-01 00:00:08.402203936,1623,1538769507852943392,base_link,0,1,40.5923472,-79.8957747,363.855656005,0.409599981689,0.0,0.0,0.0,0.409599981689,0.0,0.0,0.0,1.63839992676,1,496.4072533095541,223.52052310332226,363.8324408950426,-17.596663273715905,11.109427504283069,-0.5745430541213543,0,Fixed-Wing
1970-01-01 00:00:08.845347776,1625,1538769508296040960,base_link,0,1,40.5923808,-79.8958611,363.505553419,0.409599981689,0.0,0.0,0.0,0.409599981689,0.0,0.0,0.0,1.63839992676,1,489.0926826754969,227.2513873493632,363.48277041348206,-18.295299805548666,9.33168648304662,-0.8746003850881812,0,Fixed-Wing
1970-01-01 00:00:09.173428384,1627,1538769508624543168,base_link,0,1,40.5924096,-79.8959497,362.9654506,0.409599981689,0.0,0.0,0.0,0.409599981689,0.0,0.0,0.0,1.63839992676,1,481.5918967592364,230.44918806428808,362.9431225058008,-18.761063906645965,7.9983810020982204,-1.3497744097919622,0,Fixed-Wing
1970-01-01 00:00:09.580616288,1629,1538769509031767968,base_link,0,1,40.5924338,-79.8960405,362.505347464,0.409599981689,0.0,0.0,0.0,0.409599981689,0.0,0.0,0.0,1.63839992676,1,473.9049135271234,233.1361460141885,362.483496422427,-19.22678307007147,6.720654392131263,-1.149622775480587,0,Fixed-Wing
1970-01-01 00:00:09.986680480,1631,1538769509438037344,base_link,0,1,40.5924557,-79.8961328,362.13524377,0.409599981689,0.0,0.0,0.0,0.409599981689,0.0,0.0,0.0,1.63839992676,1,466.09097536674744,235.5676864825067,362.1138781210675,-19.54432439827312,6.081800844204913,-0.924494133053232,0,Fixed-Wing
1970-01-01 00:00:10.334657568,1633,1538769509785894784,base_link,0,1,40.5924765,-79.896225,361.895140657,0.409599981689,0.0,0.0,0.0,0.409599981689,0.0,0.0,0.0,1.63839992676,1,458.28552565320257,237.87708266002733,361.8742538718444,-19.523092983959405,5.77629194539508,-0.5993513084423046,0,Fixed-Wing
1970-01-01 00:00:10.765364864,1635,1538769510216669440,base_link,0,1,40.5924975,-79.896317,361.755037686,0.409599981689,0.0,0.0,0.0,0.409599981689,0.0,0.0,0.0,1.63839992676,1,450.49701827643645,240.208702113245,361.7346173565468,-19.48071658946119,5.831877093434525,-0.3492606796737384,0,Fixed-Wing
1970-01-01 00:00:11.165334368,1637,1538769510615871808,base_link,0,1,40.5925195,-79.8964079,361.734935448,0.409599981689,0.0,0.0,0.0,0.409599981689,0.0,0.0,0.0,1.63839992676,1,442.80163942650347,242.65139206659944,361.714960531545,-19.247782299247582,6.1096880821059,-0.04916590796983788,0,Fixed-Wing
1970-01-01 00:00:11.548638368,1639,1538769510999957696,base_link,0,1,40.5925399,-79.8964979,361.814834817,0.409599981689,0.0,0.0,0.0,0.409599981689,0.0,0.0,0.0,1.63839992676,1,435.18247322328955,244.91641449026855,361.79529675541085,-19.057158229776245,5.665303731482541,0.20093801460172303,0,Fixed-Wing
1970-01-01 00:00:11.995537696,1641,1538769511446881184,base_link,0,1,40.5925576,-79.8965871,361.914736145,0.409599981689,0.0,0.0,0.0,0.409599981689,0.0,0.0,0.0,1.63839992676,1,427.63105475393445,246.88160806247583,361.89563214826387,-18.887706711142652,4.91536788394192,0.2509601978285117,0,Fixed-Wing
1970-01-01 00:00:12.326405696,1643,1538769511777567616,base_link,0,1,40.5925714,-79.8966763,362.104639108,0.409599981689,0.0,0.0,0.0,0.409599981689,0.0,0.0,0.0,1.63839992676,1,420.0796703560563,248.41370866350627,362.08597656445636,-18.887621491118608,3.8321100759629316,0.4760919450745814,0,Fixed-Wing
1970-01-01 00:00:12.769257152,1645,1538769512220296896,base_link,0,1,40.59258,-79.8967652,362.164544552,0.409599981689,0.0,0.0,0.0,0.409599981689,0.0,0.0,0.0,1.63839992676,1,412.553708950024,249.36834102519074,362.1463351797179,-18.82403317116879,2.387738957605625,0.1509697584866679,0,Fixed-Wing
1970-01-01 00:00:13.216856736,1647,1538769512668115296,base_link,0,1,40.5925823,-79.8968534,361.944453337,0.409599981689,0.0,0.0,0.0,0.409599981689,0.0,0.0,0.0,1.63839992676,1,405.0870287332875,249.6233433531159,361.9267118523159,-18.67575828460916,0.6378151601655672,-0.5493247410042918,0,Fixed-Wing
1970-01-01 00:00:13.553830560,1649,1538769513004783968,base_link,0,1,40.5925763,-79.8969398,361.534367417,0.409599981689,0.0,0.0,0.0,0.409599981689,0.0,0.0,0.0,1.63839992676,1,397.7727675331821,248.9566192954323,361.517111722101,-18.29452584529852,-1.6676189393946297,-1.0244972066825564,0,Fixed-Wing
1970-01-01 00:00:13.982490208,1651,1538769513433725088,base_link,0,1,40.5925613,-79.8970238,361.054287692,0.409599981689,0.0,0.0,0.0,0.409599981689,0.0,0.0,0.0,1.63839992676,1,390.6617282724131,247.2904393323703,361.0375358371616,-17.78622447079088,-4.1674711311535555,-1.1995214802663772,0,Fixed-Wing
1970-01-01 00:00:14.396365728,1653,1538769513847463424,base_link,0,1,40.5925374,-79.8971035,360.674216062,0.409599981689,0.0,0.0,0.0,0.409599981689,0.0,0.0,0.0,1.63839992676,1,383.91476437437035,244.6359232228836,360.65797590053705,-16.875594408394914,-6.639510436278362,-0.9493602812978287,0,Fixed-Wing
1970-01-01 00:00:14.787468320,1655,1538769514238710464,base_link,0,1,40.5925061,-79.8971776,360.424153237,0.409599981689,0.0,0.0,0.0,0.409599981689,0.0,0.0,0.0,1.63839992676,1,377.6419192891333,241.1596552492747,360.40841971840695,-15.689722228373425,-8.694886954195066,-0.6241931890219423,0,Fixed-Wing
1970-01-01 00:00:15.141471104,1657,1538769514592769920,base_link,0,1,40.5924684,-79.8972446,360.724100334,0.409599981689,0.0,0.0,0.0,0.409599981689,0.0,0.0,0.0,1.63839992676,1,371.97019414633576,236.97270841420107,360.70885693366023,-14.186193160676746,-10.472446224102757,0.7514574950182898,0,Fixed-Wing
1970-01-01 00:00:15.603629248,1659,1538769515055018976,base_link,0,1,40.5924275,-79.8973058,361.324054698,0.409599981689,0.0,0.0,0.0,0.409599981689,0.0,0.0,0.0,1.63839992676,1,366.78950216624503,232.4304331433704,361.30927843612926,-12.958014587301662,-11.36119835828041,1.5017821205010242,0,Fixed-Wing
1970-01-01 00:00:16.014685664,1661,1538769515465219104,base_link,0,1,40.5923861,-79.8973641,361.984012245,0.409599981689,0.0,0.0,0.0,0.409599981689,0.0,0.0,0.0,1.63839992676,1,361.85431186733126,227.83264853154282,361.96968376253454,-12.343962569130445,-11.500039048507507,1.6518144460195252,0,Fixed-Wing
1970-01-01 00:00:16.332784320,1663,1538769515783996960,base_link,0,1,40.5923453,-79.8974218,362.573970165,0.409599981689,0.0,0.0,0.0,0.409599981689,0.0,0.0,0.0,1.63839992676,1,356.96990109422296,223.3014976613265,362.56007714971304,-12.216952154565714,-11.33337386186381,1.476699667284869,0,Fixed-Wing
1970-01-01 00:00:16.769560736,1665,1538769516213808896,base_link,0,1,40.5923068,-79.8974809,362.963925707,0.409599981689,0.0,0.0,0.0,0.409599981689,0.0,0.0,0.0,1.63839992676,1,351.96694160249854,219.02575716407057,362.95045894440244,-12.513467761175233,-10.694538094115456,0.9764280543298592,0,Fixed-Wing
1970-01-01 00:00:17.209994336,1667,1538769516661025152,base_link,0,1,40.5922702,-79.897542,363.103878424,0.409599981689,0.0,0.0,0.0,0.409599981689,0.0,0.0,0.0,1.63839992676,1,346.7946397082019,214.9610027192739,363.0908331913418,-12.937029194901157,-10.16681701824554,0.35110590371169814,0,Fixed-Wing
1970-01-01 00:00:17.558437280,1669,1538769517008995424,base_link,0,1,40.5922355,-79.8976053,363.07382811,0.409599981689,0.0,0.0,0.0,0.409599981689,0.0,0.0,0.0,1.63839992676,1,341.43606917267255,211.1072370484356,363.0612005875432,-13.402926758301122,-9.639089135326383,-0.07411745646282202,0,Fixed-Wing
1970-01-01 00:00:17.990758144,1671,1538769517441921568,base_link,0,1,40.5922023,-79.8976706,363.053775136,0.409599981689,0.0,0.0,0.0,0.409599981689,0.0,0.0,0.0,1.63839992676,1,335.90817333943903,207.42004653845268,363.04156197286426,-13.826445409107205,-9.222449162801238,-0.04912036007205437,0,Fixed-Wing
1970-01-01 00:00:18.393044288,1673,1538769517844303584,base_link,0,1,40.5921711,-79.8977381,363.09371909,0.409599981689,0.0,0.0,0.0,0.409599981689,0.0,0.0,0.0,1.63839992676,1,330.1940211408731,203.95495858267012,363.08191587846113,-14.292312267864803,-8.666923347279843,0.1009337168448537,0,Fixed-Wing
1970-01-01 00:00:18.766119232,1675,1538769518217118624,base_link,0,1,40.592141,-79.8978063,363.333661879,0.409599981689,0.0,0.0,0.0,0.409599981689,0.0,0.0,0.0,1.63839992676,1,324.4206088565669,200.61203631585752,363.32226078162154,-14.440534369934857,-8.361360927081117,0.6011538175025024,0,Fixed-Wing
1970-01-01 00:00:19.145907040,1677,1538769518597227360,base_link,0,1,40.5921111,-79.8978747,363.633604389,0.409599981689,0.0,0.0,0.0,0.409599981689,0.0,0.0,0.0,1.63839992676,1,318.6302616964433,197.29132989921774,363.622598587948,-14.482892102978914,-8.305794351860103,0.7512088521094422,0,Fixed-Wing
1970-01-01 00:00:19.562722848,1679,1538769519013951712,base_link,0,1,40.5920812,-79.8979427,363.953547314,0.409599981689,0.0,0.0,0.0,0.409599981689,0.0,0.0,0.0,1.63839992676,1,312.87377244356287,193.97062971419538,363.942928167762,-14.398206262238292,-8.30577876525705,0.8012125376156737,0,Fixed-Wing
1970-01-01 00:00:19.995525472,1681,1538769519446826752,base_link,0,1,40.5920517,-79.8980106,364.283490184,0.409599981689,0.0,0.0,0.0,0.409599981689,0.0,0.0,0.0,1.63839992676,1,307.12574179755325,190.6943552603213,364.2732490337224,-14.377049484023813,-8.194660545049587,0.826202873294554,0,Fixed-Wing
1970-01-01 00:00:20.370317056,1683,1538769519821653792,base_link,0,1,40.5920218,-79.8980781,364.493433635,0.409599981689,0.0,0.0,0.0,0.409599981689,0.0,0.0,0.0,1.63839992676,1,301.4115643022953,187.3736617943926,364.4835633329295,-14.29237554028193,-8.305761959372006,0.5260408778436071,0,Fixed-Wing
1970-01-01 00:00:20.782758400,1685,1538769520233709280,base_link,0,1,40.5919913,-79.8981447,364.533378264,0.409599981689,0.0,0.0,0.0,0.409599981689,0.0,0.0,0.0,1.63839992676,1,295.77356714098545,183.98633917531797,364.5238703645852,-14.10183229193619,-8.4724156692862,0.10081647512965385,0,Fixed-Wing
1970-01-01 00:00:21.192914880,1687,1538769520644283008,base_link,0,1,40.5919599,-79.8982106,364.293323989,0.462400009727,0.0,0.0,0.0,0.462400009727,0.0,0.0,0.0,1.84960003891,1,290.1948156703207,180.499068007262,364.28417185748435,-13.953646195066533,-8.72240828815968,-0.5995370432180968,0,Fixed-Wing
1970-01-01 00:00:21.556985632,1689,1538769521006333120,base_link,0,1,40.5919277,-79.8982762,363.913270361,0.409599981689,0.0,0.0,0.0,0.409599981689,0.0,0.0,0.0,1.63839992676,1,284.6414535830629,176.92295646705674,363.9044685502695,-13.890141936983856,-8.944616989753182,-0.9497188816947917,0,Fixed-Wing
1970-01-01 00:00:21.943408064,1691,1538769521393995136,base_link,0,1,40.5918948,-79.8983413,363.533217543,0.409599981689,0.0,0.0,0.0,0.409599981689,0.0,0.0,0.0,1.63839992676,1,279.1304181412288,173.26911443361007,363.5247594856295,-13.784273977464347,-9.139037516812317,-0.9497332822418787,0,Fixed-Wing
1970-01-01 00:00:22.389160224,1693,1538769521840498656,base_link,0,1,40.5918616,-79.8984057,363.223165572,0.409599981689,0.0,0.0,0.0,0.409599981689,0.0,0.0,0.0,1.63839992676,1,273.678641964823,169.58196526320356,363.2150427631501,-13.636053927169215,-9.222345763711685,-0.7746675199456219,0,Fixed-Wing
1970-01-01 00:00:22.801859168,1695,1538769522253171808,base_link,0,1,40.5918282,-79.8984703,362.973113488,0.409599981689,0.0,0.0,0.0,0.409599981689,0.0,0.0,0.0,1.63839992676,1,268.20993286520275,165.87261094343992,362.96532042975235,-13.678406776337127,-9.277885573912432,-0.624608768747232,0,Fixed-Wing
1970-01-01 00:00:23.210221856,1697,1538769522660629312,base_link,0,1,40.591795,-79.8985349,362.843061328,0.409599981689,0.0,0.0,0.0,0.409599981689,0.0,0.0,0.0,1.63839992676,1,262.7412229052947,162.18547447739297,362.8355906080102,-13.678408928100229,-9.222313987401268,-0.32448192809052356,0,Fixed-Wing
1970-01-01 00:00:23.530645152,1699,1538769522981774752,base_link,0,1,40.5917624,-79.8985996,362.873008824,0.462400009727,0.0,0.0,0.0,0.462400009727,0.0,0.0,0.0,1.84960003891,1,257.2640462066315,158.5649773056412,362.8658523038745,-13.699586045890221,-9.055634912311884,0.0756909497713465,0,Fixed-Wing
1970-01-01 00:00:24.001559040,1701,1538769523452887808,base_link,0,1,40.5917305,-79.8986647,362.952955627,0.409599981689,0.0,0.0,0.0,0.409599981689,0.0,0.0,0.0,1.63839992676,1,251.7530006793676,155.02222086813646,362.9461059928418,-13.784299203273381,-8.861188770315477,0.2007315772332881,0,Fixed-Wing
1970-01-01 00:00:24.395424032,1703,1538769523846645824,base_link,0,1,40.5916991,-79.8987299,362.982902127,0.409599981689,0.0,0.0,0.0,0.409599981689,0.0,0.0,0.0,1.63839992676,1,246.23348030858926,151.53499314530478,362.97635165543,-13.80549659279335,-8.722299622396052,0.07565084713132357,0,Fixed-Wing
1970-01-01 00:00:24.729392672,1705,1538769524180539584,base_link,0,1,40.5916679,-79.8987951,362.932848551,0.462400009727,0.0,0.0,0.0,0.462400009727,0.0,0.0,0.0,1.84960003891,1,240.7139509910501,148.0699781055814,362.92659004473103,-13.805518970548633,-8.666740968678232,-0.12446439197752246,0,Fixed-Wing
1970-01-01 00:00:25.218355136,1707,1538769524669692288,base_link,0,1,40.5916369,-79.8988604,362.842794797,0.462400009727,0.0,0.0,0.0,0.462400009727,0.0,0.0,0.0,1.84960003891,1,235.1859487431056,144.62717652118806,362.83682140708385,-13.826711574975112,-8.61118038346936,-0.2245304914062882,0,Fixed-Wing
1970-01-01 00:00:25.568634208,1709,1538769525019808032,base_link,0,1,40.591606,-79.898926,362.722740702,0.462400009727,0.0,0.0,0.0,0.462400009727,0.0,0.0,0.0,1.84960003891,1,229.63254297607259,141.1954829391568,362.7170464475219,-13.890251189409396,-8.58339690257593,-0.2995826965126513,0,Fixed-Wing
1970-01-01 00:00:25.941082688,1711,1538769525392164704,base_link,0,1,40.5915749,-79.8989915,362.672686801,0.462400009727,0.0,0.0,0.0,0.462400009727,0.0,0.0,0.0,1.84960003891,1,224.087601148622,137.74158494195072,362.6672651861155,-13.869081072946809,-8.638934876430245,-0.12451354258413982,0,Fixed-Wing
1970-01-01 00:00:26.345793888,1713,1538769525796955808,base_link,0,1,40.5915438,-79.8990568,362.68263311,0.462400009727,0.0,0.0,0.0,0.462400009727,0.0,0.0,0.0,1.84960003891,1,218.55958776924606,134.28769290244054,362.67747686921285,-13.826739417057146,-8.638919974963306,0.025541595417123964,0,Fixed-Wing
1970-01-01 00:00:26.778979392,1715,1538769526230053504,base_link,0,1,40.5915125,-79.8991222,362.692579408,0.462400009727,0.0,0.0,0.0,0.462400009727,0.0,0.0,0.0,1.84960003891,1,213.02310415755926,130.8115942611921,362.68768261949265,-13.847925272974404,-8.694463417878739,0.025526756176232363,0,Fixed-Wing
1970-01-01 00:00:27.173316288,1717,1538769526624651392,base_link,0,1,40.5914812,-79.8991877,362.642525612,0.462400009727,0.0,0.0,0.0,0.462400009727,0.0,0.0,0.0,1.84960003891,1,207.47814768262282,127.33549830189475,362.6378818549331,-13.869117709430178,-8.694456709747646,-0.12456232412610993,0,Fixed-Wing
1970-01-01 00:00:27.548868512,1719,1538769527000130496,base_link,0,1,40.5914494,-79.8992529,362.732472338,0.462400009727,0.0,0.0,0.0,0.462400009727,0.0,0.0,0.0,1.84960003891,1,201.95858926275912,123.80388377777369,362.7280751757686,-13.805591761663655,-8.83332047073094,0.22559271455533522,0,Fixed-Wing
1970-01-01 00:00:28.000218560,1721,1538769527451517184,base_link,0,1,40.5914168,-79.8993176,363.092419915,0.462400009727,0.0,0.0,0.0,0.462400009727,0.0,0.0,0.0,1.84960003891,1,196.48136480121298,120.1834375941732,363.0882629948734,-13.699705511038212,-9.05550738008057,0.9009064874083793,0,Fixed-Wing
1970-01-01 00:00:28.413204160,1723,1538769527864276096,base_link,0,1,40.5913834,-79.8993814,363.652368752,0.462400009727,0.0,0.0,0.0,0.462400009727,0.0,0.0,0.0,1.84960003891,1,191.0803343671048,116.47415877155254,363.64844466545003,-13.509128012356442,-9.277696739470295,1.401133726298854,0,Fixed-Wing
1970-01-01 00:00:28.795489952,1725,1538769528246731712,base_link,0,1,40.5913501,-79.8994457,364.142317045,0.462400009727,0.0,0.0,0.0,0.462400009727,0.0,0.0,0.0,1.84960003891,1,185.63696654712712,112.77598617243808,364.13862009668776,-13.615022836019671,-9.249917707874463,1.2260332041983628,0,Fixed-Wing
1970-01-01 00:00:29.145595552,1727,1538769528596435424,base_link,0,1,40.5913176,-79.8995113,364.332263685,0.462400009727,0.0,0.0,0.0,0.462400009727,0.0,0.0,0.0,1.84960003891,1,180.0835270760711,109.16665109728888,364.32878866739827,-13.890335490352845,-9.027716130196156,0.475652118053535,0,Fixed-Wing
1970-01-01 00:00:29.576175520,1729,1538769529027399808,base_link,0,1,40.5912857,-79.8995782,364.182208755,0.462400009727,0.0,0.0,0.0,0.462400009727,0.0,0.0,0.0,1.84960003891,1,174.4200161896101,105.62394317211712,364.17895069283054,-14.16564755521681,-8.861067430633243,-0.37477670312034134,0,Fixed-Wing
1970-01-01 00:00:29.968219328,1731,1538769529419335232,base_link,0,1,40.5912545,-79.8996468,363.982151806,0.462400009727,0.0,0.0,0.0,0.462400009727,0.0,0.0,0.0,1.84960003891,1,168.61257915376922,102.15897233531294,363.9791062585361,-14.525637523801237,-8.666630407758223,-0.49985351469074524,0,Fixed-Wing
1970-01-01 00:00:30.352471936,1733,1538769529803113760,base_link,0,1,40.5912237,-79.8997166,363.952093474,0.462400009727,0.0,0.0,0.0,0.462400009727,0.0,0.0,0.0,1.84960003891,1,162.70355125696892,98.73842762489491,363.9492551719218,-14.779737914889463,-8.555511198976573,-0.07466392854112915,0,Fixed-Wing
1970-01-01 00:00:30.815082528,1735,1538769530266423776,base_link,0,1,40.5911932,-79.8997867,363.992034719,0.462400009727,0.0,0.0,0.0,0.462400009727,0.0,0.0,0.0,1.84960003891,1,156.76912170123052,95.35120387260068,363.9893964848296,-14.843272876691206,-8.472168382401046,0.10040197722857878,0,Fixed-Wing
1970-01-01 00:00:31.191831264,1737,1538769530643043520,base_link,0,1,40.5911629,-79.8998559,364.181976806,0.462400009727,0.0,0.0,0.0,0.462400009727,0.0,0.0,0.0,1.84960003891,1,150.91088173505472,91.98619900531338,364.1795291999606,-14.652706478081374,-8.416594216413204,0.47556243560869904,0,Fixed-Wing
1970-01-01 00:00:31.548687008,1739,1538769530999741152,base_link,0,1,40.5911326,-79.8999241,364.41191992,0.462400009727,0.0,0.0,0.0,0.462400009727,0.0,0.0,0.0,1.84960003891,1,145.1372948181837,88.62120076180898,364.4096538669472,-14.440971163191676,-8.416577648920732,0.5755908290186389,0,Fixed-Wing
1970-01-01 00:00:32.043131200,1741,1538769531494238624,base_link,0,1,40.5911025,-79.899992,364.541863265,0.462400009727,0.0,0.0,0.0,0.462400009727,0.0,0.0,0.0,1.84960003891,1,139.38909702223535,85.27841637434048,364.539770915316,-14.377467561638287,-8.361016061461054,0.3254504643972035,0,Fixed-Wing
1970-01-01 00:00:32.378357216,1743,1538769531829116608,base_link,0,1,40.5910728,-79.9000597,364.721806653,0.462400009727,0.0,0.0,0.0,0.462400009727,0.0,0.0,0.0,1.84960003891,1,133.6578256570485,81.98005819896352,364.7198801517461,-14.335130951478572,-8.249896638311984,0.4504915794912994,0,Fixed-Wing
1970-01-01 00:00:32.800968768,1745,1538769532249998848,base_link,0,1,40.591044,-79.9001282,364.781748857,0.462400009727,0.0,0.0,0.0,0.462400009727,0.0,0.0,0.0,1.84960003891,1,127.85881846452568,78.78164875469218,364.77998147191505,-14.504552689361395,-7.99990356390683,0.15032620863353668,0,Fixed-Wing
1970-01-01 00:00:33.142328608,1747,1538769532593555296,base_link,0,1,40.5910184,-79.9001997,364.651686671,0.462400009727,0.0,0.0,0.0,0.462400009727,0.0,0.0,0.0,1.84960003891,1,121.80582296084701,75.93860496779232,364.6500721468267,-15.139831577511776,-7.1110583305399855,-0.324930904209449,0,Fixed-Wing
1970-01-01 00:00:33.542394752,1749,1538769532993235584,base_link,0,1,40.5909974,-79.9002756,364.541618083,0.462400009727,0.0,0.0,0.0,0.462400009727,0.0,0.0,0.0,1.84960003891,1,115.38032053622362,73.60640159563064,364.54015026241086,-16.071550763678857,-5.833337599139763,-0.274938055996723,0,Fixed-Wing
1970-01-01 00:00:33.982519296,1751,1538769533433828672,base_link,0,1,40.5909807,-79.9003552,364.321543933,0.462400009727,0.0,0.0,0.0,0.462400009727,0.0,0.0,0.0,1.84960003891,1,108.64157097294088,71.75172323415478,364.32021546524254,-16.855048606781136,-4.638945792398969,-0.5501037932605338,0,Fixed-Wing
1970-01-01 00:00:34.326830176,1753,1538769533777620640,base_link,0,1,40.5909702,-79.9004392,364.021462715,0.462400009727,0.0,0.0,0.0,0.462400009727,0.0,0.0,0.0,1.84960003891,1,101.53031273214677,70.58556979029444,364.0202642836002,-17.78677218649574,-2.9167982568053965,-0.7502418213891581,0,Fixed-Wing
1970-01-01 00:00:34.754016608,1755,1538769534205386464,base_link,0,1,40.5909676,-79.900527,363.72137433,0.462400009727,0.0,0.0,0.0,0.462400009727,0.0,0.0,0.0,1.84960003891,1,94.09734150856562,70.29673280421287,363.72029291874577,-18.591444909734093,-0.7224428499861862,-0.750292303903536,0,Fixed-Wing
1970-01-01 00:00:35.189820928,1757,1538769534640864576,base_link,0,1,40.5909758,-79.9006172,363.511278998,0.462400009727,0.0,0.0,0.0,0.462400009727,0.0,0.0,0.0,1.84960003891,1,86.46117857329455,71.20726731862973,363.51029538796354,-19.099670678456736,2.27744084485192,-0.5252485725132487,0,Fixed-Wing
1970-01-01 00:00:35.578514528,1759,1538769535029781984,base_link,0,1,40.5909955,-79.9007076,363.451178672,0.462400009727,0.0,0.0,0.0,0.462400009727,0.0,0.0,0.0,1.84960003891,1,78.8080747645594,73.39491318724458,363.450269210802,-19.142043412893138,5.4717684792495636,-0.15013825995994673,0,Fixed-Wing
1970-01-01 00:00:35.950827616,1761,1538769535401992960,base_link,0,1,40.5910256,-79.9007949,363.35107718,0.462400009727,0.0,0.0,0.0,0.462400009727,0.0,0.0,0.0,1.84960003891,1,71.41740361010692,76.73751338367575,363.3502151930993,-18.48564342319144,8.360555360427718,-0.2502564186197535,0,Fixed-Wing
1970-01-01 00:00:36.355539520,1763,1538769535805654112,base_link,0,1,40.5910666,-79.9008763,363.28097717,0.462400009727,0.0,0.0,0.0,0.462400009727,0.0,0.0,0.0,1.84960003891,1,64.52621051276421,81.29059614354904,363.2801319742211,-17.236342369405932,11.388230191326022,-0.17529306433172617,0,Fixed-Wing
1970-01-01 00:00:36.761209568,1765,1538769536212439584,base_link,0,1,40.5911171,-79.9009495,363.470881574,0.462400009727,0.0,0.0,0.0,0.462400009727,0.0,0.0,0.0,1.84960003891,1,58.32921401177079,86.89869150441635,363.47002185270617,-15.500008756730567,14.027041517304168,0.47495504941165406,0,Fixed-Wing
1970-01-01 00:00:37.130062144,1767,1538769536581158176,base_link,0,1,40.5911761,-79.9010115,363.920793868,0.462400009727,0.0,0.0,0.0,0.462400009727,0.0,0.0,0.0,1.84960003891,1,53.08038841461983,93.45074797709441,363.9198870643819,-13.12843128204918,16.388089405056604,1.1252087554357075,0,Fixed-Wing
1970-01-01 00:00:37.575656736,1769,1538769537026994368,base_link,0,1,40.5912423,-79.9010617,364.460715207,0.577599985504,0.0,0.0,0.0,0.577599985504,0.0,0.0,0.0,2.31039994202,1,48.83052700540646,100.80239414134411,364.4597300856342,-10.629808980388923,18.38803360692361,1.350262430409487,0,Fixed-Wing
1970-01-01 00:00:37.998724288,1771,1538769537450011616,base_link,0,1,40.5913134,-79.9011001,364.800646551,0.577599985504,0.0,0.0,0.0,0.577599985504,0.0,0.0,0.0,2.31039994202,1,45.57962776198984,108.69820338218364,364.79955546647034,-8.131191736533767,19.749101416285715,0.8499756903001606,0,Fixed-Wing
1970-01-01 00:00:38.384179360,1773,1538769537835438912,base_link,0,1,40.5913883,-79.9011255,364.900589576,0.577599985504,0.0,0.0,0.0,0.577599985504,0.0,0.0,0.0,2.31039994202,1,43.4292780802324,117.01601598434371,364.89936594156427,-5.37848276853634,20.804621746947458,0.2496472666591595,0,Fixed-Wing
1970-01-01 00:00:38.762418368,1775,1538769538213494912,base_link,0,1,40.5914656,-79.9011383,364.940544459,0.489999983311,0.0,0.0,0.0,0.489999983311,0.0,0.0,0.0,1.95999993324,1,42.3456140672874,125.60036011172625,364.9391644378949,-2.7104746125495875,21.471273886291193,0.09954451991867154,0,Fixed-Wing
1970-01-01 00:00:39.134307904,1777,1538769538585672128,base_link,0,1,40.5915437,-79.9011385,364.960511859,0.577599985504,0.0,0.0,0.0,0.577599985504,0.0,0.0,0.0,2.31039994202,1,42.32863347961978,134.27355209123937,364.95895483325705,-0.042472068122083956,21.693501296911805,0.0494999959034606,0,Fixed-Wing
1970-01-01 00:00:39.591755776,1779,1538769539042433632,base_link,0,1,40.5916207,-79.9011274,365.08049124,0.577599985504,0.0,0.0,0.0,0.577599985504,0.0,0.0,0.0,2.31039994202,1,43.268280324211275,142.82459434421526,365.07874172251263,2.3502569861170004,21.387978802158774,0.29961253521852826,0,Fixed-Wing
1970-01-01 00:00:39.998732320,1781,1538769539449990208,base_link,0,1,40.5916956,-79.9011088,365.320479147,0.577599985504,0.0,0.0,0.0,0.577599985504,0.0,0.0,0.0,2.31039994202,1,44.84285536235001,151.14243376098398,365.3185266246356,3.9383476939784106,20.804688815997558,0.5997531355781279,0,Fixed-Wing
1970-01-01 00:00:40.334528192,1783,1538769539785771648,base_link,0,1,40.5917688,-79.9010861,365.720471951,0.577599985504,0.0,0.0,0.0,0.577599985504,0.0,0.0,0.0,2.31039994202,1,46.764523016194815,159.2714913277359,365.71830735824415,4.8065002872513345,20.33250518189303,0.9999368033710492,0,Fixed-Wing
1970-01-01 00:00:40.764192736,1785,1538769540215321824,base_link,0,1,40.5918404,-79.9010625,366.210466357,0.577599985504,0.0,0.0,0.0,0.577599985504,0.0,0.0,0.0,2.31039994202,1,48.762379783656655,167.2228695145738,366.20808282258184,4.997065495419879,19.88809119132254,1.225032801753093,0,Fixed-Wing
1970-01-01 00:00:41.167051136,1787,1538769540617796128,base_link,0,1,40.5919112,-79.9010407,366.620459284,0.577599985504,0.0,0.0,0.0,0.577599985504,0.0,0.0,0.0,2.31039994202,1,50.607850279144,175.08540437884716,366.6178498995297,4.615914957472744,19.6658751101118,1.0249147760359878,0,Fixed-Wing
1970-01-01 00:00:41.586872000,1789,1538769541038128128,base_link,0,1,40.5919818,-79.9010218,366.900449368,0.577599985504,0.0,0.0,0.0,0.577599985504,0.0,0.0,0.0,2.31039994202,1,52.207811660313276,182.9257248599074,366.8976065357506,4.001844347431685,19.61031220406959,0.6997309600678715,0,Fixed-Wing
1970-01-01 00:00:41.990575584,1791,1538769541441683328,base_link,0,1,40.5920524,-79.9010059,366.970436423,0.577599985504,0.0,0.0,0.0,0.577599985504,0.0,0.0,0.0,2.31039994202,1,53.553798089811906,190.76603834643345,366.96735221546123,3.3665988742005633,19.610294709249093,0.17444880694799406,0,Fixed-Wing
1970-01-01 00:00:42.394351328,1793,1538769541845325088,base_link,0,1,40.5921236,-79.900992,366.99042122,0.577599985504,0.0,0.0,0.0,0.577599985504,0.0,0.0,0.0,2.31039994202,1,54.73046767252218,198.6729810015542,366.98708506579646,2.9431013609357417,19.776948457803933,0.04935606352888896,0,Fixed-Wing
1970-01-01 00:00:42.838713600,1795,1538769542285635360,base_link,0,1,40.5921943,-79.9009761,366.67040828,0.577599985504,0.0,0.0,0.0,0.577599985504,0.0,0.0,0.0,2.31039994202,1,56.07644514665673,206.52438800557164,366.666810453872,3.366576474926714,19.63804196039437,-0.8010750512109539,0,Fixed-Wing
1970-01-01 00:00:43.169630112,1797,1538769542620463648,base_link,0,1,40.5922642,-79.9009574,366.010398538,0.577599985504,0.0,0.0,0.0,0.577599985504,0.0,0.0,0.0,2.31039994202,1,57.65945511876462,214.28694299424905,366.00652992800974,3.9594452612214126,19.41580413669982,-1.6515022932679264,0,Fixed-Wing
1970-01-01 00:00:43.571751104,1799,1538769543022701504,base_link,0,1,40.5923331,-79.9009325,365.150395533,0.409599981689,0.0,0.0,0.0,0.409599981689,0.0,0.0,0.0,1.63839992676,1,59.76732939320926,221.93844160290053,365.14624525992605,5.272242723832659,19.138028465434434,-2.1517552715159187,0,Fixed-Wing
1970-01-01 00:00:43.982906400,1801,1538769543433848384,base_link,0,1,40.5923996,-79.9008979,364.510403396,0.409599981689,0.0,0.0,0.0,0.409599981689,0.0,0.0,0.0,1.63839992676,1,62.696368076843186,229.32342787176094,364.5059631665856,7.326149891782331,18.47142431294282,-1.601481952097846,0,Fixed-Wing
1970-01-01 00:00:44.393922592,1803,1538769543844766688,base_link,0,1,40.5924611,-79.90085,364.46042685,0.409599981689,0.0,0.0,0.0,0.409599981689,0.0,0.0,0.0,1.63839992676,1,66.75133749532893,236.15318383748377,364.45569571588226,10.142342582366798,17.08267501168773,-0.1257296056171216,0,Fixed-Wing
1970-01-01 00:00:44.772169600,1805,1538769544223101920,base_link,0,1,40.5925172,-79.9007923,364.470462499,0.409599981689,0.0,0.0,0.0,0.409599981689,0.0,0.0,0.0,1.63839992676,1,71.63593490115456,242.38326922580455,364.4654441754436,12.217418962761014,15.582771114792644,0.024382974646116,0,Fixed-Wing
1970-01-01 00:00:45.191796768,1807,1538769544642746016,base_link,0,1,40.5925673,-79.9007262,364.150509163,0.409599981689,0.0,0.0,0.0,0.409599981689,0.0,0.0,0.0,1.63839992676,1,77.23163715473689,247.94703795252929,364.14521125528404,13.996043715157679,13.916171159824344,-0.8009707712230008,0,Fixed-Wing
1970-01-01 00:00:45.565590784,1809,1538769545016276608,base_link,0,1,40.5926086,-79.900651,363.810568698,0.409599981689,0.0,0.0,0.0,0.409599981689,0.0,0.0,0.0,1.63839992676,1,83.59770986164932,252.53355712763266,363.8050102657855,15.922904375903396,11.471861790726944,-0.8509151676026757,0,Fixed-Wing
1970-01-01 00:00:46.003395904,1811,1538769545453985664,base_link,0,1,40.5926379,-79.9005675,363.680641601,0.409599981689,0.0,0.0,0.0,0.409599981689,0.0,0.0,0.0,1.63839992676,1,90.66643681904439,255.7874696019107,363.67485676809673,17.68039238379382,8.138728469002528,-0.325541631913359,0,Fixed-Wing
1970-01-01 00:00:46.402728672,1813,1538769545849546176,base_link,0,1,40.5926541,-79.9004786,363.820725375,0.409599981689,0.0,0.0,0.0,0.409599981689,0.0,0.0,0.0,1.63839992676,1,98.19232212037659,257.5866193180116,363.8147567043176,18.823842817096782,4.500056817808993,0.3499195515346014,0,Fixed-Wing
1970-01-01 00:00:46.766263072,1815,1538769546215992544,base_link,0,1,40.5926568,-79.9003863,364.250818152,0.409599981689,0.0,0.0,0.0,0.409599981689,0.0,0.0,0.0,1.63839992676,1,106.00606008396129,257.8865852264387,364.2447124358223,19.543823663438516,0.7502786562159015,1.075410903049778,0,Fixed-Wing
1970-01-01 00:00:47.178544832,1817,1538769546629849248,base_link,0,1,40.5926482,-79.9002958,364.480913745,0.409599981689,0.0,0.0,0.0,0.409599981689,0.0,0.0,0.0,1.63839992676,1,113.6674335057836,256.9316567576423,364.474714921218,19.162727477382326,-2.388479584589445,0.5752852268242273,0,Fixed-Wing
1970-01-01 00:00:47.554957024,1819,1538769547006134592,base_link,0,1,40.5926302,-79.9002091,364.711009343,0.409599981689,0.0,0.0,0.0,0.409599981689,0.0,0.0,0.0,1.63839992676,1,121.00713403755236,254.93283823575635,364.7047560901159,18.358155034613677,-4.999471048173278,0.5753819825062968,0,Fixed-Wing
1970-01-01 00:00:47.969744384,1821,1538769547421064896,base_link,0,1,40.5926035,-79.9001288,364.771102017,0.435600034618,0.0,0.0,0.0,0.435600034618,0.0,0.0,0.0,1.74240013847,1,127.80505431419742,251.96785478394457,364.7648344696084,17.00304716948985,-7.4160554164063965,0.15026882911335762,0,Fixed-Wing
1970-01-01 00:00:48.422991168,1823,1538769547874193600,base_link,0,1,40.5925688,-79.9000559,365.061190463,0.409599981689,0.0,0.0,0.0,0.409599981689,0.0,0.0,0.0,1.63839992676,1,133.9765467985365,248.11445590395186,365.05494787994826,15.436217776469295,-9.638171713262707,0.7256354590473139,0,Fixed-Wing
1970-01-01 00:00:48.792079392,1825,1538769548243355392,base_link,0,1,40.5925291,-79.8999909,365.711272943,0.409599981689,0.0,0.0,0.0,0.409599981689,0.0,0.0,0.0,1.63839992676,1,139.4792818898988,243.70580096661638,365.70508295795395,13.763513032226372,-11.026985431272879,1.6261263663018803,0,Fixed-Wing
1970-01-01 00:00:49.161245440,1827,1538769548612399584,base_link,0,1,40.5924877,-79.8999324,366.671349524,0.409599981689,0.0,0.0,0.0,0.409599981689,0.0,0.0,0.0,1.63839992676,1,144.43177067577918,239.1083610505511,366.6652239038016,12.387229771139944,-11.499176890955287,2.4015171004127676,0,Fixed-Wing
1970-01-01 00:00:49.607137312,1829,1538769549057865312,base_link,0,1,40.5924469,-79.8998769,367.521422824,0.409599981689,0.0,0.0,0.0,0.409599981689,0.0,0.0,0.0,1.63839992676,1,149.13029466466793,234.57754540225125,367.51535788665433,11.752009696924889,-11.332535400418864,2.1263662447605927,0,Fixed-Wing
1970-01-01 00:00:49.987246560,1831,1538769549438151488,base_link,0,1,40.5924074,-79.899823,367.941493977,0.409599981689,0.0,0.0,0.0,0.409599981689,0.0,0.0,0.0,1.63839992676,1,153.69336233204353,230.19108139478,367.9354810802811,11.413204572656753,-10.971481187053802,1.0508176306177257,0,Fixed-Wing
1970-01-01 00:00:50.407774720,1833,1538769549858715776,base_link,0,1,40.5923696,-79.8997692,368.021564346,0.435600034618,0.0,0.0,0.0,0.435600034618,0.0,0.0,0.0,1.74240013847,1,158.24795791340551,225.99339656762652,368.015590711806,11.392014080233864,-10.499304230435499,0.20037125887285254,0,Fixed-Wing
1970-01-01 00:00:50.768503392,1835,1538769550219492544,base_link,0,1,40.5923331,-79.8997154,367.931634196,0.409599981689,0.0,0.0,0.0,0.409599981689,0.0,0.0,0.0,1.63839992676,1,162.80255125054074,221.940076715087,367.92568877514634,11.392008466944544,-10.13821666643201,-0.22486390064095493,0,Fixed-Wing
1970-01-01 00:00:51.178666752,1837,1538769550629969536,base_link,0,1,40.5922986,-79.8996598,367.311705071,0.409599981689,0.0,0.0,0.0,0.409599981689,0.0,0.0,0.0,1.63839992676,1,167.50951196358744,218.10884995207914,367.30577042686696,11.773111741811523,-9.582714524063826,-1.550547886423376,0,Fixed-Wing
1970-01-01 00:00:51.574242112,1839,1538769551025462944,base_link,0,1,40.5922657,-79.8996022,366.611777338,0.409599981689,0.0,0.0,0.0,0.409599981689,0.0,0.0,0.0,1.63839992676,1,172.3857830952041,214.4553120429012,366.6058371469254,12.196593176732334,-9.138276837210903,-1.750682280760036,0,Fixed-Wing
1970-01-01 00:00:52.002708512,1841,1538769551454014464,base_link,0,1,40.5922343,-79.8995421,366.11185155,0.409599981689,0.0,0.0,0.0,0.409599981689,0.0,0.0,0.0,1.63839992676,1,177.47370055474929,210.9683684467354,366.10588858941827,12.725965742247979,-8.721588961060583,-1.250477875537483,0,Fixed-Wing
1970-01-01 00:00:52.359060864,1843,1538769551809969792,base_link,0,1,40.5922043,-79.8994799,365.661927339,0.409599981689,0.0,0.0,0.0,0.409599981689,0.0,0.0,0.0,1.63839992676,1,182.739398131129,207.6369082576573,365.65592549046534,13.170631697322507,-8.33269182823198,-1.1254535923746394,0,Fixed-Wing
1970-01-01 00:00:52.791265504,1845,1538769552242546656,base_link,0,1,40.5921756,-79.8994156,365.182004747,0.409599981689,0.0,0.0,0.0,0.409599981689,0.0,0.0,0.0,1.63839992676,1,188.1828737406839,204.44982392687808,365.1759480540387,13.615292440720987,-7.971577041813315,-1.2005258461019161,0,Fixed-Wing
1970-01-01 00:00:53.212335040,1847,1538769552663557440,base_link,0,1,40.5921479,-79.8993502,364.922082878,0.409599981689,0.0,0.0,0.0,0.409599981689,0.0,0.0,0.0,1.63839992676,1,193.71947912518067,201.37380585010385,364.9159587660661,13.848229852720486,-7.693776673622288,-0.6502886099072729,0,Fixed-Wing
1970-01-01 00:00:53.529706528,1849,1538769552980347328,base_link,0,1,40.5921207,-79.8992842,364.802161429,0.422499969006,0.0,0.0,0.0,0.422499969006,0.0,0.0,0.0,1.68999987602,1,199.30688543428698,198.35332407052744,364.7959602990101,13.975293790254057,-7.5548685601927295,-0.3001417363821629,0,Fixed-Wing
1970-01-01 00:00:53.992094528,1851,1538769553443348192,base_link,0,1,40.5920936,-79.8992184,364.52223975,0.409599981689,0.0,0.0,0.0,0.409599981689,0.0,0.0,0.0,1.63839992676,1,204.87735930939326,195.34394646931918,364.515955479708,13.932942164715572,-7.527094643922946,-0.7003517188389399,0,Fixed-Wing
1970-01-01 00:00:54.382860448,1853,1538769553833341664,base_link,0,1,40.5920654,-79.8991538,364.142317318,0.409599981689,0.0,0.0,0.0,0.409599981689,0.0,0.0,0.0,1.63839992676,1,210.34624943019622,192.21240979397925,364.1359506641492,13.67885954888863,-7.832640519001542,-0.9504730183108243,0,Fixed-Wing
1970-01-01 00:00:54.747206912,1855,1538769554198524128,base_link,0,1,40.5920364,-79.89909,363.882394417,0.409599981689,0.0,0.0,0.0,0.409599981689,0.0,0.0,0.0,1.63839992676,1,215.7474248157311,188.99203721929052,363.8759440828071,13.509490566762091,-8.054838033167897,-0.6503318643094678,0,Fixed-Wing
1970-01-01 00:00:55.193719776,1857,1538769554644613376,base_link,0,1,40.5920066,-79.8990266,363.542471455,0.409599981689,0.0,0.0,0.0,0.409599981689,0.0,0.0,0.0,1.63839992676,1,221.114741629853,185.682823598453,363.5359350104462,13.424803064791154,-8.277048420577758,-0.8504351419460576,0,Fixed-Wing
1970-01-01 00:00:55.623670112,1859,1538769555074885632,base_link,0,1,40.5919759,-79.8989641,362.992547964,0.409599981689,0.0,0.0,0.0,0.409599981689,0.0,0.0,0.0,1.63839992676,1,226.40586720074356,182.27365874952955,362.985924742215,13.234232530003444,-8.527047740462793,-1.3756928816256713,0,Fixed-Wing
1970-01-01 00:00:55.996969312,1861,1538769555447955872,base_link,0,1,40.591945,-79.8989008,362.582625387,0.409599981689,0.0,0.0,0.0,0.409599981689,0.0,0.0,0.0,1.63839992676,1,231.76472785160885,178.84229383384462,362.5759073440293,13.403652398576549,-8.582574838008744,-1.0255408827923718,0,Fixed-Wing
1970-01-01 00:00:56.410712960,1863,1538769555861485376,base_link,0,1,40.591914,-79.8988375,362.302702869,0.409599981689,0.0,0.0,0.0,0.409599981689,0.0,0.0,0.0,1.63839992676,1,237.12359792902924,175.39983157902037,362.2958839654825,13.403675976399533,-8.610331647909861,-0.7003981394646072,0,Fixed-Wing
1970-01-01 00:00:56.726406656,1865,1538769556177266976,base_link,0,1,40.5918833,-79.8987743,362.25278014,0.409599981689,0.0,0.0,0.0,0.409599981689,0.0,0.0,0.0,1.63839992676,1,242.47401445224426,171.9906951426853,362.2458534380141,13.382531835977993,-8.526976674524832,-0.12513701012099995,0,Fixed-Wing
1970-01-01 00:00:57.200063904,1867,1538769556651180960,base_link,0,1,40.5918535,-79.8987114,362.382856746,0.409599981689,0.0,0.0,0.0,0.409599981689,0.0,0.0,0.0,1.63839992676,1,247.79904239311483,168.6815136604606,362.37581427220186,13.319029581523463,-8.276968035058722,0.3250597394430905,0,Fixed-Wing
1970-01-01 00:00:57.573725632,1869,1538769557021560352,base_link,0,1,40.5918238,-79.8986496,362.812932203,0.409599981689,0.0,0.0,0.0,0.409599981689,0.0,0.0,0.0,1.63839992676,1,253.0309642157449,165.38344573602302,362.8057711973244,13.086151339975029,-8.249170658863521,1.0754138885423268,0,Fixed-Wing
1970-01-01 00:00:57.996405408,1871,1538769557446903552,base_link,0,1,40.5917951,-79.8985885,363.323006544,0.409599981689,0.0,0.0,0.0,0.409599981689,0.0,0.0,0.0,1.63839992676,1,258.20363090968453,162.19643340437256,363.31572057907476,12.93794163654284,-7.971396956650137,1.2754920680288584,0,Fixed-Wing
1970-01-01 00:00:58.399518528,1873,1538769557850575872,base_link,0,1,40.5917671,-79.8985284,363.913079586,0.409599981689,0.0,0.0,0.0,0.409599981689,0.0,0.0,0.0,1.63839992676,1,263.29164643413003,159.08715984151758,363.9056644222055,12.726211023460117,-7.776955730666824,1.475575261828873,0,Fixed-Wing
1970-01-01 00:00:58.748664896,1875,1538769558199804320,base_link,0,1,40.5917394,-79.8984688,364.293152007,0.409599981689,0.0,0.0,0.0,0.409599981689,0.0,0.0,0.0,1.63839992676,1,268.33732861314235,156.01119823298748,364.28560303414304,12.620326305789101,-7.693635434510972,0.9503074289468356,0,Fixed-Wing
1970-01-01 00:00:59.194006976,1877,1538769558644865216,base_link,0,1,40.5917118,-79.8984103,364.513223275,0.409599981689,0.0,0.0,0.0,0.409599981689,0.0,0.0,0.0,1.63839992676,1,273.2898855492154,152.9463376634916,364.50553873666047,12.387400229293837,-7.665869370384366,0.5501060577315804,0,Fixed-Wing
1970-01-01 00:00:59.588908032,1879,1538769559034420704,base_link,0,1,40.5916836,-79.8983525,364.523294092,0.409599981689,0.0,0.0,0.0,0.409599981689,0.0,0.0,0.0,1.63839992676,1,278.18318027682034,149.81484159763477,364.5154728261162,12.239172817828996,-7.832538946030882,0.02484727456747979,0,Fixed-Wing
1970-01-01 00:00:59.942601120,1881,1538769559393871200,base_link,0,1,40.5916551,-79.8982948,364.363364946,0.409599981689,0.0,0.0,0.0,0.409599981689,0.0,0.0,0.0,1.63839992676,1,283.06800715123177,146.65002879419205,364.35540280274313,12.217992912591184,-7.915871206141765,-0.4003692375128595,0,Fixed-Wing
1970-01-01 00:01:00.377778336,1883,1538769559829132000,base_link,0,1,40.5916265,-79.8982369,364.003436059,0.409599981689,0.0,0.0,0.0,0.409599981689,0.0,0.0,0.0,1.63839992676,1,287.9697607703199,143.47411027221776,363.99532721543335,12.260330307919691,-7.943648974688464,-0.9006257717737594,0,Fixed-Wing
1970-01-01 00:01:00.786511776,1885,1538769560235732352,base_link,0,1,40.5915978,-79.8981782,363.723508045,0.409599981689,0.0,0.0,0.0,0.409599981689,0.0,0.0,0.0,1.63839992676,1,292.9392478636989,140.2870945374288,363.71524429554677,12.429746160335196,-7.971405468624677,-0.7005470650429991,0,Fixed-Wing
1970-01-01 00:01:01.187729312,1887,1538769560637118784,base_link,0,1,40.5915698,-79.8981191,363.373580162,0.409599981689,0.0,0.0,0.0,0.409599981689,0.0,0.0,0.0,1.63839992676,1,297.9425952849522,137.1778189114488,363.36515278721015,12.5144380555902,-7.776960890982101,-0.8756534627709891,0,Fixed-Wing
1970-01-01 00:01:01.575768544,1889,1538769561027093984,base_link,0,1,40.5915416,-79.8980586,363.143653807,0.409599981689,0.0,0.0,0.0,0.409599981689,0.0,0.0,0.0,1.63839992676,1,303.0644730693751,134.04634387199445,363.1350522136162,12.810907751316655,-7.832486354517837,-0.5755305663095914,0,Fixed-Wing
1970-01-01 00:01:01.996870688,1891,1538769561448241280,base_link,0,1,40.5915135,-79.8979974,362.93372814,0.409599981689,0.0,0.0,0.0,0.409599981689,0.0,0.0,0.0,1.63839992676,1,308.2456153872258,130.92598069216018,362.9249435926668,12.959140978001187,-7.804693225800191,-0.5255264326932815,0,Fixed-Wing
1970-01-01 00:01:02.389876896,1893,1538769561841200640,base_link,0,1,40.5914858,-79.897936,362.853802525,0.409599981689,0.0,0.0,0.0,0.409599981689,0.0,0.0,0.0,1.63839992676,1,313.4436976759538,127.85004559740796,362.84482756744666,13.001511454875516,-7.6935691179027454,-0.20038725086704506,0,Fixed-Wing
1970-01-01 00:01:02.793761920,1895,1538769562244707008,base_link,0,1,40.5914581,-79.8978748,362.853876719,0.409599981689,0.0,0.0,0.0,0.409599981689,0.0,0.0,0.0,1.63839992676,1,318.6248566446135,124.77411506461371,362.8447064769682,12.959182625222487,-7.693557707473739,-0.0003028730895592614,0,Fixed-Wing
1970-01-01 00:01:03.212190272,1897,1538769562663070400,base_link,0,1,40.5914301,-79.8978139,362.953950747,0.409599981689,0.0,0.0,0.0,0.409599981689,0.0,0.0,0.0,1.63839992676,1,323.78062919077803,121.66487325084756,362.9445814549013,12.895685773011266,-7.776876319430291,0.2498086020047169,0,Fixed-Wing
1970-01-01 00:01:03.585116192,1899,1538769563035716480,base_link,0,1,40.5914022,-79.8977533,362.944024439,0.409599981689,0.0,0.0,0.0,0.409599981689,0.0,0.0,0.0,1.63839992676,1,328.91100281841244,118.56673698579078,362.93445151818565,12.832157665553826,-7.749098975645139,-0.025337130297336946,0,Fixed-Wing
1970-01-01 00:01:03.997851104,1901,1538769563448835264,base_link,0,1,40.5913742,-79.8976931,362.894097778,0.409599981689,0.0,0.0,0.0,0.409599981689,0.0,0.0,0.0,1.63839992676,1,334.0075161191983,115.45749679723002,362.88431757184355,12.747465772864556,-7.776872254445309,-0.12539568276139038,0,Fixed-Wing
1970-01-01 00:01:04.361751264,1903,1538769563812189152,base_link,0,1,40.591346,-79.8976328,362.884171318,0.409599981689,0.0,0.0,0.0,0.409599981689,0.0,0.0,0.0,1.63839992676,1,339.1125024740161,112.32605077891196,362.87417818049164,12.768658686507342,-7.832413766471886,-0.02536077835728633,0,Fixed-Wing
1970-01-01 00:01:04.770442784,1905,1538769564221705312,base_link,0,1,40.5913179,-79.8975726,362.884244727,0.409599981689,0.0,0.0,0.0,0.409599981689,0.0,0.0,0.0,1.63839992676,1,344.2090273742913,109.20571329632656,362.8740333036569,12.747494785659041,-7.804628951504976,-0.00036236783521139684,0,Fixed-Wing
1970-01-01 00:01:05.208654304,1907,1538769564659842336,base_link,0,1,40.59129,-79.8975123,362.864318168,0.409599981689,0.0,0.0,0.0,0.409599981689,0.0,0.0,0.0,1.63839992676,1,349.31402016334533,106.10758984629123,362.8538820285695,12.768674779903382,-7.7490669225457625,-0.05040263299553892,0,Fixed-Wing
1970-01-01 00:01:05.600755808,1909,1538769565052046464,base_link,0,1,40.5912623,-79.8974522,362.814391335,0.409599981689,0.0,0.0,0.0,0.409599981689,0.0,0.0,0.0,1.63839992676,1,354.40208292459243,103.03167910531448,362.8037254712907,12.726329172766546,-7.693508203920782,-0.125452237532195,0,Fixed-Wing
1970-01-01 00:01:05.992435424,1911,1538769565443588768,base_link,0,1,40.5912342,-79.8973923,362.814464479,0.409599981689,0.0,0.0,0.0,0.409599981689,0.0,0.0,0.0,1.63839992676,1,359.4732232344644,99.91135093230554,362.8035650005103,12.684002515900122,-7.804605666270499,-0.0004013716163064658,0,Fixed-Wing
1970-01-01 00:01:06.433802304,1913,1538769565884770400,base_link,0,1,40.5912059,-79.8973328,362.894537311,0.409599981689,0.0,0.0,0.0,0.409599981689,0.0,0.0,0.0,1.63839992676,1,364.5105103756889,96.7688153126758,362.88340093135815,12.599328527397065,-7.8601512224172225,0.1996866751571462,0,Fixed-Wing
1970-01-01 00:01:06.771941440,1915,1538769566223269056,base_link,0,1,40.591178,-79.8972738,363.104609477,0.409599981689,0.0,0.0,0.0,0.409599981689,0.0,0.0,0.0,1.63839992676,1,369.50547835704265,93.67070378865125,363.0932324673231,12.493479290840405,-7.749037093051495,0.52483338410367,0,Fixed-Wing
1970-01-01 00:01:07.188775712,1917,1538769566639947264,base_link,0,1,40.5911508,-79.8972149,363.274681259,0.409599981689,0.0,0.0,0.0,0.409599981689,0.0,0.0,0.0,1.63839992676,1,374.49197879309577,90.6503310759303,363.2630575930756,12.47230015570832,-7.554595760746352,0.42476882726242643,0,Fixed-Wing
1970-01-01 00:01:07.620111808,1919,1538769567071282208,base_link,0,1,40.5911243,-79.8971555,363.354753272,0.409599981689,0.0,0.0,0.0,0.409599981689,0.0,0.0,0.0,1.63839992676,1,379.5208031184202,87.70769911410463,363.3428740381684,12.578161221503484,-7.360149577109069,0.19963793713158667,0,Fixed-Wing
1970-01-01 00:01:07.982742400,1921,1538769567433752864,base_link,0,1,40.5910997,-79.8970941,363.344826546,0.409599981689,0.0,0.0,0.0,0.409599981689,0.0,0.0,0.0,1.63839992676,1,384.7189308484311,84.9760774937038,363.33267341295016,13.001625113207217,-6.832367749360515,-0.025513937305244254,0,Fixed-Wing
1970-01-01 00:01:08.359372800,1923,1538769567809123584,base_link,0,1,40.591078,-79.8970301,363.334901274,0.409599981689,0.0,0.0,0.0,0.409599981689,0.0,0.0,0.0,1.63839992676,1,390.13715589079106,82.56652285906722,363.32245123151336,13.552135391564784,-6.0268095892422275,-0.025567854001196086,0,Fixed-Wing
1970-01-01 00:01:08.811405024,1925,1538769568262679520,base_link,0,1,40.5910599,-79.8969625,363.374978186,0.409599981689,0.0,0.0,0.0,0.409599981689,0.0,0.0,0.0,1.63839992676,1,395.86013458295344,80.55677745921278,363.36220179561747,14.314389209172377,-5.0268014983628015,0.09942463120641189,0,Fixed-Wing
1970-01-01 00:01:09.163825184,1927,1538769568614978944,base_link,0,1,40.5910465,-79.8968915,363.425056611,0.409599981689,0.0,0.0,0.0,0.409599981689,0.0,0.0,0.0,1.63839992676,1,401.87092571574675,79.0689981351058,363.41192354381,15.034269452667832,-3.721253118029697,0.12436468735474993,0,Fixed-Wing
1970-01-01 00:01:09.617092832,1929,1538769569068373408,base_link,0,1,40.5910385,-79.8968173,363.375136048,0.409599981689,0.0,0.0,0.0,0.409599981689,0.0,0.0,0.0,1.63839992676,1,408.1525853686356,78.18091995361621,363.36161565694863,15.711769340352156,-2.221272771017918,-0.12583074506483086,0,Fixed-Wing
1970-01-01 00:01:09.972031360,1931,1538769569423271488,base_link,0,1,40.5910379,-79.8967402,363.295215345,0.409599981689,0.0,0.0,0.0,0.409599981689,0.0,0.0,0.0,1.63839992676,1,414.67970664760537,78.1146477726495,363.28127536175435,16.32572117219298,-0.16576084642728267,-0.20094819786165233,0,Fixed-Wing
1970-01-01 00:01:10.368640768,1933,1538769569818562816,base_link,0,1,40.5910475,-79.8966608,363.345292703,0.448900022364,0.0,0.0,0.0,0.448900022364,0.0,0.0,0.0,1.79560008945,1,421.4014855528795,79.18112790627396,363.3308996250261,16.812601374852072,2.6674940686844426,0.12412085679496236,0,Fixed-Wing
1970-01-01 00:01:10.757654304,1935,1538769570208790784,base_link,0,1,40.5910662,-79.8965818,363.405365816,0.409599981689,0.0,0.0,0.0,0.409599981689,0.0,0.0,0.0,1.63839992676,1,428.0893421365888,81.25818872553322,363.3905018375949,16.727754420167116,5.195171706425764,0.14907783417155057,0,Fixed-Wing
1970-01-01 00:01:11.192876960,1937,1538769570641390176,base_link,0,1,40.5910951,-79.8965056,363.37543176,0.409599981689,0.0,0.0,0.0,0.409599981689,0.0,0.0,0.0,1.63839992676,1,434.54008105783026,84.46797460775645,363.3600903982184,16.134672619324004,8.028358459410889,-0.07606549020401791,0,Fixed-Wing
1970-01-01 00:01:11.553935104,1939,1538769571005199808,base_link,0,1,40.5911356,-79.8964361,363.285485944,0.409599981689,0.0,0.0,0.0,0.409599981689,0.0,0.0,0.0,1.63839992676,1,440.42352702950086,88.96593900178868,363.26968032554976,14.715752068929921,11.250367413276033,-0.22613485707729883,0,Fixed-Wing
1970-01-01 00:01:11.965091904,1941,1538769571415345600,base_link,0,1,40.5911868,-79.8963768,363.15552516,0.409599981689,0.0,0.0,0.0,0.409599981689,0.0,0.0,0.0,1.63839992676,1,445.4433833351606,94.65211587968125,363.1392894039425,12.55573029334163,14.222340029645787,-0.3261354797258483,0,Fixed-Wing
1970-01-01 00:01:12.371184928,1943,1538769571822480576,base_link,0,1,40.5912471,-79.8963295,363.015548241,0.409599981689,0.0,0.0,0.0,0.409599981689,0.0,0.0,0.0,1.63839992676,1,449.4472786272509,101.34881087586061,362.99892887205345,10.014595308950605,16.749861173117363,-0.35107159944830735,0,Fixed-Wing
1970-01-01 00:01:12.800810944,1945,1538769572252134016,base_link,0,1,40.5913139,-79.8962963,362.895554136,0.462400009727,0.0,0.0,0.0,0.462400009727,0.0,0.0,0.0,1.84960003891,1,452.2574528998555,108.7672759057684,362.8786139265103,7.0288446711769454,18.555161828256185,-0.3009333165164033,0,Fixed-Wing
1970-01-01 00:01:13.210454464,1947,1538769572661745024,base_link,0,1,40.5913845,-79.8962777,363.065543476,0.462400009727,0.0,0.0,0.0,0.462400009727,0.0,0.0,0.0,1.84960003891,1,453.83161771588584,116.60767069569755,363.04835276246644,3.937321641071823,19.61049806638507,0.42455299809442254,0,Fixed-Wing
1970-01-01 00:01:13.561218400,1949,1538769573012540512,base_link,0,1,40.5914564,-79.8962709,363.455520189,0.462400009727,0.0,0.0,0.0,0.462400009727,0.0,0.0,0.0,1.84960003891,1,454.4068293574138,124.59237775110884,363.43813724184986,1.4387268863598135,19.971453793618135,0.9749340414686684,0,Fixed-Wing
1970-01-01 00:01:13.971092640,1951,1538769573422313952,base_link,0,1,40.5915274,-79.8962732,364.135487972,0.462400009727,0.0,0.0,0.0,0.462400009727,0.0,0.0,0.0,1.84960003891,1,454.2116853789763,132.47709785535937,364.11795962677047,-0.48809667298014475,19.72136512271085,1.700380646915285,0,Fixed-Wing
1970-01-01 00:01:14.386968320,1953,1538769573836733888,base_link,0,1,40.591597,-79.8962792,364.745452576,0.462400009727,0.0,0.0,0.0,0.462400009727,0.0,0.0,0.0,1.84960003891,1,453.7033146351225,140.2063257899002,364.7277947424166,-1.2715435582602277,19.332446072697334,1.5253275729882718,0,Fixed-Wing
1970-01-01 00:01:14.783100256,1955,1538769574234295040,base_link,0,1,40.5916657,-79.8962865,365.28541625,0.462400009727,0.0,0.0,0.0,0.462400009727,0.0,0.0,0.0,1.84960003891,1,453.0848917035265,147.83559985751987,365.26762962735114,-1.546807530642364,19.082440152523127,1.3502420797449792,0,Fixed-Wing
1970-01-01 00:01:15.190685280,1957,1538769574641886464,base_link,0,1,40.5917341,-79.8962925,365.645381407,0.462400009727,0.0,0.0,0.0,0.462400009727,0.0,0.0,0.0,1.84960003891,1,452.57651335073416,155.4315619227056,365.62744980597324,-1.2715625898369782,18.99911973603634,0.8999869402212601,0,Fixed-Wing
1970-01-01 00:01:15.569405056,1959,1538769575020661472,base_link,0,1,40.5918027,-79.8962971,365.74534794,0.462400009727,0.0,0.0,0.0,0.462400009727,0.0,0.0,0.0,1.84960003891,1,452.1866359572347,163.0497359825932,365.72725329343064,-0.9751664394717248,19.054676667902918,0.24962978909119224,0,Fixed-Wing
1970-01-01 00:01:15.995245888,1961,1538769575446575200,base_link,0,1,40.5918712,-79.8962996,365.585316691,0.409599981689,0.0,0.0,0.0,0.409599981689,0.0,0.0,0.0,1.63839992676,1,451.9745210392716,170.65680895166568,365.56703757449736,-0.5305446090431513,19.026910474261207,-0.40073365315496245,0,Fixed-Wing
1970-01-01 00:01:16.351809472,1963,1538769575803109376,base_link,0,1,40.5919403,-79.8963,365.315287369,0.409599981689,0.0,0.0,0.0,0.409599981689,0.0,0.0,0.0,1.63839992676,1,451.94017396783244,178.33052077120774,365.29680024033087,-0.08590934463010956,19.193588439248195,-0.675921157177469,0,Fixed-Wing
1970-01-01 00:01:16.735246880,1965,1538769576186571744,base_link,0,1,40.5920102,-79.8962986,364.79525958,0.409599981689,0.0,0.0,0.0,0.409599981689,0.0,0.0,0.0,1.63839992676,1,452.0581859102578,186.09307587990412,364.7765418025006,0.29517301497568554,19.41580443689283,-1.3012772140244278,0,Fixed-Wing
1970-01-01 00:01:17.151845280,1967,1538769576602936544,base_link,0,1,40.5920806,-79.896296,364.265232837,0.409599981689,0.0,0.0,0.0,0.409599981689,0.0,0.0,0.0,1.63839992676,1,452.2777814064937,193.91116186930432,364.24626605451925,0.5492551293275014,19.554699002516728,-1.3263326412844318,0,Fixed-Wing
1970-01-01 00:01:17.572430784,1969,1538769577023692416,base_link,0,1,40.5921521,-79.8962943,363.865204737,0.409599981689,0.0,0.0,0.0,0.409599981689,0.0,0.0,0.0,1.63839992676,1,452.42118736229924,201.85140377539176,363.84598086044423,0.35868885360779884,19.860236980153967,-1.0011985664923106,0,Fixed-Wing
1970-01-01 00:01:17.996646528,1971,1538769577447547008,base_link,0,1,40.5922242,-79.8962975,363.585171392,0.409599981689,0.0,0.0,0.0,0.409599981689,0.0,0.0,0.0,1.63839992676,1,452.1497811368963,209.8582549973529,363.56570768926815,-0.678844803236888,20.026841072823174,-0.701022924058361,0,Fixed-Wing
1970-01-01 00:01:18.392240096,1973,1538769577843575392,base_link,0,1,40.5922961,-79.8963092,363.345129448,0.409599981689,0.0,0.0,0.0,0.409599981689,0.0,0.0,0.0,1.63839992676,1,451.1588011736401,217.84285293573618,363.3254674575126,-2.4786520543869344,19.971180868679497,-0.6008920120146662,0,Fixed-Wing
