time,field.header.seq,field.header.stamp,field.header.frame_id,field.status.status,field.status.service,lat,lon,alt,field.position_covariance0,field.position_covariance1,field.position_covariance2,field.position_covariance3,field.position_covariance4,field.position_covariance5,field.position_covariance6,field.position_covariance7,field.position_covariance8,field.position_covariance_type,x,y,z,vel_x,vel_y,vel_z,track_id,uav_category
1970-01-01 00:00:00.000000000,2388,1531944031315574414,base_link,0,1,40.5922527,-79.8952669,377.936216387,0.348099969053,0.0,0.0,0.0,0.348099969053,0.0,0.0,0.0,1.39239987621,1,511.3763234565693,241.54586116005612,377.9111617301909,-17.456764419371734,-2.1940517304528995,-0.4486411258140276,0,Fixed-Wing
1970-01-01 00:00:00.394372072,2390,1531944031709832727,base_link,0,1,40.5922448,-79.8953494,377.756135018,0.348099969053,0.0,0.0,0.0,0.348099969053,0.0,0.0,0.0,1.39239987621,1,504.39220369090265,240.6680627496848,377.7316689399341,-17.456764419371734,-2.1940517304528995,-0.4486411258140276,0,Fixed-Wing
1970-01-01 00:00:00.805531052,2392,1531944032121276281,base_link,0,1,40.5922377,-79.8954336,377.596051581,0.348099969053,0.0,0.0,0.0,0.348099969053,0.0,0.0,0.0,1.39239987621,1,497.264162154186,239.87910418514696,377.5721741826432,-17.816496001351318,-1.9719970819354982,-0.3986561653536965,0,Fixed-Wing
1970-01-01 00:00:01.210439726,2394,1531944032524608843,base_link,0,1,40.592228,-79.8955186,377.17596842,0.348099969053,0.0,0.0,0.0,0.348099969053,0.0,0.0,0.0,1.39239987621,1,490.0683932468636,238.80140145087074,377.15268768508906,-17.98578014782611,-2.693711359140312,-1.048503921841193,0,Fixed-Wing
1970-01-01 00:00:01.647162009,2396,1531944032962807463,base_link,0,1,40.5922143,-79.8956028,376.545887761,0.348099969053,0.0,0.0,0.0,0.348099969053,0.0,0.0,0.0,1.39239987621,1,482.9403613647705,237.27949192380333,376.52320685940674,-17.81647186967906,-3.8040035069583595,-1.5733834540563576,0,Fixed-Wing
1970-01-01 00:00:02.019109441,2398,1531944033334895053,base_link,0,1,40.5921957,-79.8956851,375.775811108,0.348099969053,0.0,0.0,0.0,0.348099969053,0.0,0.0,0.0,1.39239987621,1,475.9731997985919,235.21343689640486,375.7537298770794,-17.414377504001983,-5.164091839898612,-1.9233029869634375,0,Fixed-Wing
1970-01-01 00:00:02.415145597,2400,1531944033730592301,base_link,0,1,40.5921725,-79.8957653,374.79573854,0.348099969053,0.0,0.0,0.0,0.348099969053,0.0,0.0,0.0,1.39239987621,1,469.18383163966064,232.63655053446075,374.7742543486539,-16.969983975573115,-6.44091162025716,-2.4481930619686914,0,Fixed-Wing
1970-01-01 00:00:02.826901152,2402,1531944034142387919,base_link,0,1,40.5921453,-79.8958435,373.495669703,0.348099969053,0.0,0.0,0.0,0.348099969053,0.0,0.0,0.0,1.39239987621,1,462.56377850083,229.61545988986856,373.4747780758361,-16.54678212369659,-7.551197493987948,-3.2480329553710345,0,Fixed-Wing
1970-01-01 00:00:03.247226384,2404,1531944034562655456,base_link,0,1,40.5921146,-79.8959203,372.005603773,0.348099969053,0.0,0.0,0.0,0.348099969053,0.0,0.0,0.0,1.39239987621,1,456.0622521974634,226.20569301831875,371.98530178217703,-16.250525027098448,-8.522691333879404,-3.722936839437751,0,Fixed-Wing
1970-01-01 00:00:03.612302909,2406,1531944034927882123,base_link,0,1,40.5920816,-79.8959966,370.255539326,0.348099969053,0.0,0.0,0.0,0.348099969053,0.0,0.0,0.0,1.39239987621,1,449.6030484135547,222.5405061466277,370.23582448735306,-16.144740149891444,-9.161112054036678,-4.372807743491882,0,Fixed-Wing
1970-01-01 00:00:04.052685546,2408,1531944035364528125,base_link,0,1,40.5920464,-79.8960731,368.475475603,0.348099969053,0.0,0.0,0.0,0.348099969053,0.0,0.0,0.0,1.39239987621,1,443.12692292376636,218.63100945241086,368.45634884635626,-16.187035849711258,-9.77176295354401,-4.447788425335852,0,Fixed-Wing
1970-01-01 00:00:04.407679834,2410,1531944035723019403,base_link,0,1,40.5920095,-79.89615,366.825412191,0.348099969053,0.0,0.0,0.0,0.348099969053,0.0,0.0,0.0,1.39239987621,1,436.6169515126608,214.532733864551,366.80687323125227,-16.271633521975648,-10.243614637685518,-4.122854159792629,0,Fixed-Wing
1970-01-01 00:00:04.876559827,2412,1531944036191108139,base_link,0,1,40.5919718,-79.8962275,365.445348509,0.348099969053,0.0,0.0,0.0,0.348099969053,0.0,0.0,0.0,1.39239987621,1,430.0562055748429,210.34563018545992,365.42739442735893,-16.398544139356527,-10.465639905646809,-3.447998789978366,0,Fixed-Wing
1970-01-01 00:00:05.217698285,2414,1531944036533171837,base_link,0,1,40.5919342,-79.8963049,364.495284898,0.348099969053,0.0,0.0,0.0,0.348099969053,0.0,0.0,0.0,1.39239987621,1,423.5039486556144,206.16965377513478,364.477905279084,-16.37732588957864,-10.437827365771302,-2.373242289123826,0,Fixed-Wing
1970-01-01 00:00:05.595985245,2416,1531944036911664426,base_link,0,1,40.5918968,-79.8963816,363.935221931,0.348099969053,0.0,0.0,0.0,0.348099969053,0.0,0.0,0.0,1.39239987621,1,417.01097032558624,202.01591057079656,363.9184027387495,-16.229159420287804,-10.382255604085703,-1.3984731600213611,0,Fixed-Wing
1970-01-01 00:00:06.038805335,2418,1531944037354367910,base_link,0,1,40.5918602,-79.8964568,363.525160176,0.348099969053,0.0,0.0,0.0,0.348099969053,0.0,0.0,0.0,1.39239987621,1,410.64497591772056,197.95102733550965,363.5088811716177,-15.911763887476997,-10.160150657709098,-1.0235966395099392,0,Fixed-Wing
1970-01-01 00:00:06.413642218,2420,1531944037729324343,base_link,0,1,40.5918244,-79.8965305,363.225099634,0.348099969053,0.0,0.0,0.0,0.348099969053,0.0,0.0,0.0,1.39239987621,1,404.40596286217954,193.97500221771395,363.20934113205885,-15.594374777960018,-9.938050339295543,-0.7486984874534132,0,Fixed-Wing
1970-01-01 00:00:06.823681221,2422,1531944038139232052,base_link,0,1,40.5917895,-79.8966029,362.955040057,0.348099969053,0.0,0.0,0.0,0.348099969053,0.0,0.0,0.0,1.39239987621,1,398.2769942779861,190.09893661982883,362.93978363204667,-15.319319298325698,-9.688202133780699,-0.6737573141743384,0,Fixed-Wing
1970-01-01 00:00:07.206039632,2424,1531944038521710781,base_link,0,1,40.5917547,-79.8966741,362.794981676,0.348099969053,0.0,0.0,0.0,0.348099969053,0.0,0.0,0.0,1.39239987621,1,392.2496143741359,186.23399021438019,362.7802125238348,-15.065399016324703,-9.660409780641041,-0.3988470040113833,0,Fixed-Wing
1970-01-01 00:00:07.620379202,2426,1531944038935246839,base_link,0,1,40.5917204,-79.8967444,362.584924017,0.348099969053,0.0,0.0,0.0,0.348099969053,0.0,0.0,0.0,1.39239987621,1,386.29841393270647,182.42457758811258,362.57062790253036,-14.874988918317593,-9.521603440972205,-0.5238554725278872,0,Fixed-Wing
1970-01-01 00:00:08.033230116,2428,1531944039349001457,base_link,0,1,40.591686,-79.8968142,362.304866921,0.348099969053,0.0,0.0,0.0,0.348099969053,0.0,0.0,0.0,1.39239987621,1,380.3895327258736,178.60406494935103,362.291033810356,-14.769212251601198,-9.549347853963463,-0.6988437145837058,0,Fixed-Wing
1970-01-01 00:00:08.414901847,2430,1531944039730698883,base_link,0,1,40.5916517,-79.8968839,362.054809894,0.348099969053,0.0,0.0,0.0,0.348099969053,0.0,0.0,0.0,1.39239987621,1,374.4891128888568,174.79466383546995,362.0414312266548,-14.748063109762233,-9.521574665832869,-0.6238801235279249,0,Fixed-Wing
1970-01-01 00:00:08.836183784,2432,1531944040150922783,base_link,0,1,40.5916174,-79.8969535,361.784752978,0.348099969053,0.0,0.0,0.0,0.348099969053,0.0,0.0,0.0,1.39239987621,1,368.59715204332565,170.9852675945932,361.7718205350979,-14.726919912545641,-9.52156248578847,-0.6738902661134127,0,Fixed-Wing
1970-01-01 00:00:09.222041173,2434,1531944040536979850,base_link,0,1,40.5915832,-79.8970228,361.664696336,0.348099969053,0.0,0.0,0.0,0.348099969053,0.0,0.0,0.0,1.39239987621,1,362.7305908012849,167.18698676679037,361.6522006670059,-14.66343375976551,-9.493779579142327,-0.29898912493220614,0,Fixed-Wing
1970-01-01 00:00:09.619051573,2436,1531944040934433157,base_link,0,1,40.5915491,-79.8970915,361.584640275,0.348099969053,0.0,0.0,0.0,0.348099969053,0.0,0.0,0.0,1.39239987621,1,356.9148198347401,163.39981941344152,361.57257060093656,-14.536483778396848,-9.466001518064713,-0.1990348606140803,0,Fixed-Wing
1970-01-01 00:00:10.043730216,2438,1531944041359508885,base_link,0,1,40.5915152,-79.8971595,361.544584855,0.348099969053,0.0,0.0,0.0,0.348099969053,0.0,0.0,0.0,1.39239987621,1,351.1583043369656,159.6348709762397,361.53292981343554,-14.388375098478809,-9.41046547374609,-0.09908190466684015,0,Fixed-Wing
1970-01-01 00:00:10.446779151,2440,1531944041761976769,base_link,0,1,40.5914811,-79.8972271,361.524529937,0.348099969053,0.0,0.0,0.0,0.348099969053,0.0,0.0,0.0,1.39239987621,1,345.43564812869283,155.8477186455421,361.5132808246899,-14.303744012519417,-9.46596396904029,-0.049112526577477285,0,Fixed-Wing
1970-01-01 00:00:10.819367775,2442,1531944042134514578,base_link,0,1,40.5914468,-79.8972943,361.48447552,0.348099969053,0.0,0.0,0.0,0.348099969053,0.0,0.0,0.0,1.39239987621,1,339.74684902508795,152.03836135358267,361.473623686521,-14.21911838753872,-9.521465133209098,-0.09912277306064841,0,Fixed-Wing
1970-01-01 00:00:11.256763032,2444,1531944042572436198,base_link,0,1,40.5914121,-79.8973614,361.344421382,0.348099969053,0.0,0.0,0.0,0.348099969053,0.0,0.0,0.0,1.39239987621,1,334.06650667912515,148.18458559464136,361.33396006968934,-14.197980773800303,-9.632488818367555,-0.34908835168799107,0,Fixed-Wing
1970-01-01 00:00:11.618527219,2446,1531944042934135265,base_link,0,1,40.5913766,-79.8974285,361.284367588,0.348099969053,0.0,0.0,0.0,0.348099969053,0.0,0.0,0.0,1.39239987621,1,328.38616673368426,144.24197430956784,361.2742914291716,-14.197974773710552,-9.854532669818173,-0.14914140016075197,0,Fixed-Wing
1970-01-01 00:00:12.021555868,2448,1531944043337268394,base_link,0,1,40.5913409,-79.897496,361.504313477,0.348099969053,0.0,0.0,0.0,0.348099969053,0.0,0.0,0.0,1.39239987621,1,322.67197300410646,140.2771616963123,361.4946171758751,-14.282592099044445,-9.91002475312632,0.5507028494316196,0,Fixed-Wing
1970-01-01 00:00:12.421737250,2450,1531944043737345328,base_link,0,1,40.5913058,-79.8975637,361.514258918,0.348099969053,0.0,0.0,0.0,0.348099969053,0.0,0.0,0.0,1.39239987621,1,316.9408280438206,136.37897939099906,361.50493430485506,-14.32496159599146,-9.743482708034726,0.025787600460850418,0,Fixed-Wing
1970-01-01 00:00:12.840664114,2452,1531944044156449598,base_link,0,1,40.5912717,-79.8976317,361.28420364,0.348099969053,0.0,0.0,0.0,0.348099969053,0.0,0.0,0.0,1.39239987621,1,311.1842634748557,132.5918477648438,361.2752421092546,-14.388497751617559,-9.465912218163966,-0.574114230869444,0,Fixed-Wing
1970-01-01 00:00:13.210399779,2454,1531944044526137392,base_link,0,1,40.5912388,-79.8977001,361.154147456,0.348099969053,0.0,0.0,0.0,0.348099969053,0.0,0.0,0.0,1.39239987621,1,305.3938297541276,128.93798430097326,361.1455404877797,-14.473153488238925,-9.13280926580005,-0.3241884055350066,0,Fixed-Wing
1970-01-01 00:00:13.610889064,2456,1531944044926521942,base_link,0,1,40.5912067,-79.8977686,361.244090843,0.348099969053,0.0,0.0,0.0,0.348099969053,0.0,0.0,0.0,1.39239987621,1,299.5949315741335,125.37297135239739,361.23582973585775,-14.494310352138863,-8.910727949029996,0.22567742051740125,0,Fixed-Wing
1970-01-01 00:00:14.034061458,2458,1531944045349819327,base_link,0,1,40.5911743,-79.8978364,361.434035079,0.348099969053,0.0,0.0,0.0,0.348099969053,0.0,0.0,0.0,1.39239987621,1,293.8552939789461,121.77465138682211,361.4261104811754,-14.346188884719316,-8.993978633264941,0.47560555316957437,0,Fixed-Wing
1970-01-01 00:00:14.430444833,2460,1531944045745564276,base_link,0,1,40.5911419,-79.8979032,361.693980347,0.348099969053,0.0,0.0,0.0,0.348099969053,0.0,0.0,0.0,1.39239987621,1,288.2003113880155,118.17634021713843,361.6863812502438,-14.134594221996583,-8.99395664798799,0.650545187270645,0,Fixed-Wing
1970-01-01 00:00:14.816297783,2462,1531944046131457866,base_link,0,1,40.5911089,-79.8979691,362.063926796,0.348099969053,0.0,0.0,0.0,0.348099969053,0.0,0.0,0.0,1.39239987621,1,282.6215222682305,114.51140653448456,362.0566439853802,-13.944149109267943,-9.160479209594724,0.925469430281386,0,Fixed-Wing
1970-01-01 00:00:15.217271451,2464,1531944046532745931,base_link,0,1,40.5910753,-79.8980338,362.443874732,0.348099969053,0.0,0.0,0.0,0.348099969053,0.0,0.0,0.0,1.39239987621,1,277.14431931565025,110.77984916712373,362.4368979774436,-13.69023510884103,-9.327004699950349,0.9504425155490703,0,Fixed-Wing
1970-01-01 00:00:15.642706001,2466,1531944046958103105,base_link,0,1,40.5910419,-79.8980981,362.613823001,0.348099969053,0.0,0.0,0.0,0.348099969053,0.0,0.0,0.0,1.39239987621,1,271.7009636337938,107.07050356964115,362.60714360607835,-13.605634063743276,-9.271486517686622,0.4255279021866711,0,Fixed-Wing
1970-01-01 00:00:16.035319367,2468,1531944047350949909,base_link,0,1,40.5910086,-79.8981628,362.603770827,0.348099969053,0.0,0.0,0.0,0.348099969053,0.0,0.0,0.0,1.39239987621,1,266.22373118181207,103.37226287158578,362.59738321966563,-13.690308842413677,-9.243729889835738,-0.02439602583657373,0,Fixed-Wing
1970-01-01 00:00:16.420777188,2470,1531944047736048501,base_link,0,1,40.5909749,-79.898229,362.393717294,0.348099969053,0.0,0.0,0.0,0.348099969053,0.0,0.0,0.0,1.39239987621,1,260.6194997758846,99.6295977217743,362.38762050711165,-14.007741947074377,-9.354768533900565,-0.5243006105113255,0,Fixed-Wing
1970-01-01 00:00:16.855528865,2472,1531944048171060432,base_link,0,1,40.5909403,-79.8982968,362.233662511,0.348099969053,0.0,0.0,0.0,0.348099969053,0.0,0.0,0.0,1.39239987621,1,254.87981574076082,95.78698607729564,362.2278563396609,-14.346304961054853,-9.604584182899627,-0.3993295543921354,0,Fixed-Wing
1970-01-01 00:00:17.219936491,2474,1531944048535614905,base_link,0,1,40.5909044,-79.8983659,362.053606955,0.348099969053,0.0,0.0,0.0,0.348099969053,0.0,0.0,0.0,1.39239987621,1,249.03007467362912,91.80000707542513,362.04809029613943,-14.62139183598247,-9.965429505201469,-0.44932412066919913,0,Fixed-Wing
1970-01-01 00:00:17.591994603,2476,1531944048907245437,base_link,0,1,40.5908679,-79.8984362,361.963550433,0.348099969053,0.0,0.0,0.0,0.348099969053,0.0,0.0,0.0,1.39239987621,1,243.07874358470673,87.74639944791232,361.95832021540633,-14.875315470923105,-10.131967345394568,-0.2243797649303602,0,Fixed-Wing
1970-01-01 00:00:18.019050967,2478,1531944049334798628,base_link,0,1,40.5908318,-79.898508,361.993492218,0.348099969053,0.0,0.0,0.0,0.348099969053,0.0,0.0,0.0,1.39239987621,1,237.000422045521,83.73721518302366,361.9885444438801,-15.192727320681904,-10.020931423608369,0.07554527326651786,0,Fixed-Wing
1970-01-01 00:00:18.428038003,2480,1531944049743730464,base_link,0,1,40.5907971,-79.8985812,362.21343199,0.384400005913,0.0,0.0,0.0,0.384400005913,0.0,0.0,0.0,1.53760002365,1,230.80357452369364,79.8835078303803,362.2087606836155,-15.488982285655531,-9.63231783724638,0.5504291374381869,0,Fixed-Wing
1970-01-01 00:00:18.814663016,2482,1531944050129384543,base_link,0,1,40.5907642,-79.8986561,362.423369275,0.348099969053,0.0,0.0,0.0,0.348099969053,0.0,0.0,0.0,1.39239987621,1,224.46279482621753,76.22969512907804,362.4189687594653,-15.848739873865812,-9.132682385072666,0.5254137933314368,0,Fixed-Wing
1970-01-01 00:00:19.215657299,2484,1531944050531214402,base_link,0,1,40.5907346,-79.898733,362.583303134,0.348099969053,0.0,0.0,0.0,0.348099969053,0.0,0.0,0.0,1.39239987621,1,217.9526795537137,72.94235477956815,362.57916660513797,-16.27199310265631,-8.216686994658305,0.40041353044172456,0,Fixed-Wing
1970-01-01 00:00:19.615384843,2486,1531944050930971321,base_link,0,1,40.5907083,-79.8988117,362.503233771,0.348099969053,0.0,0.0,0.0,0.348099969053,0.0,0.0,0.0,1.39239987621,1,211.29015495684018,70.02148571497725,362.4993539153511,-16.652939271981197,-7.300694270887402,-0.199491327473379,0,Fixed-Wing
1970-01-01 00:00:19.991558536,2488,1531944051307099383,base_link,0,1,40.590685,-79.8988924,362.193161109,0.348099969053,0.0,0.0,0.0,0.348099969053,0.0,0.0,0.0,1.39239987621,1,204.4582921671118,67.43377259906788,362.1895315414806,-17.076199044014526,-6.467973025235805,-0.7743991188546184,0,Fixed-Wing
1970-01-01 00:00:20.418611800,2490,1531944051733679019,base_link,0,1,40.5906658,-79.898975,361.943084786,0.348099969053,0.0,0.0,0.0,0.348099969053,0.0,0.0,0.0,1.39239987621,1,197.4655642483773,65.30137687255382,361.93969745932463,-17.478280445046167,-5.32991000950823,-0.6244587524925828,0,Fixed-Wing
1970-01-01 00:00:20.807426395,2492,1531944052123075625,base_link,0,1,40.590652,-79.8990589,361.653004868,0.348099969053,0.0,0.0,0.0,0.348099969053,0.0,0.0,0.0,1.39239987621,1,190.36276051028534,63.76866717871502,361.64984871502975,-17.75341427883841,-3.830998457409366,-0.7244751545184257,0,Fixed-Wing
1970-01-01 00:00:21.215832353,2494,1531944052526900219,base_link,0,1,40.5906427,-79.8991427,361.532923165,0.384400005913,0.0,0.0,0.0,0.384400005913,0.0,0.0,0.0,1.53760002365,1,183.26841292501345,62.735701678508775,361.5299847663843,-17.732278176848915,-2.581890917604798,-0.2995992027750514,0,Fixed-Wing
1970-01-01 00:00:21.627176939,2496,1531944052942902232,base_link,0,1,40.5906372,-79.8992255,361.612840894,0.384400005913,0.0,0.0,0.0,0.384400005913,0.0,0.0,0.0,1.53760002365,1,176.258717550946,62.12474570733005,361.61010576341613,-17.52069049534335,-1.5270806941062574,0.2002619395368109,0,Fixed-Wing
1970-01-01 00:00:22.055051157,2498,1531944053370355654,base_link,0,1,40.5906343,-79.8993062,361.842759682,0.384400005913,0.0,0.0,0.0,0.384400005913,0.0,0.0,0.0,1.53760002365,1,169.42680085249378,61.80253783102532,361.84021255428627,-17.07633378853833,-0.8053566060491018,0.5751505091972335,0,Fixed-Wing
1970-01-01 00:00:22.418520529,2500,1531944053733052681,base_link,0,1,40.590633,-79.8993848,362.142679952,0.384400005913,0.0,0.0,0.0,0.384400005913,0.0,0.0,0.0,1.53760002365,1,162.77266357239267,61.658024466304084,362.14030726083615,-16.63197522526966,-0.36121026672407447,0.7500848741876892,0,Fixed-Wing
1970-01-01 00:00:22.874249198,2502,1531944054189643646,base_link,0,1,40.5906318,-79.8994618,362.402601824,0.384400005913,0.0,0.0,0.0,0.384400005913,0.0,0.0,0.0,1.53760002365,1,156.25397761363925,61.52462471168104,362.40039321086,-16.293415480248807,-0.3334318666046178,0.6500832332048653,0,Fixed-Wing
1970-01-01 00:00:23.241881603,2504,1531944054557294611,base_link,0,1,40.5906303,-79.8995376,362.702525057,0.384400005913,0.0,0.0,0.0,0.384400005913,0.0,0.0,0.0,1.53760002365,1,149.83688256225457,61.35791737446243,362.70047180649203,-16.03948963181125,-0.4166839645437073,0.7500446050475883,0,Fixed-Wing
1970-01-01 00:00:23.618360513,2506,1531944054934083246,base_link,0,1,40.5906286,-79.8996133,362.812448486,0.384400005913,0.0,0.0,0.0,0.384400005913,0.0,0.0,0.0,1.53760002365,1,143.42824862394826,61.16900341193522,362.810544172357,-16.018341131686604,-0.472189287987206,0.2751252018091187,0,Fixed-Wing
1970-01-01 00:00:24.056465804,2508,1531944055371827261,base_link,0,1,40.5906267,-79.8996894,362.6423716,0.384400005913,0.0,0.0,0.0,0.384400005913,0.0,0.0,0.0,1.53760002365,1,136.98574518345447,60.95788118050774,362.6406107247084,-16.10299774419129,-0.5276987195779884,-0.4247476077310484,0,Fixed-Wing
1970-01-01 00:00:24.434045409,2510,1531944055749728527,base_link,0,1,40.5906244,-79.8997672,362.322293156,0.384400005913,0.0,0.0,0.0,0.384400005913,0.0,0.0,0.0,1.53760002365,1,130.39932016907346,60.702339645959,362.32067257883784,-16.46272883336376,-0.638724494661682,-0.7996834287820153,0,Fixed-Wing
1970-01-01 00:00:24.876922496,2512,1531944056192522254,base_link,0,1,40.5906219,-79.8998469,362.072212868,0.384400005913,0.0,0.0,0.0,0.384400005913,0.0,0.0,0.0,1.53760002365,1,123.65204614485017,60.42459148650565,362.07072911462546,-16.864769944644426,-0.6942298170954198,-0.6247321522701123,0,Fixed-Wing
1970-01-01 00:00:25.215751247,2514,1531944056531496700,base_link,0,1,40.5906194,-79.8999283,361.952130855,0.384400005913,0.0,0.0,0.0,0.384400005913,0.0,0.0,0.0,1.53760002365,1,116.76085525760813,60.14684842984522,361.9507794160836,-17.22448925903016,-0.6942170626958707,-0.29981353411398964,0,Fixed-Wing
1970-01-01 00:00:25.645464334,2516,1531944056959424301,base_link,0,1,40.5906171,-79.9000106,361.96204785,0.384400005913,0.0,0.0,0.0,0.384400005913,0.0,0.0,0.0,1.53760002365,1,109.79347346917727,59.89132231793758,361.96082238033034,-17.414927948167637,-0.6386859458650672,0.0251023273955427,0,Fixed-Wing
1970-01-01 00:00:26.049390089,2518,1531944057365223669,base_link,0,1,40.5906155,-79.9000929,362.001964563,0.384400005913,0.0,0.0,0.0,0.384400005913,0.0,0.0,0.0,1.53760002365,1,102.82609059206226,59.713539622974764,362.0008567248764,-17.414930669326996,-0.4443667531395266,0.10006559808160405,0,Fixed-Wing
1970-01-01 00:00:26.443445699,2520,1531944057758806996,base_link,0,1,40.5906158,-79.9001744,362.061881303,0.384400005913,0.0,0.0,0.0,0.384400005913,0.0,0.0,0.0,1.53760002365,1,95.92643160220874,59.74676391005906,362.0608804973316,-17.245655229449838,0.0830439013207193,0.15002905025524216,0,Fixed-Wing
1970-01-01 00:00:26.798019420,2522,1531944058111947770,base_link,0,1,40.5906189,-79.9002546,362.071798204,0.384400005913,0.0,0.0,0.0,0.384400005913,0.0,0.0,0.0,1.53760002365,1,89.13682404634471,60.0909419308106,362.0708925145692,-16.970582346734844,0.8602708470323313,0.025024975536488088,0,Fixed-Wing
1970-01-01 00:00:27.213079916,2524,1531944058528718426,base_link,0,1,40.5906265,-79.9003329,362.021715163,0.348099969053,0.0,0.0,0.0,0.348099969053,0.0,0.0,0.0,1.39239987621,1,82.50806173462567,60.934862793435315,362.02089050989764,-16.56855064779143,2.109375008122639,-0.1249797032890065,0,Fixed-Wing
1970-01-01 00:00:27.620159466,2526,1531944058935906007,base_link,0,1,40.5906396,-79.9004089,361.861632169,0.348099969053,0.0,0.0,0.0,0.348099969053,0.0,0.0,0.0,1.39239987621,1,76.07400774499234,62.38957821401712,361.86087328500946,-16.08187839370859,3.6360522508737128,-0.39996206990129257,0,Fixed-Wing
1970-01-01 00:00:28.024112039,2528,1531944059338971356,base_link,0,1,40.5906588,-79.9004813,361.651550297,0.348099969053,0.0,0.0,0.0,0.348099969053,0.0,0.0,0.0,1.39239987621,1,69.94471973834632,64.521720596162,361.6508402083104,-15.320117692782265,5.329276776814888,-0.5249763840298898,0,Fixed-Wing
1970-01-01 00:00:28.450988423,2530,1531944059766525046,base_link,0,1,40.5906843,-79.9005498,361.31146977,0.348099969053,0.0,0.0,0.0,0.348099969053,0.0,0.0,0.0,1.39239987621,1,64.14559573094519,67.35349891362398,361.310791202961,-14.494874806354545,7.078012496124489,-0.849950398417784,0,Fixed-Wing
1970-01-01 00:00:28.843290997,2532,1531944060158957923,base_link,0,1,40.5907173,-79.9006118,361.001392737,0.348099969053,0.0,0.0,0.0,0.348099969053,0.0,0.0,0.0,1.39239987621,1,58.896749170187874,71.01817840521957,361.00072487696355,-13.119459711301747,9.159843860607207,-0.7750088756963417,0,Fixed-Wing
1970-01-01 00:00:29.228706311,2534,1531944060544505876,base_link,0,1,40.5907578,-79.9006652,360.891321341,0.348099969053,0.0,0.0,0.0,0.348099969053,0.0,0.0,0.0,1.39239987621,1,54.37596452045104,75.5157611628008,360.89064177647964,-11.299673440470384,11.241680453661202,-0.27515203292309587,0,Fixed-Wing
1970-01-01 00:00:29.678392172,2536,1531944060994001146,base_link,0,1,40.5908039,-79.9007076,361.171258825,0.348099969053,0.0,0.0,0.0,0.348099969053,0.0,0.0,0.0,1.39239987621,1,50.78642401488332,80.63525066821893,361.1705459888025,-8.97203442694784,12.796132546704618,0.6996188579883404,0,Fixed-Wing
1970-01-01 00:00:30.024453308,2538,1531944061339310609,base_link,0,1,40.5908532,-79.9007405,361.561204666,0.348099969053,0.0,0.0,0.0,0.348099969053,0.0,0.0,0.0,1.39239987621,1,48.00113856836151,86.11011642919868,361.5604416303687,-6.961803851024696,13.68439331280354,0.9745417592093274,0,Fixed-Wing
1970-01-01 00:00:30.426379472,2540,1531944061741376804,base_link,0,1,40.5909043,-79.9007648,361.961158532,0.348099969053,0.0,0.0,0.0,0.348099969053,0.0,0.0,0.0,1.39239987621,1,45.943914818006114,91.78488273186144,361.9603312960501,-5.142018117219758,14.18404348785061,0.9995217610468162,0,Fixed-Wing
1970-01-01 00:00:30.836118873,2542,1531944062151664104,base_link,0,1,40.5909559,-79.9007813,362.351120151,0.348099969053,0.0,0.0,0.0,0.348099969053,0.0,0.0,0.0,1.39239987621,1,44.547025741840336,97.51518029681591,362.3502175695028,-3.4915156584935985,14.322843536570018,0.9745183436671645,0,Fixed-Wing
1970-01-01 00:00:31.193971896,2544,1531944062509727973,base_link,0,1,40.5910074,-79.9007914,362.671088345,0.348099969053,0.0,0.0,0.0,0.348099969053,0.0,0.0,0.0,1.39239987621,1,43.69194887714269,103.23437566382918,362.67010144883534,-2.137259366722348,14.29509366106681,0.7995477899039567,0,Fixed-Wing
1970-01-01 00:00:31.617751451,2546,1531944062933527015,base_link,0,1,40.5910585,-79.9007974,362.851060897,0.348099969053,0.0,0.0,0.0,0.348099969053,0.0,0.0,0.0,1.39239987621,1,43.18396974397129,108.90915042124877,362.84998285183053,-1.2696907205575956,14.184064620463316,0.4496124609646365,0,Fixed-Wing
1970-01-01 00:00:32.067949663,2548,1531944063383739340,base_link,0,1,40.5911091,-79.900801,363.291036115,0.348099969053,0.0,0.0,0.0,0.348099969053,0.0,0.0,0.0,1.39239987621,1,42.87917211309646,114.52840525550548,363.2898614611115,-0.7618398046266389,14.045292913826719,1.0994738797418058,0,Fixed-Wing
1970-01-01 00:00:32.441626343,2550,1531944063757066039,base_link,0,1,40.5911592,-79.9008038,363.64101237,0.348099969053,0.0,0.0,0.0,0.348099969053,0.0,0.0,0.0,1.39239987621,1,42.64210080421685,120.09213343677422,363.63973672481745,-0.592558279147489,13.906504386033685,0.8745110707730176,0,Fixed-Wing
1970-01-01 00:00:32.815880906,2552,1531944064130892510,base_link,0,1,40.5912091,-79.9008059,363.790989433,0.348099969053,0.0,0.0,0.0,0.348099969053,0.0,0.0,0.0,1.39239987621,1,42.464288993888154,125.63364820087295,363.7896079702235,-0.44443952681756577,13.850982086374348,0.3746022565582347,0,Fixed-Wing
1970-01-01 00:00:33.239145204,2554,1531944064554686627,base_link,0,1,40.5912595,-79.9008063,363.720968032,0.348099969053,0.0,0.0,0.0,0.348099969053,0.0,0.0,0.0,1.39239987621,1,42.43039360241449,131.23068574244022,363.71947381905784,-0.08472132261632892,13.989760927330366,-0.1752998796885861,0,Fixed-Wing
1970-01-01 00:00:33.619880281,2556,1531944064935246570,base_link,0,1,40.5913107,-79.9008062,363.56094682,0.348099969053,0.0,0.0,0.0,0.348099969053,0.0,0.0,0.0,1.39239987621,1,42.43882593119858,136.9165634048,363.5593327425057,0.021076553958045592,14.211816263106186,-0.40027163637394,0,Fixed-Wing
1970-01-01 00:00:34.010834077,2558,1531944065326446731,base_link,0,1,40.5913629,-79.9008066,363.350924696,0.348099969053,0.0,0.0,0.0,0.348099969053,0.0,0.0,0.0,1.39239987621,1,42.40492854606829,142.71349182941663,363.34918346276527,-0.0847263057488063,14.48938696068202,-0.5252668328174768,0,Fixed-Wing
1970-01-01 00:00:34.434918081,2560,1531944065750015284,base_link,0,1,40.5914157,-79.9008067,363.310902641,0.348099969053,0.0,0.0,0.0,0.348099969053,0.0,0.0,0.0,1.39239987621,1,42.39642918521434,148.57705545326917,363.3090272466093,-0.021244100204592116,14.655941231531969,-0.1003702154213579,0,Fixed-Wing
1970-01-01 00:00:34.815822982,2562,1531944066131585427,base_link,0,1,40.5914681,-79.9008064,363.630881174,0.348099969053,0.0,0.0,0.0,0.348099969053,0.0,0.0,0.0,1.39239987621,1,42.42179541948227,154.39620704033788,363.6288670698489,0.06340274661364781,14.544933618614023,0.7994376719705437,0,Fixed-Wing
1970-01-01 00:00:35.219151444,2564,1531944066534525061,base_link,0,1,40.5915195,-79.900806,364.010860238,0.348099969053,0.0,0.0,0.0,0.348099969053,0.0,0.0,0.0,1.39239987621,1,42.455628373848484,160.10430844989344,364.0087048406551,0.08456526145008449,14.267364382601405,0.9494021730754643,0,Fixed-Wing
1970-01-01 00:00:35.640209623,2566,1531944066955959076,base_link,0,1,40.5915697,-79.9008052,364.27084022,0.348099969053,0.0,0.0,0.0,0.348099969053,0.0,0.0,0.0,1.39239987621,1,42.5233241331275,165.67914480326104,364.26854165315035,0.1692051341578801,13.934269193907236,0.6494605154836721,0,Fixed-Wing
1970-01-01 00:00:36.046598665,2568,1531944067362296150,base_link,0,1,40.5916185,-79.9008038,364.420821405,0.348099969053,0.0,0.0,0.0,0.348099969053,0.0,0.0,0.0,1.39239987621,1,42.64181424874068,171.0985056555171,364.418378626484,0.2961653155565429,13.545659134665385,0.3745165937239286,0,Fixed-Wing
1970-01-01 00:00:36.414288912,2570,1531944067730029917,base_link,0,1,40.5916665,-79.9008019,364.530803442,0.348099969053,0.0,0.0,0.0,0.348099969053,0.0,0.0,0.0,1.39239987621,1,42.80263299360631,176.42902403520424,364.52821401604433,0.4019654641575819,13.323597920638907,0.27453288099239104,0,Fixed-Wing
1970-01-01 00:00:36.843474823,2572,1531944068158961654,base_link,0,1,40.591714,-79.9008004,364.570785291,0.348099969053,0.0,0.0,0.0,0.348099969053,0.0,0.0,0.0,1.39239987621,1,42.92958854610828,181.70401425832426,364.5680465616723,0.3173246230187595,13.184805634659051,0.09956120292634131,0,Fixed-Wing
1970-01-01 00:00:37.213798006,2574,1531944068529352996,base_link,0,1,40.5917614,-79.9007994,364.440766684,0.348099969053,0.0,0.0,0.0,0.348099969053,0.0,0.0,0.0,1.39239987621,1,43.01421434361528,186.96789411399163,364.4378748859272,0.21152166063122646,13.157035339512172,-0.3253633032938056,0,Fixed-Wing
1970-01-01 00:00:37.630209225,2576,1531944068944507907,base_link,0,1,40.591809,-79.9007992,364.110747191,0.348099969053,0.0,0.0,0.0,0.348099969053,0.0,0.0,0.0,1.39239987621,1,43.0311130049728,192.25397784147913,364.10769775522164,0.042238100178520914,13.212533780628156,-0.8252757084329891,0,Fixed-Wing
1970-01-01 00:00:37.988226831,2578,1531944069303850877,base_link,0,1,40.5918573,-79.9008006,363.750725792,0.348099969053,0.0,0.0,0.0,0.348099969053,0.0,0.0,0.0,1.39239987621,1,42.91256001906417,197.61779601558487,363.74751282549477,-0.2963224594735284,13.406830552077567,-0.9002800176136082,0,Fixed-Wing
1970-01-01 00:00:38.420756201,2580,1531944069736466326,base_link,0,1,40.5919065,-79.9008028,363.360703219,0.348099969053,0.0,0.0,0.0,0.348099969053,0.0,0.0,0.0,1.39239987621,1,42.7262810133741,203.0815594165648,363.3573194607758,-0.46560322957119915,13.656643032235793,-0.9752859163993844,0,Fixed-Wing
1970-01-01 00:00:38.829539591,2582,1531944070143582660,base_link,0,1,40.5919564,-79.9008049,362.970680471,0.348099969053,0.0,0.0,0.0,0.348099969053,0.0,0.0,0.0,1.39239987621,1,42.54846753064149,208.6230589034176,362.9671186174251,-0.44444370698086105,13.850943900992013,-0.9753046091933119,0,Fixed-Wing
1970-01-01 00:00:39.226092796,2584,1531944070540869362,base_link,0,1,40.592007,-79.9008064,362.570658057,0.348099969053,0.0,0.0,0.0,0.348099969053,0.0,0.0,0.0,1.39239987621,1,42.42144781713826,214.24229436498416,362.5669103257217,-0.3174849930469842,14.045244491906825,-1.0003181648301047,0,Fixed-Wing
1970-01-01 00:00:39.616174352,2586,1531944070932025532,base_link,0,1,40.5920581,-79.9008071,362.270636264,0.348099969053,0.0,0.0,0.0,0.348099969053,0.0,0.0,0.0,1.39239987621,1,42.36215392285074,219.9170591887671,362.26669532040484,-0.14820472426213877,14.184039791399583,-0.7503855602162716,0,Fixed-Wing
1970-01-01 00:00:40.074479540,2588,1531944071389579559,base_link,0,1,40.5921095,-79.9008075,362.030614666,0.348099969053,0.0,0.0,0.0,0.348099969053,0.0,0.0,0.0,1.39239987621,1,42.32825728743654,225.6251415039194,362.0264740997667,-0.0847244318380391,14.267316656257847,-0.6004314642238641,0,Fixed-Wing
1970-01-01 00:00:40.470055220,2590,1531944071785667202,base_link,0,1,40.5921609,-79.9008071,361.970593894,0.348099969053,0.0,0.0,0.0,0.348099969053,0.0,0.0,0.0,1.39239987621,1,42.36208705814087,231.33323036915812,361.96624813533265,0.08455730390678282,14.267333028158601,-0.1505344278634558,0,Fixed-Wing
1970-01-01 00:00:40.810795876,2592,1531944072123681997,base_link,0,1,40.5922119,-79.9008067,362.060573301,0.348099969053,0.0,0.0,0.0,0.348099969053,0.0,0.0,0.0,1.39239987621,1,42.39591802353196,236.99690382353873,362.0560188830566,0.08456029001899555,14.156316981762728,0.22438143206987193,0,Fixed-Wing
1970-01-01 00:00:41.209157483,2594,1531944072524791545,base_link,0,1,40.5922623,-79.9008066,362.240552662,0.348099969053,0.0,0.0,0.0,0.348099969053,0.0,0.0,0.0,1.39239987621,1,42.404353019516186,242.59394936098346,362.235787252739,0.021083220608387448,13.989780912976942,0.4493299348941649,0,Fixed-Wing
1970-01-01 00:00:41.616081055,2596,1531944072931627982,base_link,0,1,40.592312,-79.9008061,362.46053273,0.348099969053,0.0,0.0,0.0,0.348099969053,0.0,0.0,0.0,1.39239987621,1,42.44665121649241,248.11326036525253,362.455554213407,0.10572408331369439,13.795483925177827,0.5493061671712459,0,Fixed-Wing
1970-01-01 00:00:42.072803670,2598,1531944073388428452,base_link,0,1,40.592361,-79.9008045,362.660514217,0.348099969053,0.0,0.0,0.0,0.348099969053,0.0,0.0,0.0,1.39239987621,1,42.58207148897809,253.55483487482007,362.6553202817811,0.33848213858112425,13.601182034556864,0.49931405983803406,0,Fixed-Wing
1970-01-01 00:00:42.416937320,2600,1531944073732123802,base_link,0,1,40.5924094,-79.9008006,362.770498301,0.348099969053,0.0,0.0,0.0,0.348099969053,0.0,0.0,0.0,1.39239987621,1,42.91220048966461,258.9297758093652,362.76508569951426,0.825155407746246,13.434631823418563,0.27435798684059465,0,Fixed-Wing
1970-01-01 00:00:42.797988951,2602,1531944074113291944,base_link,0,1,40.5924576,-79.9007937,362.680485529,0.348099969053,0.0,0.0,0.0,0.348099969053,0.0,0.0,0.0,1.39239987621,1,43.49629605282776,264.2824996849288,362.67484889958996,1.459943269395812,13.37910042107369,-0.2255463266795932,0,Fixed-Wing
1970-01-01 00:00:43.221281649,2604,1531944074536103783,base_link,0,1,40.5925059,-79.9007831,362.350476488,0.348099969053,0.0,0.0,0.0,0.348099969053,0.0,0.0,0.0,1.39239987621,1,44.393616308369424,269.6463204243601,362.34460863628647,2.2428464624455167,13.406836964093102,-0.8254335079733714,0,Fixed-Wing
1970-01-01 00:00:43.626710743,2606,1531944074942169542,base_link,0,1,40.5925543,-79.9007674,361.920472603,0.348099969053,0.0,0.0,0.0,0.348099969053,0.0,0.0,0.0,1.39239987621,1,45.72267975764248,275.02124430990364,361.9143653251902,3.3219859210336344,13.434589209543876,-1.0753905111621458,0,Fixed-Wing
1970-01-01 00:00:44.021112808,2608,1531944075334790376,base_link,0,1,40.5926029,-79.9007452,361.510475254,0.348099969053,0.0,0.0,0.0,0.348099969053,0.0,0.0,0.0,1.39239987621,1,47.60200437575224,280.4183825956202,361.50411867616333,4.697360329807603,13.490113966213219,-1.0254089772492918,0,Fixed-Wing
1970-01-01 00:00:44.423524012,2610,1531944075737177005,base_link,0,1,40.5926503,-79.9007154,361.190486134,0.348099969053,0.0,0.0,0.0,0.348099969053,0.0,0.0,0.0,1.39239987621,1,50.12471185600443,285.68226623134404,361.183876094611,6.3054918385331815,13.157044787740125,-0.8004443638971851,0,Fixed-Wing
1970-01-01 00:00:44.797608161,2612,1531944076113121552,base_link,0,1,40.5926948,-79.900677,360.930506954,0.348099969053,0.0,0.0,0.0,0.348099969053,0.0,0.0,0.0,1.39239987621,1,53.375457840965566,290.62410636007394,360.92364677763396,8.125219605432736,12.352099021772824,-0.6504415780229947,0,Fixed-Wing
1970-01-01 00:00:45.229960071,2614,1531944076545479222,base_link,0,1,40.5927349,-79.9006292,360.89053914,0.348099969053,0.0,0.0,0.0,0.348099969053,0.0,0.0,0.0,1.39239987621,1,57.421968594320234,295.0773335402656,360.8834389080406,10.114228752064374,11.130813960652155,-0.10049932287051783,0,Fixed-Wing
1970-01-01 00:00:45.596379399,2616,1531944076911721463,base_link,0,1,40.5927695,-79.9005731,361.030582022,0.348099969053,0.0,0.0,0.0,0.348099969053,0.0,0.0,0.0,1.39239987621,1,62.17112328218762,298.9197892882324,361.02325797468063,11.87048294687173,9.60419452052651,0.34947689752832456,0,Fixed-Wing
1970-01-01 00:00:46.031499380,2618,1531944077347176001,base_link,0,1,40.5927981,-79.90051,361.300634484,0.348099969053,0.0,0.0,0.0,0.348099969053,0.0,0.0,0.0,1.39239987621,1,67.51287008261959,302.09594567640886,361.29310620537944,13.351663289263831,7.938783366809421,0.6744839937382994,0,Fixed-Wing
1970-01-01 00:00:46.397472985,2620,1531944077708252341,base_link,0,1,40.5928206,-79.9004417,361.600694735,0.348099969053,0.0,0.0,0.0,0.348099969053,0.0,0.0,0.0,1.39239987621,1,73.29482892724326,304.59469255335864,361.59298360028504,14.451970587515211,6.245602457876732,0.7495417050687062,0,Fixed-Wing
1970-01-01 00:00:46.844123864,2622,1531944078159112396,base_link,0,1,40.5928376,-79.9003694,361.850761311,0.348099969053,0.0,0.0,0.0,0.348099969053,0.0,0.0,0.0,1.39239987621,1,79.41541267531038,306.4826573588954,361.84288635601666,15.298361451973772,4.718956425165753,0.6246304016727247,0,Fixed-Wing
1970-01-01 00:00:47.216682815,2624,1531944078531846578,base_link,0,1,40.5928504,-79.9002943,362.05083246,0.348099969053,0.0,0.0,0.0,0.348099969053,0.0,0.0,0.0,1.39239987621,1,85.77303411027668,307.90420770805974,362.0428066659462,15.89083569318789,3.553156358748261,0.4996995856577862,0,Fixed-Wing
1970-01-01 00:00:47.639404645,2626,1531944078954823733,base_link,0,1,40.5928588,-79.9002172,362.290907452,0.348099969053,0.0,0.0,0.0,0.348099969053,0.0,0.0,0.0,1.39239987621,1,92.29997128050844,308.8371371856302,362.28274546474603,16.31403933261455,2.3318514939985646,0.5997255525751347,0,Fixed-Wing
1970-01-01 00:00:48.054918833,2628,1531944079368258805,base_link,0,1,40.5928634,-79.9001386,362.650985533,0.348099969053,0.0,0.0,0.0,0.348099969053,0.0,0.0,0.0,1.39239987621,1,98.95389811730415,309.3480809463638,362.64269911165206,16.6314492235215,1.2771007889242334,0.8997019276247443,0,Fixed-Wing
1970-01-01 00:00:48.464540022,2630,1531944079780099557,base_link,0,1,40.592865,-79.9000595,363.081065361,0.348099969053,0.0,0.0,0.0,0.348099969053,0.0,0.0,0.0,1.39239987621,1,105.65015845752339,309.52587756166827,363.07266304847246,16.737261555083194,0.444401546947961,1.0746922168770818,0,Fixed-Wing
1970-01-01 00:00:48.836737091,2632,1531944080152538831,base_link,0,1,40.5928649,-79.8999808,363.521145488,0.348099969053,0.0,0.0,0.0,0.348099969053,0.0,0.0,0.0,1.39239987621,1,112.31256016832083,309.51489112815085,363.51263003894115,16.6526321189895,-0.02746052303762631,1.0996947879771601,0,Fixed-Wing
1970-01-01 00:00:49.234383901,2634,1531944080550040618,base_link,0,1,40.5928642,-79.8999023,363.971225667,0.348099969053,0.0,0.0,0.0,0.348099969053,0.0,0.0,0.0,1.39239987621,1,118.9580329490746,309.4372794239941,363.96259368859955,16.610318362416056,-0.19398997742148685,1.1246813761673269,0,Fixed-Wing
1970-01-01 00:00:49.604289152,2636,1531944080919829327,base_link,0,1,40.5928635,-79.8998237,364.311305959,0.348099969053,0.0,0.0,0.0,0.348099969053,0.0,0.0,0.0,1.39239987621,1,125.61197019978816,309.3596684269571,364.30255037112903,16.631475253045142,-0.19398820997990474,0.8497196380969742,0,Fixed-Wing
1970-01-01 00:00:50.024951070,2638,1531944081340434670,base_link,0,1,40.5928629,-79.8997446,364.541386729,0.348099969053,0.0,0.0,0.0,0.348099969053,0.0,0.0,0.0,1.39239987621,1,132.30823362184813,309.29316400638936,364.5324991820345,16.737269258125156,-0.16622739037283246,0.5747556392466902,0,Fixed-Wing
1970-01-01 00:00:50.419764852,2640,1531944081730066677,base_link,0,1,40.5928625,-79.8996653,364.641467631,0.348099969053,0.0,0.0,0.0,0.348099969053,0.0,0.0,0.0,1.39239987621,1,139.02142552426116,309.24887007634584,364.6324396546048,16.779581890699706,-0.110712405846623,0.24980059680495784,0,Fixed-Wing
1970-01-01 00:00:50.826592728,2642,1531944082141865993,base_link,0,1,40.592862,-79.8995855,364.491549095,0.348099969053,0.0,0.0,0.0,0.348099969053,0.0,0.0,0.0,1.39239987621,1,145.77694002706517,309.193465627409,364.48237321066006,16.885366970198547,-0.13848307951846403,-0.3750901541056733,0,Fixed-Wing
1970-01-01 00:00:51.192135688,2644,1531944082507798070,base_link,0,1,40.592861,-79.8995051,364.271631385,0.348099969053,0.0,0.0,0.0,0.348099969053,0.0,0.0,0.0,1.39239987621,1,152.58324713686054,309.08253873916675,364.2623019292106,17.01232277912565,-0.2772610752379172,-0.5500668150936027,0,Fixed-Wing
1970-01-01 00:00:51.678339220,2646,1531944082993982305,base_link,0,1,40.59286,-79.8994242,363.991714196,0.348099969053,0.0,0.0,0.0,0.348099969053,0.0,0.0,0.0,1.39239987621,1,159.43188028025216,308.9716160651554,363.9822228594174,17.11811643989998,-0.27725054179369346,-0.7000559131605923,0,Fixed-Wing
1970-01-01 00:00:52.018803317,2648,1531944083333384621,base_link,0,1,40.5928587,-79.8993429,363.871797549,0.348099969053,0.0,0.0,0.0,0.348099969053,0.0,0.0,0.0,1.39239987621,1,166.31438017356265,308.82739249444614,363.8621377195304,17.20276617312618,-0.3604859283726136,-0.3001520689235679,0,Fixed-Wing
1970-01-01 00:00:52.464557606,2650,1531944083778584452,base_link,0,1,40.592857,-79.8992615,363.821881179,0.348099969053,0.0,0.0,0.0,0.348099969053,0.0,0.0,0.0,1.39239987621,1,173.20534856321507,308.63875791916024,363.8120473634745,17.22393312767268,-0.47149096129509493,-0.12520053703093978,0,Fixed-Wing
1970-01-01 00:00:52.862756416,2652,1531944084178357102,base_link,0,1,40.5928546,-79.8991802,363.931965005,0.348099969053,0.0,0.0,0.0,0.348099969053,0.0,0.0,0.0,1.39239987621,1,180.08785802306468,308.3724005880315,363.92195376948,17.2027900846319,-0.6657585117232386,0.2747103861605701,0,Fixed-Wing
1970-01-01 00:00:53.240742267,2654,1531944084556446729,base_link,0,1,40.5928519,-79.8990995,364.062048355,0.348099969053,0.0,0.0,0.0,0.348099969053,0.0,0.0,0.0,1.39239987621,1,186.9195762700877,308.07273357827285,364.05185537340634,17.075837760411066,-0.7490158486872663,0.32468826044307997,0,Fixed-Wing
1970-01-01 00:00:53.677897440,2656,1531944084993586894,base_link,0,1,40.5928496,-79.8990194,364.122130941,0.348099969053,0.0,0.0,0.0,0.348099969053,0.0,0.0,0.0,1.39239987621,1,193.70049870244947,307.81748907012843,364.1117482818623,16.948873933932784,-0.6379820789900414,0.1497019564936497,0,Fixed-Wing
1970-01-01 00:00:54.046145561,2658,1531944085361720264,base_link,0,1,40.5928482,-79.8989395,364.102212965,0.348099969053,0.0,0.0,0.0,0.348099969053,0.0,0.0,0.0,1.39239987621,1,200.4644854048707,307.6621935643063,364.0916291198119,16.906543181058886,-0.38816016212255217,-0.05028772186226734,0,Fixed-Wing
1970-01-01 00:00:54.505966213,2660,1531944085818525009,base_link,0,1,40.5928478,-79.8988598,363.962294385,0.348099969053,0.0,0.0,0.0,0.348099969053,0.0,0.0,0.0,1.39239987621,1,207.21153424512914,307.61795032536605,363.9514973684702,16.864207098708654,-0.11058570374555561,-0.3502584510179149,0,Fixed-Wing
1970-01-01 00:00:54.896565417,2662,1531944086211933497,base_link,0,1,40.5928485,-79.8987798,363.70237567,0.348099969053,0.0,0.0,0.0,0.348099969053,0.0,0.0,0.0,1.39239987621,1,213.983972023924,307.69586575766886,363.6913515976803,16.927666594501744,0.19474914405533478,-0.6502327548419056,0,Fixed-Wing
1970-01-01 00:00:55.245548540,2664,1531944086560652015,base_link,0,1,40.5928498,-79.8986992,363.422457331,0.348099969053,0.0,0.0,0.0,0.348099969053,0.0,0.0,0.0,1.39239987621,1,220.80719980715483,307.8404193047873,363.4111940430786,17.054615898357667,0.36131070237888946,-0.7002520854569818,0,Fixed-Wing
1970-01-01 00:00:55.641551981,2666,1531944086957233754,base_link,0,1,40.5928514,-79.8986176,363.192539899,0.348099969053,0.0,0.0,0.0,0.348099969053,0.0,0.0,0.0,1.39239987621,1,227.71508308548616,308.0182998053705,363.1810254741259,17.266211787941256,0.444611217686347,-0.5753049231348307,0,Fixed-Wing
1970-01-01 00:00:56.061414362,2668,1531944087376997608,base_link,0,1,40.5928532,-79.8985352,363.032623213,0.348099969053,0.0,0.0,0.0,0.348099969053,0.0,0.0,0.0,1.39239987621,1,234.69069188051233,308.21840269450905,363.0208466104529,17.435491300577073,0.5001559412683362,-0.4003660850501972,0,Fixed-Wing
1970-01-01 00:00:56.388586367,2670,1531944087703804913,base_link,0,1,40.5928551,-79.8984524,363.022706904,0.348099969053,0.0,0.0,0.0,0.348099969053,0.0,0.0,0.0,1.39239987621,1,241.70016750212253,308.429625708985,363.01065867860586,17.52014122542733,0.5279506261880312,-0.025464673021319092,0,Fixed-Wing
1970-01-01 00:00:56.814956047,2672,1531944088130579805,base_link,0,1,40.592857,-79.8983696,363.032790607,0.348099969053,0.0,0.0,0.0,0.348099969053,0.0,0.0,0.0,1.39239987621,1,248.70964348297767,308.64085628087963,363.02046306060447,17.520142123357875,0.527969515909643,0.02450599253302707,0,Fixed-Wing
1970-01-01 00:00:57.243445804,2674,1531944088558905051,base_link,0,1,40.5928586,-79.898287,363.06287424,0.348099969053,0.0,0.0,0.0,0.348099969053,0.0,0.0,0.0,1.39239987621,1,255.7021899151791,308.8187781199009,363.0502619668362,17.477826820572425,0.4447145428582723,0.07448218293732262,0,Fixed-Wing
1970-01-01 00:00:57.612025062,2676,1531944088927733523,base_link,0,1,40.5928601,-79.8982048,363.152957517,0.348099969053,0.0,0.0,0.0,0.348099969053,0.0,0.0,0.0,1.39239987621,1,262.66087670569027,308.98560300265433,363.14005478928283,17.393194854319916,0.4169777688853435,0.22443660770346843,0,Fixed-Wing
1970-01-01 00:00:58.012487248,2678,1531944089323700840,base_link,0,1,40.5928609,-79.8981227,363.233040992,0.348099969053,0.0,0.0,0.0,0.348099969053,0.0,0.0,0.0,1.39239987621,1,269.61110021169316,309.07469692416896,363.219844358497,17.372040926719553,0.2226897091204826,0.19943353774410486,0,Fixed-Wing
1970-01-01 00:00:58.437269874,2680,1531944089752821664,base_link,0,1,40.5928613,-79.8980405,363.293124744,0.348099969053,0.0,0.0,0.0,0.348099969053,0.0,0.0,0.0,1.39239987621,1,276.5697900679181,309.11937571514136,363.27962843082946,17.393202517052707,0.11167436337241213,0.14942992127202712,0,Fixed-Wing
1970-01-01 00:00:58.814149374,2682,1531944090129668525,base_link,0,1,40.5928614,-79.8979577,363.273209244,0.348099969053,0.0,0.0,0.0,0.348099969053,0.0,0.0,0.0,1.39239987621,1,283.57927103500134,309.13074332905774,363.2594050357727,17.520154586404303,0.02841328110151993,-0.05054825162091198,0,Fixed-Wing
1970-01-01 00:00:59.270546483,2684,1531944090585913092,base_link,0,1,40.5928606,-79.897874,363.063295046,0.348099969053,0.0,0.0,0.0,0.348099969053,0.0,0.0,0.0,1.39239987621,1,290.66493721290027,309.0421641304319,363.0491766375288,17.710579052489194,-0.22140316242420122,-0.5254645890305755,0,Fixed-Wing
1970-01-01 00:00:59.614552891,2686,1531944090929351057,base_link,0,1,40.5928601,-79.8977893,362.793381757,0.348099969053,0.0,0.0,0.0,0.348099969053,0.0,0.0,0.0,1.39239987621,1,297.8352545452384,308.98690785295395,362.77893572206364,17.92216409261657,-0.138112725867891,-0.6754655068976975,0,Fixed-Wing
1970-01-01 00:01:00.056089311,2688,1531944091371527663,base_link,0,1,40.5928588,-79.8977033,362.633470138,0.348099969053,0.0,0.0,0.0,0.348099969053,0.0,0.0,0.0,1.39239987621,1,305.1156325146236,308.8428264216341,362.61868748348405,18.197259978317387,-0.3601306518426911,-0.40053948720280097,0,Fixed-Wing
1970-01-01 00:01:00.415715027,2690,1531944091731253698,base_link,0,1,40.5928572,-79.8976167,362.583559269,0.348099969053,0.0,0.0,0.0,0.348099969053,0.0,0.0,0.0,1.39239987621,1,312.44681052404866,308.66544385884106,362.5684308252065,18.32423436610351,-0.4433666252409229,-0.12561620841162915,0,Fixed-Wing
1970-01-01 00:01:00.812463780,2692,1531944092127818612,base_link,0,1,40.5928568,-79.8975301,362.553647917,0.348099969053,0.0,0.0,0.0,0.348099969053,0.0,0.0,0.0,1.39239987621,1,319.7779840533388,308.6213323293677,362.5381588031401,18.32422316803382,-0.11025649674279694,-0.07566473305758777,0,Fixed-Wing
1970-01-01 00:01:01.253194737,2694,1531944092568956253,base_link,0,1,40.5928578,-79.8974436,362.6137359,0.348099969053,0.0,0.0,0.0,0.348099969053,0.0,0.0,0.0,1.39239987621,1,327.10068982723084,308.73270532733,362.59787059172834,18.303058065471838,0.2783761237406718,0.14924924849775728,0,Fixed-Wing
1970-01-01 00:01:01.622458344,2696,1531944092937955191,base_link,0,1,40.59286,-79.8973569,362.663823604,0.348099969053,0.0,0.0,0.0,0.348099969053,0.0,0.0,0.0,1.39239987621,1,334.44032013507297,308.9773486479733,362.6475663473415,18.345360834036427,0.6114844760019091,0.12421423565024599,0,Fixed-Wing
1970-01-01 00:01:02.017951686,2698,1531944093333693683,base_link,0,1,40.5928634,-79.8972693,362.723911745,0.348099969053,0.0,0.0,0.0,0.348099969053,0.0,0.0,0.0,1.39239987621,1,341.85613451580485,309.35526602805515,362.707243542979,18.5357824558824,0.9446021682655258,0.14916278362993549,0,Fixed-Wing
1970-01-01 00:01:02.415912397,2700,1531944093731613786,base_link,0,1,40.5928667,-79.8971814,362.824000247,0.348099969053,0.0,0.0,0.0,0.348099969053,0.0,0.0,0.0,1.39239987621,1,349.2973476633101,309.7220886928597,362.8069116192409,18.59926651729341,0.9168709956347457,0.24911974390669603,0,Fixed-Wing
1970-01-01 00:01:02.809708252,2702,1531944094125390665,base_link,0,1,40.5928694,-79.8970931,363.084089418,0.348099969053,0.0,0.0,0.0,0.348099969053,0.0,0.0,0.0,1.39239987621,1,356.7724346621911,310.0222967847458,363.0665730296055,18.68393400056727,0.7503682801384645,0.6490220989363954,0,Fixed-Wing
1970-01-01 00:01:03.211980635,2704,1531944094527162541,base_link,0,1,40.592871,-79.8970048,363.404179056,0.348099969053,0.0,0.0,0.0,0.348099969053,0.0,0.0,0.0,1.39239987621,1,364.2475310594795,310.200357695272,363.3862321007233,18.683957491829002,0.44506215122987286,0.7989858831532264,0,Fixed-Wing
1970-01-01 00:01:03.614231162,2706,1531944094929581899,base_link,0,1,40.5928719,-79.8969166,363.674268893,0.348099969053,0.0,0.0,0.0,0.348099969053,0.0,0.0,0.0,1.39239987621,1,371.71416325901254,310.3006865809183,363.6558869006625,18.66280128157304,0.2507714329006377,0.6740005147437383,0,Fixed-Wing
1970-01-01 00:01:04.010161623,2708,1531944095323652890,base_link,0,1,40.592871,-79.8968281,363.654359794,0.348099969053,0.0,0.0,0.0,0.348099969053,0.0,0.0,0.0,1.39239987621,1,379.20618551403214,310.2011157912457,363.63554227735096,18.726263569176254,-0.24887657667475255,-0.05085126089849327,0,Fixed-Wing
1970-01-01 00:01:04.465081025,2710,1531944095777567501,base_link,0,1,40.5928675,-79.8967386,363.474452805,0.348099969053,0.0,0.0,0.0,0.348099969053,0.0,0.0,0.0,1.39239987621,1,386.78286879017355,309.8128129094006,363.4551999112497,18.93787327101614,-0.9705606660778858,-0.45076463541454287,0,Fixed-Wing
1970-01-01 00:01:04.847173571,2712,1531944096162917776,base_link,0,1,40.5928624,-79.8966483,363.254547311,0.348099969053,0.0,0.0,0.0,0.348099969053,0.0,0.0,0.0,1.39239987621,1,394.42728382575456,309.24683557182755,363.2348544871805,19.107168387354072,-1.4146568759152047,-0.5507520328863255,0,Fixed-Wing
1970-01-01 00:01:05.208137455,2714,1531944096523799933,base_link,0,1,40.5928539,-79.8965575,363.084643748,0.348099969053,0.0,0.0,0.0,0.348099969053,0.0,0.0,0.0,1.39239987621,1,402.11405080241946,308.30329271694137,363.06451743308816,19.21302680373449,-2.3583795653534536,-0.4257564195558619,0,Fixed-Wing
1970-01-01 00:01:05.647637166,2716,1531944096962452452,base_link,0,1,40.5928395,-79.8964674,363.054741925,0.348099969053,0.0,0.0,0.0,0.348099969053,0.0,0.0,0.0,1.39239987621,1,409.74160539301533,306.70455228688627,363.0342081448719,19.06502580876342,-3.9960418766577317,-0.07575787956999849,0,Fixed-Wing
1970-01-01 00:01:06.009252406,2718,1531944097324998882,base_link,0,1,40.5928184,-79.8963794,363.034840742,0.348099969053,0.0,0.0,0.0,0.348099969053,0.0,0.0,0.0,1.39239987621,1,417.19142866669466,304.36175925426846,363.0139372343767,18.620787474734687,-5.855796782696018,-0.05066701616718873,0,Fixed-Wing
1970-01-01 00:01:06.422153684,2720,1531944097737867297,base_link,0,1,40.5927902,-79.8962944,362.914939446,0.348099969053,0.0,0.0,0.0,0.348099969053,0.0,0.0,0.0,1.39239987621,1,424.387327841289,301.2304825861014,362.8937109095015,17.986105750071438,-7.826606782544187,-0.30050495993362514,0,Fixed-Wing
1970-01-01 00:01:06.839204234,2722,1531944098154771129,base_link,0,1,40.592754,-79.8962142,362.65503657,0.348099969053,0.0,0.0,0.0,0.348099969053,0.0,0.0,0.0,1.39239987621,1,431.1769273601631,297.21076393308397,362.63354235732066,16.970562258328005,-10.047262061976037,-0.6502896967885444,0,Fixed-Wing
1970-01-01 00:01:07.201897927,2724,1531944098517290200,base_link,0,1,40.5927087,-79.8961412,362.285130114,0.348099969053,0.0,0.0,0.0,0.348099969053,0.0,0.0,0.0,1.39239987621,1,437.3570639944205,292.18043442976403,362.2634487160299,15.447213524904692,-12.573277669571745,-0.9250467812536379,0,Fixed-Wing
1970-01-01 00:01:07.580362734,2726,1531944098895301443,base_link,0,1,40.5926543,-79.8960781,361.895217319,0.348099969053,0.0,0.0,0.0,0.348099969053,0.0,0.0,0.0,1.39239987621,1,442.69917432269574,286.13948348787386,361.8734424427728,13.352571924873276,-15.099319742477581,-0.9748182824406626,0,Fixed-Wing
1970-01-01 00:01:08.076404469,2728,1531944099391096108,base_link,0,1,40.5925923,-79.8960277,361.445294696,0.348099969053,0.0,0.0,0.0,0.348099969053,0.0,0.0,0.0,1.39239987621,1,446.9662092749305,279.25447213557175,361.4235285549046,10.665427631491573,-17.209043549436526,-1.1245569968786473,0,Fixed-Wing
1970-01-01 00:01:08.422306515,2730,1531944099737919425,base_link,0,1,40.5925236,-79.8959942,361.195357569,0.348099969053,0.0,0.0,0.0,0.348099969053,0.0,0.0,0.0,1.39239987621,1,449.80262459644365,271.6253356671807,361.1737225786621,7.089602659244327,-19.06897970258782,-0.6243885019346049,0,Fixed-Wing
1970-01-01 00:01:08.834320156,2732,1531944100149244913,base_link,0,1,40.5924516,-79.8959782,361.245403909,0.348099969053,0.0,0.0,0.0,0.348099969053,0.0,0.0,0.0,1.39239987621,1,451.1576077434331,263.6296508756493,361.2240096667467,3.3867720461343285,-19.985164982919464,0.12569226752743679,0,Fixed-Wing
1970-01-01 00:01:09.251567188,2734,1531944100567209250,base_link,0,1,40.5923791,-79.8959759,361.715436444,0.348099969053,0.0,0.0,0.0,0.348099969053,0.0,0.0,0.0,1.39239987621,1,451.35283741093406,255.57838669449046,361.69435690234053,0.4879753537432152,-20.124085325618665,1.1756300239046744,0,Fixed-Wing
1970-01-01 00:01:09.624534674,2736,1531944100940237215,base_link,0,1,40.5923086,-79.8959854,362.585456075,0.348099969053,0.0,0.0,0.0,0.348099969053,0.0,0.0,0.0,1.39239987621,1,450.5491383577929,247.7491812776753,362.5647429388762,-2.008840842582239,-19.569050809249052,2.1755245476182297,0,Fixed-Wing
1970-01-01 00:01:10.011868616,2738,1531944101323718458,base_link,0,1,40.5922408,-79.8959998,363.625469581,0.348099969053,0.0,0.0,0.0,0.348099969053,0.0,0.0,0.0,1.39239987621,1,449.33061506322775,240.21979672495564,363.6051309973707,-3.0456914838874107,-18.819650402592593,2.6004435564160757,0,Fixed-Wing
1970-01-01 00:01:10.430937104,2740,1531944101744005238,base_link,0,1,40.5921747,-79.8960152,364.505481374,0.348099969053,0.0,0.0,0.0,0.348099969053,0.0,0.0,0.0,1.39239987621,1,448.02740987012123,232.8791881314807,364.48550723347796,-3.257353368709139,-18.347806052961623,2.2004949900327215,0,Fixed-Wing
1970-01-01 00:01:10.830681041,2742,1531944102146400286,base_link,0,1,40.5921098,-79.89603,365.1554933,0.348099969053,0.0,0.0,0.0,0.348099969053,0.0,0.0,0.0,1.39239987621,1,446.7749716117403,225.67183559766244,365.13586659235017,-3.1304617274525617,-18.01473335104208,1.6255692194135893,0,Fixed-Wing
1970-01-01 00:01:11.212878234,2744,1531944102528298889,base_link,0,1,40.5920447,-79.8960426,365.515507585,0.348099969053,0.0,0.0,0.0,0.348099969053,0.0,0.0,0.0,1.39239987621,1,445.70875638738767,218.4422725749303,365.49620766985083,-2.664998398705807,-18.07024833154317,0.9006703080142863,0,Fixed-Wing
1970-01-01 00:01:11.617981800,2746,1531944102932704447,base_link,0,1,40.5919784,-79.8960523,365.525525364,0.348099969053,0.0,0.0,0.0,0.348099969053,0.0,0.0,0.0,1.39239987621,1,444.88802706483307,211.07944910619153,365.5065311768004,-2.0514078962874973,-18.403331997117537,0.02580354215668702,0,Fixed-Wing
1970-01-01 00:01:12.036951795,2748,1531944103352363171,base_link,0,1,40.5919106,-79.8960589,365.375546972,0.348099969053,0.0,0.0,0.0,0.348099969053,0.0,0.0,0.0,1.39239987621,1,444.3297310256439,203.55005769644774,365.35683696918056,-1.395457517825502,-18.819667541682296,-0.374159751699929,0,Fixed-Wing
1970-01-01 00:01:12.440888589,2750,1531944103756098014,base_link,0,1,40.5918415,-79.8960623,365.235572427,0.348099969053,0.0,0.0,0.0,0.348099969053,0.0,0.0,0.0,1.39239987621,1,444.0423452351673,195.87631509034412,365.21712326728675,-0.7183190165906541,-19.180472469583947,-0.34921353899288154,0,Fixed-Wing
1970-01-01 00:01:12.869001217,2752,1531944104184531184,base_link,0,1,40.5917714,-79.8960636,365.085600479,0.348099969053,0.0,0.0,0.0,0.348099969053,0.0,0.0,0.0,1.39239987621,1,443.9327444398216,188.09153081386123,365.0673938246597,-0.273946514195194,-19.45802044206772,-0.37424782138382673,0,Fixed-Wing
1970-01-01 00:01:13.273632213,2754,1531944104585987266,base_link,0,1,40.5917005,-79.8960638,364.97563002,0.348099969053,0.0,0.0,0.0,0.348099969053,0.0,0.0,0.0,1.39239987621,1,443.91627426627133,180.21791176473954,364.95765239060546,-0.041167097538399394,-19.680062410166155,-0.27429803978251566,0,Fixed-Wing
1970-01-01 00:01:13.592766072,2756,1531944104907124338,base_link,0,1,40.5916294,-79.8960632,364.86566049,0.348099969053,0.0,0.0,0.0,0.348099969053,0.0,0.0,0.0,1.39239987621,1,443.9675311024081,172.32208663951775,364.8478980370062,0.12811614682216466,-19.7355663608664,-0.27433033210592683,0,Fixed-Wing
1970-01-01 00:01:13.998979935,2758,1531944105314291535,base_link,0,1,40.5915585,-79.8960629,364.825690594,0.348099969053,0.0,0.0,0.0,0.348099969053,0.0,0.0,0.0,1.39239987621,1,443.9933944138481,164.44847265809142,364.8081347081102,0.06464518794941854,-19.68004974349277,-0.09938819613032131,0,Fixed-Wing
1970-01-01 00:01:14.477692500,2760,1531944105792933189,base_link,0,1,40.5914886,-79.8960633,364.845719584,0.348099969053,0.0,0.0,0.0,0.348099969053,0.0,0.0,0.0,1.39239987621,1,443.9599952017596,156.68590920744336,364.8283619114831,-0.08348112529326444,-19.402479624496188,0.05055777048382712,0,Fixed-Wing
1970-01-01 00:01:14.816313343,2762,1531944106131687439,base_link,0,1,40.5914198,-79.8960646,364.665747212,0.348099969053,0.0,0.0,0.0,0.348099969053,0.0,0.0,0.0,1.39239987621,1,443.85038306454743,149.04549420580236,364.6485807152724,-0.2739748631207072,-19.097170327111264,-0.4493619947229193,0,Fixed-Wing
1970-01-01 00:01:15.215112366,2764,1531944106530625725,base_link,0,1,40.5913518,-79.8960664,364.325774014,0.348099969053,0.0,0.0,0.0,0.348099969053,0.0,0.0,0.0,1.39239987621,1,443.69842555471615,141.49391555510456,364.30879048306974,-0.3798168616637058,-18.87512441405063,-0.8493035965282809,0,Fixed-Wing
1970-01-01 00:01:15.612660169,2766,1531944106928208375,base_link,0,1,40.5912847,-79.8960687,363.685799945,0.348099969053,0.0,0.0,0.0,0.348099969053,0.0,0.0,0.0,1.39239987621,1,443.5041121847935,134.04227609812034,363.6689912494429,-0.48568507357926965,-18.62532701374028,-1.5991742512811946,0,Fixed-Wing
1970-01-01 00:01:16.029779466,2768,1531944107345256345,base_link,0,1,40.5912177,-79.8960713,362.875825549,0.348099969053,0.0,0.0,0.0,0.348099969053,0.0,0.0,0.0,1.39239987621,1,443.2843887096666,126.60173857263146,362.85918449921735,-0.5491974753284908,-18.59757780421684,-2.02410699389764,0,Fixed-Wing
1970-01-01 00:01:16.421202431,2770,1531944107736979755,base_link,0,1,40.591151,-79.8960743,361.965850638,0.348099969053,0.0,0.0,0.0,0.348099969053,0.0,0.0,0.0,1.39239987621,1,443.0307928466443,119.19451484881878,361.9493702501077,-0.6338613006422935,-18.514310161723945,-2.274075122561862,0,Fixed-Wing
1970-01-01 00:01:16.833409167,2772,1531944108149103708,base_link,0,1,40.591085,-79.8960795,360.995873194,0.348099969053,0.0,0.0,0.0,0.348099969053,0.0,0.0,0.0,1.39239987621,1,442.59094062927295,111.86501784388147,360.97955637680116,-1.0994079133259695,-18.320032705720365,-2.4240438143938867,0,Fixed-Wing
1970-01-01 00:01:17.256002109,2774,1531944108571286735,base_link,0,1,40.5910197,-79.8960888,360.105891267,0.348099969053,0.0,0.0,0.0,0.348099969053,0.0,0.0,0.0,1.39239987621,1,441.80399136712106,104.61324052521701,360.0897522885724,-1.9669748429740301,-18.125772827663564,-2.2240598484525465,0,Fixed-Wing
1970-01-01 00:01:17.592439807,2776,1531944108908232011,base_link,0,1,40.5909562,-79.8961033,359.295903261,0.348099969053,0.0,0.0,0.0,0.348099969053,0.0,0.0,0.0,1.39239987621,1,440.5768132416527,97.5613347020419,359.27996107604497,-3.067324180524334,-17.626195253398947,-2.024068157516711,0,Fixed-Wing
1970-01-01 00:01:17.997885361,2778,1531944109313521823,base_link,0,1,40.590895,-79.8961246,358.655907318,0.348099969053,0.0,0.0,0.0,0.348099969053,0.0,0.0,0.0,1.39239987621,1,438.77395533558433,90.76481968449968,358.6401898103061,-4.506232253139659,-16.98784750473584,-1.5991043457172085,0,Fixed-Wing
1970-01-01 00:01:18.426696390,2780,1531944109742260373,base_link,0,1,40.5908369,-79.8961531,358.095902687,0.348099969053,0.0,0.0,0.0,0.348099969053,0.0,0.0,0.0,1.39239987621,1,436.3615417123084,84.31253389173642,358.08043920456385,-6.029813021053083,-16.12744867355176,-1.399093197983003,0,Fixed-Wing
