time,field.header.seq,field.header.stamp,field.header.frame_id,field.status.status,field.status.service,lat,lon,alt,field.position_covariance0,field.position_covariance1,field.position_covariance2,field.position_covariance3,field.position_covariance4,field.position_covariance5,field.position_covariance6,field.position_covariance7,field.position_covariance8,field.position_covariance_type,x,y,z,vel_x,vel_y,vel_z,track_id,uav_category
1970-01-01 00:00:00.000000000,7373,1532134949001335632,base_link,0,1,40.5915351,-79.8977612,378.353960682,0.372100017452,0.0,0.0,0.0,0.372100017452,0.0,0.0,0.0,1.48840006981,1,299.28103583868904,166.37392267727188,378.3447743299797,-17.375714061147423,10.382640730709724,5.35016036333313,0,Fixed-Wing
1970-01-01 00:00:00.404684672,7375,1532134949406069488,base_link,0,1,40.5915725,-79.8978433,380.493861054,0.372100017452,0.0,0.0,0.0,0.372100017452,0.0,0.0,0.0,1.48840006981,1,292.3305938328035,170.52707241332234,380.48488662675624,-17.375714061147423,10.382640730709724,5.35016036333313,0,Fixed-Wing
1970-01-01 00:00:00.783235232,7377,1532134949784067120,base_link,0,1,40.5916153,-79.8979077,383.053777294,0.372100017452,0.0,0.0,0.0,0.372100017452,0.0,0.0,0.0,1.48840006981,1,286.87858699133477,175.27998511657364,383.04492090116804,-13.62971043518707,11.882014412803956,6.399941687341547,0,Fixed-Wing
1970-01-01 00:00:01.206502016,7379,1532134950207349168,base_link,0,1,40.5916619,-79.8979556,385.393708841,0.372100017452,0.0,0.0,0.0,0.372100017452,0.0,0.0,0.0,1.48840006981,1,282.8234040192901,180.45495275324458,385.3848886292121,-10.137729331201774,12.937128006297215,5.84978769988697,0,Fixed-Wing
1970-01-01 00:00:01.588269056,7381,1532134950589683408,base_link,0,1,40.59171,-79.8979918,386.913651743,0.324899991846,0.0,0.0,0.0,0.324899991846,0.0,0.0,0.0,1.29959996738,1,279.7586726640397,185.79651879209345,386.9048127641505,-7.661656000865949,13.35361464079275,3.799724843536966,0,Fixed-Wing
1970-01-01 00:00:02.017452416,7383,1532134951019130448,base_link,0,1,40.5917594,-79.8980183,387.483604037,0.324899991846,0.0,0.0,0.0,0.324899991846,0.0,0.0,0.0,1.29959996738,1,277.5150734746926,191.2824592982494,387.4747003736602,-5.608871773752826,13.71454268817937,1.424686968317443,0,Fixed-Wing
1970-01-01 00:00:02.421005792,7385,1532134951422361744,base_link,0,1,40.5918097,-79.8980358,387.173565171,0.324899991846,0.0,0.0,0.0,0.324899991846,0.0,0.0,0.0,1.29959996738,1,276.0333506065648,196.8683499736328,387.16455533237036,-3.7042238252834405,13.96441248917752,-0.7753451579585534,0,Fixed-Wing
1970-01-01 00:00:02.806095008,7387,1532134951807245584,base_link,0,1,40.5918612,-79.8980447,386.023534611,0.324899991846,0.0,0.0,0.0,0.324899991846,0.0,0.0,0.0,1.29959996738,1,275.279640541081,202.5875038856694,386.014377773728,-1.8842327684722129,14.297563084922096,-2.875379200573945,0,Fixed-Wing
1970-01-01 00:00:03.243484448,7389,1532134952244942256,base_link,0,1,40.5919139,-79.8980429,384.233514502,0.324899991846,0.0,0.0,0.0,0.324899991846,0.0,0.0,0.0,1.29959996738,1,275.4317299833063,208.43993160041546,384.2241620786908,0.38021505072461775,14.630740095213,-4.475438540225714,0,Fixed-Wing
1970-01-01 00:00:03.574645088,7391,1532134952575734064,base_link,0,1,40.5919664,-79.8980271,382.093508798,0.324899991846,0.0,0.0,0.0,0.324899991846,0.0,0.0,0.0,1.29959996738,1,276.76900227181505,214.2701776587046,382.0839049043581,3.3431055013981106,14.575287201760796,-5.3505225490744035,0,Fixed-Wing
1970-01-01 00:00:04.002710240,7393,1532134953004208592,base_link,0,1,40.5920161,-79.8979961,379.803519805,0.324899991846,0.0,0.0,0.0,0.324899991846,0.0,0.0,0.0,1.29959996738,1,279.39306103236447,219.78951556948255,379.79361341276586,6.5599993013892615,13.798034321172647,-5.725599902982824,0,Fixed-Wing
1970-01-01 00:00:04.382787584,7395,1532134953384408400,base_link,0,1,40.59206,-79.8979502,377.563548462,0.324899991846,0.0,0.0,0.0,0.324899991846,0.0,0.0,0.0,1.29959996738,1,283.2785266642489,224.66479487159285,377.5533006603337,9.713445527186675,12.187924026985144,-5.600655866323374,0,Fixed-Wing
1970-01-01 00:00:04.793691328,7397,1532134953795126672,base_link,0,1,40.5920959,-79.8978926,375.47359241,0.324899991846,0.0,0.0,0.0,0.324899991846,0.0,0.0,0.0,1.29959996738,1,288.1545089588897,228.65169575356532,375.4629844808951,12.18968146876904,9.967027946802382,-5.225672870956944,0,Fixed-Wing
1970-01-01 00:00:05.232499712,7399,1532134954233655856,base_link,0,1,40.5921204,-79.897826,373.803650302,0.348099969053,0.0,0.0,0.0,0.348099969053,0.0,0.0,0.0,1.39239987621,1,293.7924617911698,231.37264343233142,373.7926871831339,14.094564952988717,6.802216147051928,-4.175649292293875,0,Fixed-Wing
1970-01-01 00:00:05.603387872,7401,1532134954601995344,base_link,0,1,40.5921319,-79.8977547,372.763718409,0.348099969053,0.0,0.0,0.0,0.348099969053,0.0,0.0,0.0,1.39239987621,1,299.8283812346484,232.64995012648092,372.7524282447993,15.089459095866927,3.193194888488763,-2.600588832587773,0,Fixed-Wing
1970-01-01 00:00:06.010043584,7403,1532134955011342768,base_link,0,1,40.592131,-79.8976845,372.033790552,0.348099969053,0.0,0.0,0.0,0.348099969053,0.0,0.0,0.0,1.39239987621,1,305.7712457066698,232.5502175510273,372.0222223117035,14.85682690144814,-0.24932582880292475,-1.8254737595799526,0,Fixed-Wing
1970-01-01 00:00:06.388683456,7405,1532134955390311184,base_link,0,1,40.5921195,-79.8976198,371.413861487,0.348099969053,0.0,0.0,0.0,0.348099969053,0.0,0.0,0.0,1.39239987621,1,311.2485521267771,231.27331764437758,371.4020752396724,13.692957958714207,-3.1921779426205488,-1.5503327975898098,0,Fixed-Wing
1970-01-01 00:00:06.792013888,7407,1532134955793194992,base_link,0,1,40.5920968,-79.8975635,371.1539285,0.384400005913,0.0,0.0,0.0,0.384400005913,0.0,0.0,0.0,1.53760002365,1,316.01481418458644,228.75261673704992,371.1419993497005,11.915387048314768,-6.301610482083316,-0.6501750959901286,0,Fixed-Wing
1970-01-01 00:00:07.258876896,7409,1532134956260182864,base_link,0,1,40.5920665,-79.897517,371.103988664,0.384400005913,0.0,0.0,0.0,0.384400005913,0.0,0.0,0.0,1.53760002365,1,319.95149039152443,225.3878918451445,371.0919836165852,9.841469084290575,-8.411622968246741,-0.12503651946653133,0,Fixed-Wing
1970-01-01 00:00:07.637621056,7411,1532134956626564688,base_link,0,1,40.5920326,-79.897479,371.234041644,0.372100017452,0.0,0.0,0.0,0.372100017452,0.0,0.0,0.0,1.48840006981,1,323.1686143521435,221.6233551184538,371.22200687649496,8.042628942396453,-9.411130066300311,0.32505083613059355,0,Fixed-Wing
1970-01-01 00:00:07.993738176,7413,1532134956995422192,base_link,0,1,40.5919982,-79.8974468,371.34408891,0.372100017452,0.0,0.0,0.0,0.372100017452,0.0,0.0,0.0,1.48840006981,1,325.89473378996666,217.80327122754233,371.3320475487029,6.81514525378972,-9.549994852394477,0.2750954908713512,0,Fixed-Wing
1970-01-01 00:00:08.404162016,7415,1532134957405819472,base_link,0,1,40.5919647,-79.8974171,371.234133254,0.372100017452,0.0,0.0,0.0,0.372100017452,0.0,0.0,0.0,1.48840006981,1,328.40919834259336,214.08311875583615,371.22208936389904,6.286019946117941,-9.300171925397107,-0.27488927700094856,0,Fixed-Wing
1970-01-01 00:00:08.775860896,7417,1532134957776674096,base_link,0,1,40.5919328,-79.8973871,370.774177247,0.372100017452,0.0,0.0,0.0,0.372100017452,0.0,0.0,0.0,1.48840006981,1,330.9490363543428,210.54064083872663,370.7621204719858,6.349452166699881,-8.855995532874317,-1.1498963571151228,0,Fixed-Wing
1970-01-01 00:00:09.195813088,7419,1532134958197292944,base_link,0,1,40.5919015,-79.897354,370.16422417,0.372100017452,0.0,0.0,0.0,0.372100017452,0.0,0.0,0.0,1.48840006981,1,333.7513019423168,207.06480267600608,370.15213565250417,7.005506346042157,-8.68939989530373,-1.5249277378299249,0,Fixed-Wing
1970-01-01 00:00:09.597786880,7421,1532134958599357040,base_link,0,1,40.5918703,-79.8973167,369.284275359,0.372100017452,0.0,0.0,0.0,0.372100017452,0.0,0.0,0.0,1.48840006981,1,336.9091139140948,203.60007891950156,369.27213287185054,7.894352306518146,-8.661614504934954,-2.1999574525913825,0,Fixed-Wing
1970-01-01 00:00:09.995168256,7423,1532134958995984240,base_link,0,1,40.5918382,-79.8972751,368.014331335,0.372100017452,0.0,0.0,0.0,0.372100017452,0.0,0.0,0.0,1.48840006981,1,340.4309365702284,200.0354146224962,368.0021151820599,8.804358542266854,-8.911460234658097,-3.17497278758883,0,Fixed-Wing
1970-01-01 00:00:10.399065664,7425,1532134959400612528,base_link,0,1,40.5918043,-79.8972291,366.354392577,0.409599981689,0.0,0.0,0.0,0.409599981689,0.0,0.0,0.0,1.63839992676,1,344.32524002611547,196.27086422834773,366.34208492063703,9.735539590076826,-9.41116423417591,-4.149982278955947,0,Fixed-Wing
1970-01-01 00:00:10.822262656,7427,1532134959823836560,base_link,0,1,40.5917672,-79.8971794,364.804458958,0.409599981689,0.0,0.0,0.0,0.409599981689,0.0,0.0,0.0,1.63839992676,1,348.53279882370543,192.15096816363155,364.79204885141166,10.518660324117628,-10.299508422850954,-3.8750029854962533,0,Fixed-Wing
1970-01-01 00:00:11.198119264,7429,1532134960198822224,base_link,0,1,40.5917273,-79.8971279,363.914528368,0.384400005913,0.0,0.0,0.0,0.384400005913,0.0,0.0,0.0,1.53760002365,1,352.89279402877827,187.72015657066498,363.902011134399,10.899742768469796,-11.076779754871923,-2.2250442290364973,0,Fixed-Wing
1970-01-01 00:00:11.598292096,7431,1532134960599758960,base_link,0,1,40.5916865,-79.8970768,363.924597763,0.384400005913,0.0,0.0,0.0,0.384400005913,0.0,0.0,0.0,1.53760002365,1,357.21898549926823,183.18942596227765,363.911972111755,10.815235333429897,-11.32657167310568,0.024901883097634993,0,Fixed-Wing
1970-01-01 00:00:11.994171360,7433,1532134960995386384,base_link,0,1,40.591647,-79.8970284,364.434663866,0.384400005913,0.0,0.0,0.0,0.384400005913,0.0,0.0,0.0,1.53760002365,1,361.31662928910765,178.80306893778857,364.42193251781634,10.243878987321345,-10.965645834191447,1.27487233052591,0,Fixed-Wing
1970-01-01 00:00:12.404505248,7435,1532134961405997072,base_link,0,1,40.591609,-79.8969836,365.194725669,0.384400005913,0.0,0.0,0.0,0.384400005913,0.0,0.0,0.0,1.53760002365,1,365.1095188176885,174.58328400708902,365.18189583078413,9.482010476216466,-10.54922496918706,1.8998655354449128,0,Fixed-Wing
1970-01-01 00:00:12.804033184,7437,1532134961805523216,base_link,0,1,40.5915725,-79.8969418,365.974783785,0.422499969006,0.0,0.0,0.0,0.422499969006,0.0,0.0,0.0,1.68999987602,1,368.6484347225223,170.53006661187726,365.9618606058069,8.847090702543692,-10.132815499680659,1.9498680655255018,0,Fixed-Wing
1970-01-01 00:00:13.193275808,7439,1532134962193666832,base_link,0,1,40.5915373,-79.8969021,366.684839218,0.422499969006,0.0,0.0,0.0,0.422499969006,0.0,0.0,0.0,1.68999987602,1,372.0095637263504,166.62120737090325,366.67182473447497,8.40263345031754,-9.77192823404976,1.7748703870864107,0,Fixed-Wing
1970-01-01 00:00:13.593825632,7441,1532134962595239312,base_link,0,1,40.5915034,-79.8968638,367.234892682,0.422499969006,0.0,0.0,0.0,0.422499969006,0.0,0.0,0.0,1.68999987602,1,375.2521600434083,162.85670689571754,367.2217859949046,8.106308400705776,-9.411039439576891,1.374872216449266,0,Fixed-Wing
1970-01-01 00:00:13.982245184,7443,1532134962983766320,base_link,0,1,40.59147,-79.8968262,367.56494523,0.422499969006,0.0,0.0,0.0,0.422499969006,0.0,0.0,0.0,1.68999987602,1,378.43548416339587,159.14772491203672,367.55174458890644,7.958131242015955,-9.27224633365953,0.8248779252512399,0,Fixed-Wing
1970-01-01 00:00:14.402435456,7445,1532134963402403216,base_link,0,1,40.5914373,-79.8967886,367.624997496,0.422499969006,0.0,0.0,0.0,0.422499969006,0.0,0.0,0.0,1.68999987602,1,381.61879166932823,155.51647403299933,367.61169725176245,7.958089707812479,-9.077922944327241,0.14987828487860436,0,Fixed-Wing
1970-01-01 00:00:14.782890560,7447,1532134963783211856,base_link,0,1,40.5914046,-79.8967503,367.425050489,0.422499969006,0.0,0.0,0.0,0.422499969006,0.0,0.0,0.0,1.68999987602,1,384.8613469050365,151.88522131653778,367.4116434156351,8.106205699642425,-9.077927537784264,-0.500123337543216,0,Fixed-Wing
1970-01-01 00:00:15.190344896,7449,1532134964191928240,base_link,0,1,40.5913713,-79.8967111,367.025104667,0.422499969006,0.0,0.0,0.0,0.422499969006,0.0,0.0,0.0,1.68999987602,1,388.18008817337915,148.1873381133201,367.0115839670756,8.296666495860466,-9.24450000679406,-1.0001261185611965,0,Fixed-Wing
1970-01-01 00:00:15.601713088,7451,1532134964603138544,base_link,0,1,40.5913375,-79.8966708,366.635160195,0.422499969006,0.0,0.0,0.0,0.422499969006,0.0,0.0,0.0,1.68999987602,1,391.5919591512069,144.43393578346848,366.62151754780757,8.529485531144879,-9.383294700498265,-0.975144107427607,0,Fixed-Wing
1970-01-01 00:00:15.992343200,7453,1532134964993505776,base_link,0,1,40.5913031,-79.8966299,366.425216602,0.422499969006,0.0,0.0,0.0,0.422499969006,0.0,0.0,0.0,1.68999987602,1,395.0546423640337,140.6139107211839,366.4114463016122,8.656513260518754,-9.549847784136286,-0.5251662992466541,0,Fixed-Wing
1970-01-01 00:00:16.388335072,7455,1532134965389859056,base_link,0,1,40.5912685,-79.8965887,366.365273413,0.422499969006,0.0,0.0,0.0,0.422499969006,0.0,0.0,0.0,1.68999987602,1,398.54273673194155,136.77168164170465,366.3513701804122,8.720039718875876,-9.60535657817516,-0.15018692379431633,0,Fixed-Wing
1970-01-01 00:00:16.805613632,7457,1532134965807185840,base_link,0,1,40.5912344,-79.8965473,366.475330231,0.422499969006,0.0,0.0,0.0,0.422499969006,0.0,0.0,0.0,1.68999987602,1,402.04777387075933,132.98498496111074,366.46128761386245,8.762395693141363,-9.46652870458891,0.2747874009091738,0,Fixed-Wing
1970-01-01 00:00:17.225916864,7459,1532134966225145488,base_link,0,1,40.5912013,-79.8965055,366.565387049,0.422499969006,0.0,0.0,0.0,0.422499969006,0.0,0.0,0.0,1.68999987602,1,405.5866704666575,129.30934366882607,366.55119646635666,8.84704243129071,-9.188896480540853,0.22476707397634663,0,Fixed-Wing
1970-01-01 00:00:17.652388864,7461,1532134966653909424,base_link,0,1,40.5911684,-79.8964632,366.505444307,0.422499969006,0.0,0.0,0.0,0.422499969006,0.0,0.0,0.0,1.68999987602,1,409.16788870678215,125.65591381500174,366.49109852491875,8.95284416131801,-9.133369133755327,-0.15024147316161035,0,Fixed-Wing
1970-01-01 00:00:17.996024288,7463,1532134966996799056,base_link,0,1,40.591135,-79.8964213,366.365501377,0.422499969006,0.0,0.0,0.0,0.422499969006,0.0,0.0,0.0,1.68999987602,1,412.71524517252385,121.94695616145296,366.3509995412754,8.868191630042574,-9.27218550969798,-0.350239578717796,0,Fixed-Wing
1970-01-01 00:00:18.405694720,7465,1532134967406769136,base_link,0,1,40.5911008,-79.8963804,366.205557772,0.422499969006,0.0,0.0,0.0,0.422499969006,0.0,0.0,0.0,1.68999987602,1,416.177950829799,118.14915335681559,366.1909029167225,8.65656937037701,-9.494293389992153,-0.4002325561497885,0,Fixed-Wing
1970-01-01 00:00:18.788335264,7467,1532134967789971952,base_link,0,1,40.5910651,-79.8963407,366.095613581,0.422499969006,0.0,0.0,0.0,0.422499969006,0.0,0.0,0.0,1.68999987602,1,419.5390830395812,114.18476895342084,366.08081122767913,8.402641465022604,-9.910738016881485,-0.27522303009025373,0,Fixed-Wing
1970-01-01 00:00:19.182533344,7469,1532134968184213360,base_link,0,1,40.591028,-79.8963038,365.985667121,0.422499969006,0.0,0.0,0.0,0.422499969006,0.0,0.0,0.0,1.68999987602,1,422.6631853217287,110.06489942548393,365.9707314088808,7.8100799785691715,-10.29944208239543,-0.27519335514535936,0,Fixed-Wing
1970-01-01 00:00:19.594109536,7471,1532134968595741232,base_link,0,1,40.5909887,-79.8962717,365.935716679,0.422499969006,0.0,0.0,0.0,0.422499969006,0.0,0.0,0.0,1.68999987602,1,425.3809506008141,105.700693903066,365.9206745521424,6.794260326856213,-10.91026832500752,-0.12513932621121546,0,Fixed-Wing
1970-01-01 00:00:19.985779968,7473,1532134968987395792,base_link,0,1,40.5909472,-79.8962462,365.935760408,0.422499969006,0.0,0.0,0.0,0.422499969006,0.0,0.0,0.0,1.68999987602,1,427.5399933909831,101.0921429300594,365.92064902187343,5.397485531998021,-11.521118207356837,-6.382423631087109e-05,0,Fixed-Wing
1970-01-01 00:00:20.394995712,7475,1532134969396584816,base_link,0,1,40.5909037,-79.8962286,365.985796888,0.422499969006,0.0,0.0,0.0,0.422499969006,0.0,0.0,0.0,1.68999987602,1,429.0302561232181,96.26145006067361,365.97066049659986,3.725573005194908,-12.07646045310427,0.1250258737339209,0,Fixed-Wing
1970-01-01 00:00:20.799537408,7477,1532134969801166064,base_link,0,1,40.5908587,-79.8962199,365.935824881,0.422499969006,0.0,0.0,0.0,0.422499969006,0.0,0.0,0.0,1.68999987602,1,429.76706621269545,91.2641339478661,365.9207125985374,1.8419837790582978,-12.493009189312017,-0.12486693565005215,0,Fixed-Wing
1970-01-01 00:00:21.233986368,7479,1532134970235331280,base_link,0,1,40.5908132,-79.8962215,365.775842525,0.384400005913,0.0,0.0,0.0,0.384400005913,0.0,0.0,0.0,1.53760002365,1,429.6318936247084,86.21124003482055,365.76080980440406,-0.3379238666805714,-12.631950563726194,-0.39974799100359953,0,Fixed-Wing
1970-01-01 00:00:21.631868960,7481,1532134970633550000,base_link,0,1,40.5907682,-79.8962341,365.485848676,0.384400005913,0.0,0.0,0.0,0.384400005913,0.0,0.0,0.0,1.53760002365,1,428.56546815101416,81.21381736064285,365.4709533433189,-2.666003699152436,-12.493275586743545,-0.7246248486537824,0,Fixed-Wing
1970-01-01 00:00:21.999795808,7483,1532134971001448912,base_link,0,1,40.5907252,-79.8962589,365.255841464,0.384400005913,0.0,0.0,0.0,0.384400005913,0.0,0.0,0.0,1.53760002365,1,426.46620132645467,76.43844165801693,365.24114579177945,-5.248048980296675,-11.938170647725231,-0.5745059524647339,0,Fixed-Wing
1970-01-01 00:00:22.407137376,7485,1532134971408694832,base_link,0,1,40.5906863,-79.8962956,365.175820305,0.384400005913,0.0,0.0,0.0,0.384400005913,0.0,0.0,0.0,1.53760002365,1,423.3594816370538,72.11832608785346,365.1613817302769,-7.766624474451444,-10.800045924375366,-0.19940566712885044,0,Fixed-Wing
1970-01-01 00:00:22.801977152,7487,1532134971802203984,base_link,0,1,40.5906531,-79.896342,365.185786776,0.384400005913,0.0,0.0,0.0,0.384400005913,0.0,0.0,0.0,1.53760002365,1,419.43154224975746,68.43116521492828,365.1716480561961,-9.819627526621558,-9.217694784180296,0.02566523733013499,0,Fixed-Wing
1970-01-01 00:00:23.222987904,7489,1532134972224625584,base_link,0,1,40.5906267,-79.8963963,365.305742256,0.384400005913,0.0,0.0,0.0,0.384400005913,0.0,0.0,0.0,1.53760002365,1,414.83476245208567,65.49912647369945,365.29193458295913,-11.491690931133515,-7.329931929603676,0.30070955094270035,0,Fixed-Wing
1970-01-01 00:00:23.624999040,7491,1532134972625380112,base_link,0,1,40.5906073,-79.8964564,365.465688816,0.33639998064,0.0,0.0,0.0,0.33639998064,0.0,0.0,0.0,1.34559992256,1,409.7469196224825,63.344430530043866,365.452231358188,-12.71932088928793,-5.386618660219101,0.40073292158140883,0,Fixed-Wing
1970-01-01 00:00:23.992469856,7493,1532134972993994192,base_link,0,1,40.5905944,-79.8965207,365.75562831,0.33639998064,0.0,0.0,0.0,0.33639998064,0.0,0.0,0.0,1.34559992256,1,404.30347705802683,61.911560426919635,365.74253181950735,-13.608300224384115,-3.5820946606807107,0.725734824264858,0,Fixed-Wing
1970-01-01 00:00:24.403058400,7495,1532134973404493744,base_link,0,1,40.590587,-79.8965866,366.065563832,0.33639998064,0.0,0.0,0.0,0.33639998064,0.0,0.0,0.0,1.34559992256,1,398.72454689467736,61.08947526957658,366.0528259747789,-13.947011600612658,-2.0551666521079617,0.7757179345253463,0,Fixed-Wing
1970-01-01 00:00:24.779015680,7497,1532134973773330320,base_link,0,1,40.5905841,-79.8966532,366.385496732,0.33639998064,0.0,0.0,0.0,0.33639998064,0.0,0.0,0.0,1.34559992256,1,393.08632827386265,60.767126966698015,366.37311142088566,-14.095229409375069,-0.8058526255123423,0.8006955996159234,0,Fixed-Wing
1970-01-01 00:00:25.198788896,7499,1532134974200333520,base_link,0,1,40.5905841,-79.8967194,366.675428818,0.33639998064,0.0,0.0,0.0,0.33639998064,0.0,0.0,0.0,1.34559992256,1,387.4819534444632,60.76683633684004,366.66338594141837,-14.010621834507305,-0.0007265582973675103,0.7256699737573532,0,Fixed-Wing
1970-01-01 00:00:25.620854528,7501,1532134974622366608,base_link,0,1,40.590585,-79.8967846,367.025361555,0.33639998064,0.0,0.0,0.0,0.33639998064,0.0,0.0,0.0,1.34559992256,1,381.9622350743594,60.86650199723704,367.0136501791384,-13.798985448086961,0.24915854492522385,0.8756408923799509,0,Fixed-Wing
1970-01-01 00:00:26.004227936,7503,1532134975005823856,base_link,0,1,40.5905856,-79.8968489,367.25529535,0.302500013113,0.0,0.0,0.0,0.302500013113,0.0,0.0,0.0,1.21000005245,1,376.5187035137613,60.9328587304461,367.2439065300062,-13.608522709734288,0.16588810054039338,0.5756279255412229,0,Fixed-Wing
1970-01-01 00:00:26.389469728,7505,1532134975391056432,base_link,0,1,40.5905851,-79.8969126,367.425230234,0.302500013113,0.0,0.0,0.0,0.302500013113,0.0,0.0,0.0,1.21000005245,1,371.1259693580413,60.87706373891595,367.4141575503356,-13.481532054828783,-0.13948434042771343,0.42561797441901084,0,Fixed-Wing
1970-01-01 00:00:26.790920064,7507,1532134975792067568,base_link,0,1,40.590583,-79.8969761,367.495166009,0.324899991846,0.0,0.0,0.0,0.324899991846,0.0,0.0,0.0,1.29959996738,1,365.75016952680824,60.64358865493969,367.48440563437646,-13.439197196145718,-0.5836745772626595,0.17561625873638817,0,Fixed-Wing
1970-01-01 00:00:27.233946176,7509,1532134976235313360,base_link,0,1,40.5905788,-79.8970394,367.505102886,0.324899991846,0.0,0.0,0.0,0.324899991846,0.0,0.0,0.0,1.29959996738,1,360.391308834727,60.17690761410313,367.4946515405532,-13.396850301071318,-1.166676351873488,0.025614189122617318,0,Fixed-Wing
1970-01-01 00:00:27.659868224,7511,1532134976660568624,base_link,0,1,40.5905727,-79.8971027,367.455040575,0.324899991846,0.0,0.0,0.0,0.324899991846,0.0,0.0,0.0,1.29959996738,1,355.03245416644967,59.49923027231523,367.44489570604117,-13.396835241900385,-1.6941552359769367,-0.12438678757738206,0,Fixed-Wing
1970-01-01 00:00:27.962824992,7513,1532134976964406864,base_link,0,1,40.5905653,-79.8971664,367.324978412,0.324899991846,0.0,0.0,0.0,0.324899991846,0.0,0.0,0.0,1.29959996738,1,349.6397375890311,58.67718632779946,367.31513863833584,-13.48148811006398,-2.0550636223579204,-0.3243853705924798,0,Fixed-Wing
1970-01-01 00:00:28.405770432,7515,1532134977406974992,base_link,0,1,40.5905574,-79.8972305,367.104916057,0.324899991846,0.0,0.0,0.0,0.324899991846,0.0,0.0,0.0,1.29959996738,1,344.21315433838294,57.79961773305624,367.09537904645606,-13.566152888180392,-2.1938721247352526,-0.5493866185005307,0,Fixed-Wing
1970-01-01 00:00:28.788721600,7517,1532134977789711120,base_link,0,1,40.5905499,-79.8972955,367.054852615,0.302500013113,0.0,0.0,0.0,0.302500013113,0.0,0.0,0.0,1.21000005245,1,338.7103844904636,56.96647217287537,367.04561728144836,-13.756615095958724,-2.0828170370688337,-0.12440161348295113,0,Fixed-Wing
1970-01-01 00:00:29.216184800,7519,1532134978217505296,base_link,0,1,40.5905441,-79.8973611,367.314787845,0.302500013113,0.0,0.0,0.0,0.302500013113,0.0,0.0,0.0,1.21000005245,1,333.1568260954068,56.32212025365641,367.3058503220059,-13.883583607010763,-1.61084355406744,0.6505679636146263,0,Fixed-Wing
1970-01-01 00:00:29.594215040,7521,1532134978595762672,base_link,0,1,40.5905393,-79.8974267,367.584722657,0.302500013113,0.0,0.0,0.0,0.302500013113,0.0,0.0,0.0,1.21000005245,1,327.6032619211965,55.788824925308774,367.5760770744374,-13.883598054569507,-1.3332083236818029,0.6755516811660244,0,Fixed-Wing
1970-01-01 00:00:30.006429920,7523,1532134979007126320,base_link,0,1,40.590537,-79.8974939,367.794654776,0.302500013113,0.0,0.0,0.0,0.302500013113,0.0,0.0,0.0,1.21000005245,1,321.9142277468636,55.533158369090216,367.7863006752531,-14.222265434859974,-0.6391520096261764,0.5255471772276433,0,Fixed-Wing
1970-01-01 00:00:30.377758688,7525,1532134979379354384,base_link,0,1,40.590537,-79.8975621,367.924584904,0.302500013113,0.0,0.0,0.0,0.302500013113,0.0,0.0,0.0,1.21000005245,1,316.14051943601777,55.532912426654974,367.9165191733433,-14.433946013329319,-0.0006148422541551344,0.3255389205998962,0,Fixed-Wing
1970-01-01 00:00:30.806054112,7527,1532134979807014192,base_link,0,1,40.590539,-79.8976307,368.134513782,0.302500013113,0.0,0.0,0.0,0.302500013113,0.0,0.0,0.0,1.21000005245,1,310.33294210174824,55.75477509778847,368.12673090669534,-14.518616666798808,0.554644198339271,0.5255175092361059,0,Fixed-Wing
1970-01-01 00:00:31.275207712,7529,1532134980273077264,base_link,0,1,40.5905422,-79.8976989,368.61444257,0.302500013113,0.0,0.0,0.0,0.302500013113,0.0,0.0,0.0,1.21000005245,1,304.5592355904962,56.109908988896706,368.6069344737921,-14.433941514446035,0.887814751938677,1.2004819068989374,0,Fixed-Wing
1970-01-01 00:00:31.623216096,7531,1532134980624337104,base_link,0,1,40.5905459,-79.8977657,369.244372588,0.302500013113,0.0,0.0,0.0,0.302500013113,0.0,0.0,0.0,1.21000005245,1,298.90405556703564,56.52057971186787,369.2371279925113,-14.137631961932255,1.0266537077194806,1.575448349210239,0,Fixed-Wing
1970-01-01 00:00:32.002917664,7533,1532134981004309008,base_link,0,1,40.5905491,-79.8978306,369.954304771,0.302500013113,0.0,0.0,0.0,0.302500013113,0.0,0.0,0.0,1.21000005245,1,293.4097322227173,56.87573561954244,369.94731175380383,-13.735499312061307,0.887869792116107,1.7754194562935144,0,Fixed-Wing
1970-01-01 00:00:32.413719136,7535,1532134981415001712,base_link,0,1,40.5905513,-79.8978943,370.534238615,0.324899991846,0.0,0.0,0.0,0.324899991846,0.0,0.0,0.0,1.29959996738,1,288.0169969227395,57.11984594341081,370.52748884850075,-13.481534915408906,0.6102620787741514,1.4504101025149967,0,Fixed-Wing
1970-01-01 00:00:32.823166336,7537,1532134981824540208,base_link,0,1,40.5905522,-79.8979574,370.86417363,0.324899991846,0.0,0.0,0.0,0.324899991846,0.0,0.0,0.0,1.29959996738,1,282.67505056521946,57.219591666101735,370.8576616039503,-13.354565416078248,0.24935869615665193,0.8254133168242535,0,Fixed-Wing
1970-01-01 00:00:33.196823008,7539,1532134982198381712,base_link,0,1,40.5905517,-79.8980205,371.024109244,0.324899991846,0.0,0.0,0.0,0.324899991846,0.0,0.0,0.0,1.29959996738,1,277.3331022006932,57.163866227918675,371.01783188831826,-13.354570433480932,-0.1393104609722789,0.40041670154409137,0,Fixed-Wing
1970-01-01 00:00:33.618778528,7541,1532134982620123248,base_link,0,1,40.5905502,-79.8980843,371.094044572,0.324899991846,0.0,0.0,0.0,0.324899991846,0.0,0.0,0.0,1.29959996738,1,271.9318926886923,56.997089165340725,371.0880009361416,-13.502719968802925,-0.41693327544617664,0.1754186726382553,0,Fixed-Wing
1970-01-01 00:00:33.993037120,7543,1532134982994645744,base_link,0,1,40.5905479,-79.8981487,371.103979631,0.324899991846,0.0,0.0,0.0,0.324899991846,0.0,0.0,0.0,1.29959996738,1,266.4798883257706,56.74147167862179,371.09816805685705,-13.629704238958833,-0.6390293386372125,0.025417229900919217,0,Fixed-Wing
1970-01-01 00:00:34.366465376,7545,1532134983368096656,base_link,0,1,40.590545,-79.898214,370.913914029,0.324899991846,0.0,0.0,0.0,0.324899991846,0.0,0.0,0.0,1.29959996738,1,260.95168498685223,56.41922224877399,370.90833355657264,-13.820197392854631,-0.8056054484969116,-0.4745755727606261,0,Fixed-Wing
1970-01-01 00:00:34.785390784,7547,1532134983786749232,base_link,0,1,40.5905425,-79.8982805,370.633847037,0.324899991846,0.0,0.0,0.0,0.324899991846,0.0,0.0,0.0,1.29959996738,1,255.32188605352968,56.14139365341518,370.62849653585795,-14.074180664241423,-0.6945558608901611,-0.6995768113084818,0,Fixed-Wing
1970-01-01 00:00:35.215320800,7549,1532134984216834096,base_link,0,1,40.5905411,-79.8983484,370.413778154,0.36000002861,0.0,0.0,0.0,0.36000002861,0.0,0.0,0.0,1.44000011444,1,249.5735634025133,55.98572360543835,370.40865620715,-14.370483291666924,-0.3891663636988835,-0.5495884560296393,0,Fixed-Wing
1970-01-01 00:00:35.621503232,7551,1532134984623095408,base_link,0,1,40.5905407,-79.8984174,370.153707731,0.324899991846,0.0,0.0,0.0,0.324899991846,0.0,0.0,0.0,1.29959996738,1,243.7321112883259,55.941107064577295,370.1488117409682,-14.60330171117994,-0.11153884252868515,-0.6495965495321089,0,Fixed-Wing
1970-01-01 00:00:35.987841216,7553,1532134984989508048,base_link,0,1,40.590541,-79.8984872,369.873636202,0.324899991846,0.0,0.0,0.0,0.324899991846,0.0,0.0,0.0,1.29959996738,1,237.8229294758543,55.974229492026524,369.8689626660247,-14.772622147180726,0.08280420552844699,-0.6996069462024934,0,Fixed-Wing
1970-01-01 00:00:36.402022208,7555,1532134985402642000,base_link,0,1,40.5905415,-79.8985575,369.793564085,0.324899991846,0.0,0.0,0.0,0.324899991846,0.0,0.0,0.0,1.29959996738,1,231.8714255089062,56.0295675333611,369.789108875632,-14.878425152804265,0.13834199064165856,-0.19962998430707787,0,Fixed-Wing
1970-01-01 00:00:36.794592064,7557,1532134985796213712,base_link,0,1,40.5905421,-79.8986276,369.883492138,0.324899991846,0.0,0.0,0.0,0.324899991846,0.0,0.0,0.0,1.29959996738,1,225.93685917435783,56.09601758162509,369.87924901403386,-14.836082024525394,0.1661213829288542,0.22534527573595614,0,Fixed-Wing
1970-01-01 00:00:37.184370304,7559,1532134986185867792,base_link,0,1,40.5905426,-79.8986973,369.963420651,0.302500013113,0.0,0.0,0.0,0.302500013113,0.0,0.0,0.0,1.21000005245,1,220.03615619924514,56.15136802117556,369.95938302940874,-14.751425530707293,0.13837298548399168,0.20033053100025516,0,Fixed-Wing
1970-01-01 00:00:37.576186880,7561,1532134986577333680,base_link,0,1,40.5905428,-79.8987665,370.123349811,0.302500013113,0.0,0.0,0.0,0.302500013113,0.0,0.0,0.0,1.21000005245,1,214.177786101859,56.17340931645762,370.1195111157863,-14.645595717561712,0.055101998410198826,0.40031120894164895,0,Fixed-Wing
1970-01-01 00:00:38.004246528,7563,1532134987005871920,base_link,0,1,40.590543,-79.8988356,370.203279081,0.302500013113,0.0,0.0,0.0,0.302500013113,0.0,0.0,0.0,1.21000005245,1,208.3278789964171,56.19545474732729,370.19963366138893,-14.624438713733692,0.055112337146582625,0.20030185721483426,0,Fixed-Wing
1970-01-01 00:00:38.407014464,7565,1532134987408124816,base_link,0,1,40.5905433,-79.8989045,370.183208521,0.302500013113,0.0,0.0,0.0,0.302500013113,0.0,0.0,0.0,1.21000005245,1,202.49490002787087,56.228609591064696,370.17975038674945,-14.58211932368079,0.08288524442551727,-0.04970706818967275,0,Fixed-Wing
1970-01-01 00:00:38.794952608,7567,1532134987796506288,base_link,0,1,40.5905441,-79.8989737,370.113137451,0.302500013113,0.0,0.0,0.0,0.302500013113,0.0,0.0,0.0,1.21000005245,1,196.6365205641703,56.317294118083794,370.1098615647868,-14.645619132820942,0.22170632915533764,-0.17471812374883983,0,Fixed-Wing
1970-01-01 00:00:39.191029984,7569,1532134988192073488,base_link,0,1,40.5905452,-79.899043,370.093066161,0.302500013113,0.0,0.0,0.0,0.302500013113,0.0,0.0,0.0,1.21000005245,1,190.7696761489285,56.439299210386736,370.0899671065748,-14.666781035531166,0.3050058681253219,-0.04973502649185225,0,Fixed-Wing
1970-01-01 00:00:39.617006848,7571,1532134988618565328,base_link,0,1,40.5905464,-79.899112,370.062995144,0.302500013113,0.0,0.0,0.0,0.302500013113,0.0,0.0,0.0,1.21000005245,1,184.92822897697613,56.57241470759217,370.06006669531644,-14.603289355870448,0.3327812554353472,-0.0747493462856626,0,Fixed-Wing
1970-01-01 00:00:39.955844992,7573,1532134988957105232,base_link,0,1,40.5905475,-79.8991808,369.932924381,0.324899991846,0.0,0.0,0.0,0.324899991846,0.0,0.0,0.0,1.29959996738,1,179.1037112489979,56.69442904968301,369.93016081775386,-14.560966698194836,0.30502899207476764,-0.32475738686524075,0,Fixed-Wing
1970-01-01 00:00:40.403843872,7575,1532134989405433456,base_link,0,1,40.5905482,-79.8992496,369.762853795,0.324899991846,0.0,0.0,0.0,0.324899991846,0.0,0.0,0.0,1.29959996738,1,173.2791938953962,56.772026597777426,369.76025019872895,-14.56096576227465,0.19398950547216906,-0.42476699030497816,0,Fixed-Wing
1970-01-01 00:00:40.809989408,7577,1532134989811453520,base_link,0,1,40.5905487,-79.8993184,369.542783302,0.324899991846,0.0,0.0,0.0,0.324899991846,0.0,0.0,0.0,1.29959996738,1,167.45467616333386,56.827417755218335,369.5403345622494,-14.560966708404893,0.13847477791976806,-0.5497767212225904,0,Fixed-Wing
1970-01-01 00:00:41.184950656,7579,1532134990186383248,base_link,0,1,40.5905488,-79.8993877,369.382712474,0.324899991846,0.0,0.0,0.0,0.324899991846,0.0,0.0,0.0,1.29959996738,1,161.58783210802625,56.83839209894745,369.3804147446591,-14.66678013571597,0.02743524202984735,-0.39979054868845737,0,Fixed-Wing
1970-01-01 00:00:41.595128992,7581,1532134990596670768,base_link,0,1,40.590548,-79.8994569,369.412642136,0.324899991846,0.0,0.0,0.0,0.324899991846,0.0,0.0,0.0,1.29959996738,1,155.7294609427732,56.749425728671156,369.41049071511105,-14.645598387168942,-0.22241092144500735,0.0751882343945922,0,Fixed-Wing
1970-01-01 00:00:41.982273600,7583,1532134990983917488,base_link,0,1,40.5905463,-79.8995258,369.692572492,0.324899991846,0.0,0.0,0.0,0.324899991846,0.0,0.0,0.0,1.29959996738,1,149.89649503446682,56.560519489928424,369.6905622986907,-14.582086673815747,-0.47225497111997883,0.7001632052769483,0,Fixed-Wing
1970-01-01 00:00:42.416821888,7585,1532134991418376176,base_link,0,1,40.5905436,-79.8995942,369.882503788,0.324899991846,0.0,0.0,0.0,0.324899991846,0.0,0.0,0.0,1.29959996738,1,144.105857732398,56.26056536018663,369.8806295179287,-14.476267539152445,-0.749868452314303,0.4751573570545089,0,Fixed-Wing
1970-01-01 00:00:42.784731264,7587,1532134991786332848,base_link,0,1,40.5905411,-79.8996622,369.742435415,0.324899991846,0.0,0.0,0.0,0.324899991846,0.0,0.0,0.0,1.29959996738,1,138.3490754992538,55.98282392880256,369.7406908764787,-14.391631771145667,-0.6943379558561739,-0.3498387322534924,0,Fixed-Wing
1970-01-01 00:00:43.188413856,7589,1532134992190144880,base_link,0,1,40.5905397,-79.8997308,369.622365973,0.324899991846,0.0,0.0,0.0,0.324899991846,0.0,0.0,0.0,1.29959996738,1,132.54149617523245,55.82724392366191,369.6207459475496,-14.518621641066408,-0.38894126167323556,-0.2998555755723022,0,Fixed-Wing
1970-01-01 00:00:43.591096640,7591,1532134992592731504,base_link,0,1,40.5905393,-79.8997993,369.56229622,0.324899991846,0.0,0.0,0.0,0.324899991846,0.0,0.0,0.0,1.29959996738,1,126.74238198903093,55.782721572175774,369.5607942830047,-14.497459272670168,-0.11130337438941827,-0.14987578915695143,0,Fixed-Wing
1970-01-01 00:00:44.016857216,7593,1532134993018435632,base_link,0,1,40.5905398,-79.8998674,369.412226504,0.324899991846,0.0,0.0,0.0,0.324899991846,0.0,0.0,0.0,1.29959996738,1,120.97712795416743,55.83815069564474,369.4108358732781,-14.412810798915782,0.13856969085437718,-0.3748875893458663,0,Fixed-Wing
1970-01-01 00:00:44.422435520,7595,1532134993424003088,base_link,0,1,40.5905412,-79.8999346,369.302157336,0.324899991846,0.0,0.0,0.0,0.324899991846,0.0,0.0,0.0,1.29959996738,1,115.28806618299109,55.99353300665737,369.30087055569527,-14.22233442541628,0.3884470374732324,-0.27490710854707084,0,Fixed-Wing
1970-01-01 00:00:44.807946112,7597,1532134993805410800,base_link,0,1,40.5905428,-79.9000011,369.292088805,0.324899991846,0.0,0.0,0.0,0.324899991846,0.0,0.0,0.0,1.29959996738,1,109.65826724495321,56.171131899333744,369.29089958867,-14.074180676029489,0.44398724197798456,-0.024926856708858264,0,Fixed-Wing
1970-01-01 00:00:45.217154464,7599,1532134994218165616,base_link,0,1,40.5905443,-79.9000663,369.502021651,0.324899991846,0.0,0.0,0.0,0.324899991846,0.0,0.0,0.0,1.29959996738,1,104.13852849320924,56.33763328036733,369.500923338486,-13.799036401040906,0.4162440870919994,0.5250475609698849,0,Fixed-Wing
1970-01-01 00:00:45.619574848,7601,1532134994620863344,base_link,0,1,40.5905461,-79.9001301,369.731955806,0.324899991846,0.0,0.0,0.0,0.324899991846,0.0,0.0,0.0,1.29959996738,1,98.73731151858519,56.537456244075145,369.73094149509154,-13.502738624941061,0.4995461694807287,0.5750324532836121,0,Fixed-Wing
1970-01-01 00:00:46.002471456,7603,1532134995004027600,base_link,0,1,40.5905494,-79.9001932,369.881890051,0.324899991846,0.0,0.0,0.0,0.324899991846,0.0,0.0,0.0,1.29959996738,1,93.39535219924069,56.903861850360215,369.88095281461153,-13.354597819910294,0.9159934058610443,0.3750198608531061,0,Fixed-Wing
1970-01-01 00:00:46.387543296,7605,1532134995389039536,base_link,0,1,40.5905548,-79.9002564,369.971823318,0.324899991846,0.0,0.0,0.0,0.324899991846,0.0,0.0,0.0,1.29959996738,1,88.0449237144081,57.50348082557963,369.97095668138235,-13.37577025725069,1.499013710240055,0.225004604323439,0,Fixed-Wing
1970-01-01 00:00:46.775079680,7607,1532134995776722064,base_link,0,1,40.590563,-79.9003198,369.951755211,0.324899991846,0.0,0.0,0.0,0.324899991846,0.0,0.0,0.0,1.29959996738,1,82.67755935285464,58.41404935367126,369.9509520078037,-13.41810899643122,2.2763701019017835,-0.05001055870899379,0,Fixed-Wing
1970-01-01 00:00:47.215484032,7609,1532134996217113648,base_link,0,1,40.5905751,-79.9003838,369.811684861,0.324899991846,0.0,0.0,0.0,0.324899991846,0.0,0.0,0.0,1.29959996738,1,77.25939526074926,59.757724676989085,369.81093701255804,-13.545105465390492,3.359112728258177,-0.35002961244791647,0,Fixed-Wing
1970-01-01 00:00:47.602438784,7611,1532134996604122800,base_link,0,1,40.5905927,-79.9004477,369.571612312,0.324899991846,0.0,0.0,0.0,0.324899991846,0.0,0.0,0.0,1.29959996738,1,71.84969220117279,61.712191496073615,369.57090894905923,-13.52395335999058,4.886057111426318,-0.6000566574722371,0,Fixed-Wing
1970-01-01 00:00:48.038973568,7613,1532134997037091760,base_link,0,1,40.5906164,-79.9005103,369.161538537,0.324899991846,0.0,0.0,0.0,0.324899991846,0.0,0.0,0.0,1.29959996738,1,66.55004061951036,64.34408130302822,369.1608665167453,-13.24883085546183,6.579576476915778,-1.025083016417025,0,Fixed-Wing
1970-01-01 00:00:48.386118208,7615,1532134997387634288,base_link,0,1,40.5906475,-79.9005706,368.581464013,0.324899991846,0.0,0.0,0.0,0.324899991846,0.0,0.0,0.0,1.29959996738,1,61.445099501530656,67.79776239358935,368.580807277626,-12.762065648472158,8.634008461212456,-1.4501154702001544,0,Fixed-Wing
1970-01-01 00:00:48.801602624,7617,1532134997802854512,base_link,0,1,40.5906863,-79.9006257,367.901391574,0.324899991846,0.0,0.0,0.0,0.324899991846,0.0,0.0,0.0,1.29959996738,1,56.780380308763604,72.10655226789811,367.9007306358684,-11.661535597366688,10.771732321794653,-1.700153350943554,0,Fixed-Wing
1970-01-01 00:00:49.174503584,7619,1532134998176116304,base_link,0,1,40.5907339,-79.9006725,367.24132392,0.324899991846,0.0,0.0,0.0,0.324899991846,0.0,0.0,0.0,1.29959996738,1,52.818324877012344,77.39261060705874,367.24063487278164,-9.904915718774477,13.21484851381002,-1.6502022781656371,0,Fixed-Wing
1970-01-01 00:00:49.602940832,7621,1532134998601133072,base_link,0,1,40.5907882,-79.9007099,366.581263058,0.324899991846,0.0,0.0,0.0,0.324899991846,0.0,0.0,0.0,1.29959996738,1,49.65205847408456,83.42272636999638,366.5805232050383,-7.915487908841506,15.07495022096413,-1.6502420389125374,0,Fixed-Wing
1970-01-01 00:00:50.032106592,7623,1532134999033770544,base_link,0,1,40.5908471,-79.9007383,366.02120946,0.324899991846,0.0,0.0,0.0,0.324899991846,0.0,0.0,0.0,1.29959996738,1,47.24771882555701,89.96368949914765,366.02039872268915,-6.010713880256579,16.35203990198037,-1.40027969957957,0,Fixed-Wing
1970-01-01 00:00:50.416303648,7625,1532134999417603344,base_link,0,1,40.5909093,-79.9007579,365.54116347,0.324899991846,0.0,0.0,0.0,0.324899991846,0.0,0.0,0.0,1.29959996738,1,45.58837323222892,96.87113093490964,365.5402633788612,-4.148270647230664,17.268215054566262,-1.2003113525644509,0,Fixed-Wing
1970-01-01 00:00:50.804217728,7627,1532134999805868112,base_link,0,1,40.5909732,-79.9007677,365.151126773,0.324899991846,0.0,0.0,0.0,0.324899991846,0.0,0.0,0.0,1.29959996738,1,44.75867876113531,103.96736722746405,365.1501205564678,-2.074189508470085,17.740191577075535,-0.9753351109434695,0,Fixed-Wing
1970-01-01 00:00:51.203683360,7629,1532135000205383184,base_link,0,1,40.5910369,-79.9007685,365.141099348,0.324899991846,0.0,0.0,0.0,0.324899991846,0.0,0.0,0.0,1.29959996738,1,44.69090989233583,111.04140350593221,365.13997408376645,-0.169418360085588,17.684692790582602,-0.025365611027164208,0,Fixed-Wing
1970-01-01 00:00:51.602864544,7631,1532135000599698448,base_link,0,1,40.5910987,-79.900762,365.721080171,0.324899991846,0.0,0.0,0.0,0.324899991846,0.0,0.0,0.0,1.29959996738,1,45.24114875557737,117.90445496520275,365.7198275605796,1.3755662078641704,17.15724261021761,1.4496010760086089,0,Fixed-Wing
1970-01-01 00:00:51.996055456,7633,1532135000997354160,base_link,0,1,40.5911574,-79.9007516,366.641066277,0.324899991846,0.0,0.0,0.0,0.324899991846,0.0,0.0,0.0,1.29959996738,1,46.12155658509028,124.42325401267931,366.63968323776885,2.20097005195611,16.296630944495156,2.299587452255513,0,Fixed-Wing
1970-01-01 00:00:52.402507808,7635,1532135001403668144,base_link,0,1,40.5912139,-79.9007414,367.511053111,0.384400005913,0.0,0.0,0.0,0.384400005913,0.0,0.0,0.0,1.53760002365,1,46.98503275895393,130.69773863543372,367.5095379902722,2.1586418652171466,15.685858625066972,2.1745879530293797,0,Fixed-Wing
1970-01-01 00:00:52.813301792,7637,1532135001814988976,base_link,0,1,40.5912691,-79.9007331,368.201038567,0.384400005913,0.0,0.0,0.0,0.384400005913,0.0,0.0,0.0,1.53760002365,1,47.6876577448559,136.8278520542943,368.199389368672,1.7565229429887077,15.32493873602991,1.7245896427325238,0,Fixed-Wing
1970-01-01 00:00:53.176703712,7639,1532135002178033232,base_link,0,1,40.5913246,-79.9007287,368.731019942,0.384400005913,0.0,0.0,0.0,0.384400005913,0.0,0.0,0.0,1.53760002365,1,48.060115684549274,142.99127693373487,368.72923242730064,0.9311238989457143,15.408215513752328,1.324577843570198,0,Fixed-Wing
1970-01-01 00:00:53.594478528,7641,1532135002596121648,base_link,0,1,40.5913809,-79.9007292,369.01099601,0.33639998064,0.0,0.0,0.0,0.33639998064,0.0,0.0,0.0,1.34559992256,1,48.017748720423896,149.24353634100981,369.00906523514954,-0.10591502722533269,15.630296836508549,0.6995662793809408,0,Fixed-Wing
1970-01-01 00:00:54.000330944,7643,1532135003002004368,base_link,0,1,40.5914382,-79.9007352,369.130966078,0.33639998064,0.0,0.0,0.0,0.33639998064,0.0,0.0,0.0,1.34559992256,1,47.50976390341404,155.6068419290534,369.12888666526896,-1.2699334690215864,15.907906042222983,0.2995468354947759,0,Fixed-Wing
1970-01-01 00:00:54.388145376,7645,1532135003389434704,base_link,0,1,40.5914958,-79.9007453,369.210931866,0.33639998064,0.0,0.0,0.0,0.33639998064,0.0,0.0,0.0,1.34559992256,1,46.65468415768653,162.00346039469756,369.20869910868043,-2.137651267165259,15.991186362417263,0.19952661917974285,0,Fixed-Wing
1970-01-01 00:00:54.772453792,7647,1532135003774091344,base_link,0,1,40.5915536,-79.9007576,369.240895349,0.33639998064,0.0,0.0,0.0,0.33639998064,0.0,0.0,0.0,1.34559992256,1,45.61335927595344,168.42228721061284,369.23850344551033,-2.6032536311260235,16.046705988903454,0.07450916561851781,0,Fixed-Wing
1970-01-01 00:00:55.203988320,7649,1532135004205595408,base_link,0,1,40.5916113,-79.9007704,369.130858384,0.33639998064,0.0,0.0,0.0,0.33639998064,0.0,0.0,0.0,1.34559992256,1,44.52970665039146,174.83000495099554,369.1283012904647,-2.709070609816233,16.018933924943457,-0.2754991888822825,0,Fixed-Wing
1970-01-01 00:00:55.599008224,7651,1532135004593675184,base_link,0,1,40.5916692,-79.9007818,368.880822779,0.33639998064,0.0,0.0,0.0,0.33639998064,0.0,0.0,0.0,1.34559992256,1,43.564574866708014,181.25992988781377,368.87809241830126,-2.4127751717672514,16.074450666905555,-0.6255081064762418,0,Fixed-Wing
1970-01-01 00:00:56.030786464,7653,1532135005032442896,base_link,0,1,40.5917274,-79.9007903,368.60079002,0.33639998064,0.0,0.0,0.0,0.33639998064,0.0,0.0,0.0,1.34559992256,1,42.84494997663067,187.7231707695434,368.5978771227011,-1.7990217472040408,16.157738655204337,-0.7005224772446564,0,Fixed-Wing
1970-01-01 00:00:56.407475136,7655,1532135005409118480,base_link,0,1,40.5917855,-79.9007949,368.440761289,0.33639998064,0.0,0.0,0.0,0.33639998064,0.0,0.0,0.0,1.34559992256,1,42.45548958355069,194.1753115051755,368.4376573636865,-0.973629076045754,16.129988914329676,-0.4005403853777806,0,Fixed-Wing
1970-01-01 00:00:56.847078048,7657,1532135005848736272,base_link,0,1,40.591843,-79.9007964,368.210735978,0.384400005913,0.0,0.0,0.0,0.384400005913,0.0,0.0,0.0,1.53760002365,1,42.328466288667265,200.56081980705437,368.2074348246963,-0.3175510923089781,15.963411577936675,-0.5755433977491338,0,Fixed-Wing
1970-01-01 00:00:57.206758944,7659,1532135006207895888,base_link,0,1,40.5918997,-79.9007952,368.060713761,0.384400005913,0.0,0.0,0.0,0.384400005913,0.0,0.0,0.0,1.53760002365,1,42.43001777190241,206.85748965136884,368.0572103422008,0.2538729959454625,15.741320431076463,-0.3755527563017402,0,Fixed-Wing
1970-01-01 00:00:57.610500128,7661,1532135006610747152,base_link,0,1,40.5919554,-79.9007916,367.910694415,0.384400005913,0.0,0.0,0.0,0.384400005913,0.0,0.0,0.0,1.53760002365,1,42.734746000879845,213.04310797441633,367.9069848629465,0.7618034318663619,15.463697874416557,-0.37555524814263813,0,Fixed-Wing
1970-01-01 00:00:58.015701024,7663,1532135007016930288,base_link,0,1,40.5920103,-79.9007868,367.690676634,0.384400005913,0.0,0.0,0.0,0.384400005913,0.0,0.0,0.0,1.53760002365,1,43.14106180857175,219.13988229314478,367.686757295447,1.0157666644798087,15.241592860981752,-0.5505565312267424,0,Fixed-Wing
1970-01-01 00:00:58.396213760,7665,1532135007397823440,base_link,0,1,40.5920646,-79.9007813,367.590659828,0.384400005913,0.0,0.0,0.0,0.384400005913,0.0,0.0,0.0,1.53760002365,1,43.60663778212883,225.17002939898236,367.58652678766305,1.163913745833418,15.075028576450993,-0.2505706316207297,0,Fixed-Wing
1970-01-01 00:00:58.864292224,7667,1532135007865926928,base_link,0,1,40.5921182,-79.9007771,367.590642002,0.384400005913,0.0,0.0,0.0,0.384400005913,0.0,0.0,0.0,1.53760002365,1,43.96216058817801,231.1224426700952,367.5862930939804,0.8887870174150581,14.880698362068967,-0.0005842210617102981,0,Fixed-Wing
1970-01-01 00:00:59.217859264,7669,1532135008218491440,base_link,0,1,40.5921712,-79.9007745,367.60062281,0.384400005913,0.0,0.0,0.0,0.384400005913,0.0,0.0,0.0,1.53760002365,1,44.18223287352636,237.00822411305415,367.5960558688755,0.5501683345833499,14.714122539640218,0.02440638809410981,0,Fixed-Wing
1970-01-01 00:00:59.568115616,7671,1532135008569646832,base_link,0,1,40.5922235,-79.9007742,367.54060158,0.384400005913,0.0,0.0,0.0,0.384400005913,0.0,0.0,0.0,1.53760002365,1,44.207594967248085,242.81626508975836,367.53581546833414,0.06340380771863866,14.51977574680621,-0.15059761290714604,0,Fixed-Wing
1970-01-01 00:00:59.990589728,7673,1532135008992061392,base_link,0,1,40.5922752,-79.9007756,367.400578882,0.33639998064,0.0,0.0,0.0,0.33639998064,0.0,0.0,0.0,1.34559992256,1,44.08904102291601,248.55767056272475,367.3955718983687,-0.2963781923208672,14.353190735624427,-0.3506010363902681,0,Fixed-Wing
1970-01-01 00:01:00.384294848,7675,1532135009385722288,base_link,0,1,40.5923267,-79.9007772,367.240556076,0.384400005913,0.0,0.0,0.0,0.384400005913,0.0,0.0,0.0,1.53760002365,1,43.95355599783875,254.27686444849257,367.2353240410193,-0.3387049418319552,14.297663017001673,-0.4006106296343786,0,Fixed-Wing
1970-01-01 00:01:00.853121280,7677,1532135009853721584,base_link,0,1,40.5923784,-79.9007779,367.010534117,0.33639998064,0.0,0.0,0.0,0.33639998064,0.0,0.0,0.0,1.34559992256,1,43.89426119367816,260.0182661756735,367.005070456537,-0.14823367514377558,14.35318137137143,-0.5756210097329915,0,Fixed-Wing
1970-01-01 00:01:01.193133504,7679,1532135010194469008,base_link,0,1,40.59243,-79.9007753,366.670515568,0.33639998064,0.0,0.0,0.0,0.33639998064,0.0,0.0,0.0,1.34559992256,1,44.11433116078469,265.748559350439,366.66481364207124,0.5501625391091829,14.325410615174924,-0.8506228971492159,0,Fixed-Wing
1970-01-01 00:01:01.592885632,7681,1532135010594220528,base_link,0,1,40.5924815,-79.9007664,366.150503479,0.33639998064,0.0,0.0,0.0,0.33639998064,0.0,0.0,0.0,1.34559992256,1,44.867733015422175,271.4677422375063,366.14455486782475,1.8834622586928997,14.297635520869006,-1.3006176717186007,0,Fixed-Wing
1970-01-01 00:01:01.972688384,7683,1532135010974128976,base_link,0,1,40.5925322,-79.9007487,365.330500678,0.384400005913,0.0,0.0,0.0,0.384400005913,0.0,0.0,0.0,1.53760002365,1,46.36610501345609,277.0980739131153,365.32429865865544,3.7458457135562386,14.075512489991475,-2.050594384549636,0,Fixed-Wing
1970-01-01 00:01:02.427918560,7685,1532135011428767856,base_link,0,1,40.5925818,-79.9007209,364.380508608,0.33639998064,0.0,0.0,0.0,0.33639998064,0.0,0.0,0.0,1.34559992256,1,48.719499269095365,282.6062466072235,364.374046810187,5.8833532636497505,13.770121907527644,-2.3755761707072596,0,Fixed-Wing
1970-01-01 00:01:02.802251200,7687,1532135011803789488,base_link,0,1,40.5926285,-79.900681,363.530530039,0.33639998064,0.0,0.0,0.0,0.33639998064,0.0,0.0,0.0,1.34559992256,1,52.09722849821465,287.79237814291525,363.52380912624676,8.44413307980391,12.965037125894025,-2.125546385056926,0,Fixed-Wing
1970-01-01 00:01:03.189918304,7689,1532135012188443152,base_link,0,1,40.592668,-79.9006277,363.120568053,0.33639998064,0.0,0.0,0.0,0.33639998064,0.0,0.0,0.0,1.34559992256,1,56.60934995337978,292.17896151383775,363.1136088284138,11.280049836791495,10.966211687543266,-1.0254776713347544,0,Fixed-Wing
1970-01-01 00:01:03.591591392,7691,1532135012593159280,base_link,0,1,40.5926975,-79.9005669,363.380617797,0.33639998064,0.0,0.0,0.0,0.33639998064,0.0,0.0,0.0,1.34559992256,1,61.75639946673713,295.4550596836876,363.3734596024289,12.867334268372343,8.190061148248743,0.6496123187605582,0,Fixed-Wing
1970-01-01 00:01:04.025581728,7693,1532135013026900240,base_link,0,1,40.5927171,-79.9005041,364.090673634,0.33639998064,0.0,0.0,0.0,0.33639998064,0.0,0.0,0.0,1.34559992256,1,67.0727710053273,297.63176559754754,364.0833603810824,13.290629807304756,5.441642347697082,1.7747120156133767,0,Fixed-Wing
1970-01-01 00:01:04.421542464,7695,1532135013422952656,base_link,0,1,40.5927285,-79.9004429,365.070731207,0.33639998064,0.0,0.0,0.0,0.33639998064,0.0,0.0,0.0,1.34559992256,1,72.25370328730263,298.89785739307433,365.06330210150617,12.952039284054434,3.165158272755839,2.4497991805778545,0,Fixed-Wing
1970-01-01 00:01:04.801032864,7697,1532135013802704400,base_link,0,1,40.5927338,-79.9003846,366.220788333,0.33639998064,0.0,0.0,0.0,0.33639998064,0.0,0.0,0.0,1.34559992256,1,77.18914272675991,299.48653879641694,366.2132738146419,12.338320986421014,1.4716703957726074,2.8748645983859253,0,Fixed-Wing
1970-01-01 00:01:05.227412512,7699,1532135014228706128,base_link,0,1,40.5927356,-79.9003291,367.46084405,0.302500013113,0.0,0.0,0.0,0.302500013113,0.0,0.0,0.0,1.21000005245,1,81.88755237168789,299.6865417159365,367.4532616105937,11.745759832723708,0.4999960488878768,3.0998997421352437,0,Fixed-Wing
1970-01-01 00:01:05.566249792,7701,1532135014567042896,base_link,0,1,40.5927363,-79.9002745,368.470899307,0.302500013113,0.0,0.0,0.0,0.302500013113,0.0,0.0,0.0,1.21000005245,1,86.50977166084267,299.76437822786926,368.46325227316913,11.555288228901812,0.19458690162653952,2.524919845742053,0,Fixed-Wing
1970-01-01 00:01:06.027610784,7703,1532135015029220816,base_link,0,1,40.5927374,-79.9002179,369.25095644,0.302500013113,0.0,0.0,0.0,0.302500013113,0.0,0.0,0.0,1.21000005245,1,91.30130012706701,299.88662985837357,369.2432369565091,11.978551648148754,0.30562219976127697,1.9499178351986823,0,Fixed-Wing
1970-01-01 00:01:06.456320992,7705,1532135015457858992,base_link,0,1,40.5927397,-79.9001572,369.731017258,0.302500013113,0.0,0.0,0.0,0.302500013113,0.0,0.0,0.0,1.21000005245,1,96.43991224628587,300.14213793282477,369.7232102116004,12.84624125761886,0.6387558141221815,1.199906139840091,0,Fixed-Wing
1970-01-01 00:01:06.788184832,7707,1532135015789831120,base_link,0,1,40.592743,-79.9000897,369.801084593,0.302500013113,0.0,0.0,0.0,0.302500013113,0.0,0.0,0.0,1.21000005245,1,102.15417631852013,300.5086905958102,369.7931714141126,14.285338760463533,0.9163610393402178,0.17489907105130378,0,Fixed-Wing
1970-01-01 00:01:07.190232064,7709,1532135016191760176,base_link,0,1,40.5927469,-79.900014,369.181160034,0.302500013113,0.0,0.0,0.0,0.302500013113,0.0,0.0,0.0,1.21000005245,1,108.56260494269577,300.9418565898895,369.1731206797024,16.02071109443948,1.0828906201592332,-1.5500919589564217,0,Fixed-Wing
1970-01-01 00:01:07.615460480,7711,1532135016616977584,base_link,0,1,40.5927519,-79.8999298,368.181243685,0.302500013113,0.0,0.0,0.0,0.302500013113,0.0,0.0,0.0,1.21000005245,1,115.69059703442838,301.497178860887,368.17305291534564,17.819579288797524,1.3882744413188743,-2.500113158345794,0,Fixed-Wing
1970-01-01 00:01:08.031740704,7713,1532135017033397648,base_link,0,1,40.5927579,-79.8998381,367.851334572,0.302500013113,0.0,0.0,0.0,0.302500013113,0.0,0.0,0.0,1.21000005245,1,123.45351519029005,302.1636025310957,367.84296687021504,19.406858735332627,1.6660216900337266,-0.8251965459042155,0,Fixed-Wing
1970-01-01 00:01:08.392414944,7715,1532135017393924912,base_link,0,1,40.5927654,-79.8997439,369.151427403,0.302500013113,0.0,0.0,0.0,0.302500013113,0.0,0.0,0.0,1.21000005245,1,131.42810116230078,302.99669425233446,369.14286098377954,19.936016369658507,2.0826824427419357,3.249662166512517,0,Fixed-Wing
1970-01-01 00:01:08.798463840,7717,1532135017800023056,base_link,0,1,40.5927731,-79.8996516,371.701518231,0.302500013113,0.0,0.0,0.0,0.302500013113,0.0,0.0,0.0,1.21000005245,1,139.2418694321221,303.8520620367275,371.6927454731338,19.533981159977174,2.1383713476272397,6.374567795610273,0,Fixed-Wing
1970-01-01 00:01:09.168372256,7719,1532135018169578416,base_link,0,1,40.5927802,-79.8995634,374.611605142,0.302500013113,0.0,0.0,0.0,0.302500013113,0.0,0.0,0.0,1.21000005245,1,146.70856282366233,304.6408175478863,374.6026275431088,18.666313486797165,1.9718444113977365,7.274541497753724,0,Fixed-Wing
1970-01-01 00:01:09.624474176,7721,1532135018625897776,base_link,0,1,40.5927858,-79.8994824,377.501685347,0.302500013113,0.0,0.0,0.0,0.302500013113,0.0,0.0,0.0,1.21000005245,1,153.56574216355787,305.26298876695364,377.49251675875894,17.142562642079398,1.555393051324731,7.224560486514447,0,Fixed-Wing
1970-01-01 00:01:09.997695776,7723,1532135018999046672,base_link,0,1,40.59279,-79.8994074,379.771760023,0.33639998064,0.0,0.0,0.0,0.33639998064,0.0,0.0,0.0,1.34559992256,1,159.91497898803502,305.72965239828284,379.76241323219585,15.87273492465706,1.166632829084339,5.674613504788431,0,Fixed-Wing
1970-01-01 00:01:10.404732128,7725,1532135019406290832,base_link,0,1,40.5927935,-79.8993358,381.091831532,0.33639998064,0.0,0.0,0.0,0.33639998064,0.0,0.0,0.0,1.34559992256,1,165.976366461974,306.1185327516231,381.0823114211845,15.153127739473344,0.9721790093229281,3.2996712298689417,0,Fixed-Wing
1970-01-01 00:01:10.788055872,7727,1532135019789659440,base_link,0,1,40.5927968,-79.899265,381.281902316,0.33639998064,0.0,0.0,0.0,0.33639998064,0.0,0.0,0.0,1.34559992256,1,171.97000116483656,306.48515165899903,381.2722060045795,14.983749622789864,0.916526646590294,0.47472577715755526,0,Fixed-Wing
1970-01-01 00:01:11.174107552,7729,1532135020175503824,base_link,0,1,40.5928,-79.8991945,380.001972843,0.36000002861,0.0,0.0,0.0,0.36000002861,0.0,0.0,0.0,1.44000011444,1,177.93819817955156,306.8405986432032,379.99209593019947,14.920156833258758,0.8885974670673656,-3.2002031813785377,0,Fixed-Wing
1970-01-01 00:01:11.671746016,7731,1532135020672952432,base_link,0,1,40.5928025,-79.8991233,377.472044379,0.36000002861,0.0,0.0,0.0,0.36000002861,0.0,0.0,0.0,1.44000011444,1,183.96561725312424,307.1182545304295,377.46198331838997,15.068208649237075,0.694124100273571,-6.325139213891437,0,Fixed-Wing
1970-01-01 00:01:12.018427264,7733,1532135021020040688,base_link,0,1,40.5928035,-79.8990471,374.222121636,0.36000002861,0.0,0.0,0.0,0.36000002861,0.0,0.0,0.0,1.44000011444,1,190.41629293764808,307.2293122213706,374.21186616918703,16.126326368966307,0.2776379804981768,-8.125110058031034,0,Fixed-Wing
1970-01-01 00:01:12.388024480,7735,1532135021389385520,base_link,0,1,40.5928028,-79.8989618,371.052208878,0.36000002861,0.0,0.0,0.0,0.36000002861,0.0,0.0,0.0,1.44000011444,1,197.6373367302804,307.15161034142085,371.04173781162365,18.05220330700638,-0.1942503292419842,-7.925142578200453,0,Fixed-Wing
1970-01-01 00:01:12.838225088,7737,1532135021839460720,base_link,0,1,40.5927997,-79.8988675,369.242306296,0.36000002861,0.0,0.0,0.0,0.36000002861,0.0,0.0,0.0,1.44000011444,1,205.6203261056301,306.80747616905353,369.23159984070617,19.957024405325175,-0.8603160738066369,-4.525243109323742,0,Fixed-Wing
1970-01-01 00:01:13.198145920,7739,1532135022195449488,base_link,0,1,40.5927958,-79.8987721,368.812405179,0.36000002861,0.0,0.0,0.0,0.36000002861,0.0,0.0,0.0,1.44000011444,1,213.69648169804194,306.37457789204313,368.8014544985656,20.189934707498637,-1.0822213425457798,-1.0753391602203368,0,Fixed-Wing
1970-01-01 00:01:13.608132032,7741,1532135022609113328,base_link,0,1,40.5927928,-79.8986813,369.212499017,0.36000002861,0.0,0.0,0.0,0.36000002861,0.0,0.0,0.0,1.44000011444,1,221.38324654508705,306.0416639965523,369.20130257186565,19.216479746818475,-0.8322660127417959,0.9995976923020815,0,Fixed-Wing
1970-01-01 00:01:14.005965856,7743,1532135023006740816,base_link,0,1,40.5927906,-79.8985968,370.202586114,0.31360000267,0.0,0.0,0.0,0.31360000267,0.0,0.0,0.0,1.25440001068,1,228.53670015843986,305.7976119688151,370.1911494720349,17.883231660669658,-0.6101163417253401,2.474561572787749,0,Fixed-Wing
1970-01-01 00:01:14.401275296,7745,1532135023402897680,base_link,0,1,40.5927889,-79.8985181,371.262667101,0.31360000267,0.0,0.0,0.0,0.31360000267,0.0,0.0,0.0,1.25440001068,1,235.1991537608326,305.6090808460435,371.2509976721718,16.65575925139867,-0.4713172022918602,2.6495608852223627,0,Fixed-Wing
1970-01-01 00:01:14.793521376,7747,1532135023795016048,base_link,0,1,40.5927876,-79.8984435,372.11274375,0.31360000267,0.0,0.0,0.0,0.31360000267,0.0,0.0,0.0,1.25440001068,1,241.51451176851972,305.4649552975013,372.10084558051835,15.788039788322607,-0.3603057644758147,2.124571967997052,0,Fixed-Wing
1970-01-01 00:01:15.217256704,7749,1532135024218744624,base_link,0,1,40.5927874,-79.8983714,372.702817405,0.31360000267,0.0,0.0,0.0,0.31360000267,0.0,0.0,0.0,1.25440001068,1,247.6182180478567,305.4429733553624,372.6906865943009,15.25892237258902,-0.05495361889080839,1.4745693566459128,0,Fixed-Wing
1970-01-01 00:01:15.627932928,7751,1532135024628971216,base_link,0,1,40.5927879,-79.8983005,372.992889556,0.31360000267,0.0,0.0,0.0,0.31360000267,0.0,0.0,0.0,1.25440001068,1,253.62032396504853,305.4987153381078,372.9805205738844,15.004927182118005,0.13935182144741748,0.7245686461641544,0,Fixed-Wing
1970-01-01 00:01:15.996394208,7753,1532135024998000656,base_link,0,1,40.5927891,-79.8982291,372.812961937,0.31360000267,0.0,0.0,0.0,0.31360000267,0.0,0.0,0.0,1.25440001068,1,259.6647364269555,305.63217784841265,372.80034369057836,15.110691164216307,0.3336487686648714,-0.4504320735434613,0,Fixed-Wing
1970-01-01 00:01:16.370454368,7755,1532135025372020144,base_link,0,1,40.5927906,-79.8981558,372.203036143,0.31360000267,0.0,0.0,0.0,0.31360000267,0.0,0.0,0.0,1.25440001068,1,265.869975258715,305.7989460870902,372.1901546171928,15.51274804256769,0.4169112161915062,-1.525438361100835,0,Fixed-Wing
1970-01-01 00:01:16.821597088,7757,1532135025822858032,base_link,0,1,40.5927914,-79.8980799,371.243113301,0.31360000267,0.0,0.0,0.0,0.31360000267,0.0,0.0,0.0,1.25440001068,1,272.2953055758109,305.8879738980149,371.2299568188603,16.062964376041357,0.22256451960999998,-2.40044048592032,0,Fixed-Wing
1970-01-01 00:01:17.219395968,7759,1532135026220995312,base_link,0,1,40.5927912,-79.8980008,370.293194147,0.31360000267,0.0,0.0,0.0,0.31360000267,0.0,0.0,0.0,1.25440001068,1,278.9915368416862,305.8659653255983,370.27974975761435,16.740201510154193,-0.05502019308703767,-2.3754642051701818,0,Fixed-Wing
1970-01-01 00:01:17.593779808,7761,1532135026595332240,base_link,0,1,40.5927902,-79.8979194,369.413277683,0.31360000267,0.0,0.0,0.0,0.31360000267,0.0,0.0,0.0,1.25440001068,1,285.88248092497247,305.75513161019603,369.39953392474894,17.226972601332182,-0.2770780542495128,-2.2004900711369424,0,Fixed-Wing
1970-01-01 00:01:18.020824960,7763,1532135027022319120,base_link,0,1,40.5927893,-79.8978365,368.873362721,0.31360000267,0.0,0.0,0.0,0.31360000267,0.0,0.0,0.0,1.25440001068,1,292.90042208547555,305.6554308628903,368.8593058006461,17.544458150949318,-0.24924626022351126,-1.3505399231088278,0,Fixed-Wing
1970-01-01 00:01:18.405778016,7765,1532135027406919600,base_link,0,1,40.592789,-79.8977534,368.813447728,0.31360000267,0.0,0.0,0.0,0.31360000267,0.0,0.0,0.0,1.25440001068,1,299.9353132521234,305.62239196227983,368.79906593660627,17.586832212894876,-0.08259539312977876,-0.15059627168346004,0,Fixed-Wing
