time,field.header.seq,field.header.stamp,field.header.frame_id,field.status.status,field.status.service,lat,lon,alt,field.position_covariance0,field.position_covariance1,field.position_covariance2,field.position_covariance3,field.position_covariance4,field.position_covariance5,field.position_covariance6,field.position_covariance7,field.position_covariance8,field.position_covariance_type,x,y,z,vel_x,vel_y,vel_z,track_id,uav_category
1970-01-01 00:00:00.000000000,2030,1536693065310491576,base_link,0,1,40.5914906,-79.9000834,358.301608202,0.409599981689,0.0,0.0,0.0,0.409599981689,0.0,0.0,0.0,1.63839992676,1,110.20680240599376,143.98007137633283,358.299028469492,-21.45631470820717,-3.747567238069362,0.5250922374486034,0,Fixed-Wing
1970-01-01 00:00:00.407512800,2032,1536693065718115032,base_link,0,1,40.5914771,-79.9001848,358.51151049,0.409599981689,0.0,0.0,0.0,0.409599981689,0.0,0.0,0.0,1.63839992676,1,101.62258147384894,142.48074842329328,358.5091068467582,-21.45631470820717,-3.747567238069362,0.5250922374486034,0,Fixed-Wing
1970-01-01 00:00:00.843249152,2034,1536693066153967096,base_link,0,1,40.5914683,-79.9002848,358.561412264,0.409599981689,0.0,0.0,0.0,0.409599981689,0.0,0.0,0.0,1.63839992676,1,93.15686786861892,141.50337889962208,358.55915950632533,-21.160104892358813,-2.442941328265668,0.12510694029714908,0,Fixed-Wing
1970-01-01 00:00:01.246211264,2036,1536693066554948696,base_link,0,1,40.5914682,-79.9003834,358.671311861,0.409599981689,0.0,0.0,0.0,0.409599981689,0.0,0.0,0.0,1.63839992676,1,84.80966191942017,141.49217648217112,358.66917563430525,-20.86389425388174,-0.02800051352597851,0.27498601021277824,0,Fixed-Wing
1970-01-01 00:00:01.634866560,2038,1536693066944797144,base_link,0,1,40.5914787,-79.9004798,359.031209308,0.409599981689,0.0,0.0,0.0,0.409599981689,0.0,0.0,0.0,1.63839992676,1,76.6486925714727,142.6581451161835,359.0291501889773,-20.39839468691801,2.914346001695632,0.8997586843400385,0,Fixed-Wing
1970-01-01 00:00:02.009112096,2040,1536693067319225912,base_link,0,1,40.5914993,-79.9005712,359.611107668,0.409599981689,0.0,0.0,0.0,0.409599981689,0.0,0.0,0.0,1.63839992676,1,68.9110031706958,144.9457598873136,359.60908501233814,-19.340403772197206,5.717907641066161,1.4495507721245446,0,Fixed-Wing
1970-01-01 00:00:02.445946336,2042,1536693067756567352,base_link,0,1,40.5915321,-79.9006526,360.541011164,0.409599981689,0.0,0.0,0.0,0.409599981689,0.0,0.0,0.0,1.63839992676,1,62.019881579344826,148.5882364338952,360.5389751174731,-17.224402158951058,9.104393248787305,2.3242662202589313,0,Fixed-Wing
1970-01-01 00:00:02.841440160,2044,1536693068152206840,base_link,0,1,40.5915742,-79.9007216,361.800923446,0.409599981689,0.0,0.0,0.0,0.409599981689,0.0,0.0,0.0,1.63839992676,1,56.17850904055411,153.26352289663998,361.7988305466663,-14.600547738798374,11.685908189994459,3.149016642196117,0,Fixed-Wing
1970-01-01 00:00:03.233906976,2046,1536693068544768344,base_link,0,1,40.5916212,-79.9007792,363.000845322,0.409599981689,0.0,0.0,0.0,0.409599981689,0.0,0.0,0.0,1.63839992676,1,51.30222880850046,158.48297746727502,362.9986655857034,-12.188293392189173,13.046059829771211,2.9989952960218145,0,Fixed-Wing
1970-01-01 00:00:03.639118080,2048,1536693068946815320,base_link,0,1,40.591672,-79.9008247,364.100777961,0.409599981689,0.0,0.0,0.0,0.409599981689,0.0,0.0,0.0,1.63839992676,1,47.4503010527339,164.12444015401542,364.0984849850373,-9.627917875635962,14.100871794671544,2.749005569734752,0,Fixed-Wing
1970-01-01 00:00:04.009607456,2050,1536693069320072344,base_link,0,1,40.591726,-79.9008577,364.980722015,0.409599981689,0.0,0.0,0.0,0.409599981689,0.0,0.0,0.0,1.63839992676,1,44.65658718677761,170.1212748886404,364.97829167188087,-6.982905541046373,14.989126484081815,2.199082398335207,0,Fixed-Wing
1970-01-01 00:00:04.402187680,2052,1536693069713058424,base_link,0,1,40.5917816,-79.9008783,365.470678044,0.409599981689,0.0,0.0,0.0,0.409599981689,0.0,0.0,0.0,1.63839992676,1,42.912619966051196,176.29579140776713,365.46809157290903,-4.359057138031266,15.433243232278475,1.2242579616229887,0,Fixed-Wing
1970-01-01 00:00:04.811531584,2054,1536693070122179608,base_link,0,1,40.5918377,-79.9008852,365.710647822,0.409599981689,0.0,0.0,0.0,0.409599981689,0.0,0.0,0.0,1.63839992676,1,42.32845306340484,182.5258348740883,365.7078895823239,-1.4601288811618685,15.572033189248067,0.5993766466494599,0,Fixed-Wing
1970-01-01 00:00:05.242358528,2056,1536693070553042200,base_link,0,1,40.5918931,-79.9008791,365.740631131,0.409599981689,0.0,0.0,0.0,0.409599981689,0.0,0.0,0.0,1.63839992676,1,42.84482503168606,188.67814224496988,365.7376899881865,1.2906750123881032,15.377731325267192,0.07448630361154177,0,Fixed-Wing
1970-01-01 00:00:05.641652480,2058,1536693070952220248,base_link,0,1,40.5919473,-79.9008638,365.470624309,0.409599981689,0.0,0.0,0.0,0.409599981689,0.0,0.0,0.0,1.63839992676,1,44.14003712718804,194.69718226296797,365.46749301566507,3.2373908540612746,15.044628730820897,-0.6753590478916228,0,Fixed-Wing
1970-01-01 00:00:06.050247136,2060,1536693071360601784,base_link,0,1,40.5919995,-79.9008403,365.080626667,0.409599981689,0.0,0.0,0.0,0.409599981689,0.0,0.0,0.0,1.63839992676,1,46.129432410146464,200.49411772613084,365.0773012938105,4.972506137433923,14.489476986202392,-0.9752866855160901,0,Fixed-Wing
1970-01-01 00:00:06.407520576,2062,1536693071717726424,base_link,0,1,40.5920499,-79.9008112,364.820635475,0.409599981689,0.0,0.0,0.0,0.409599981689,0.0,0.0,0.0,1.63839992676,1,48.59290373377887,206.0911660347063,364.81711301148664,6.1574622102944785,13.989857774528197,-0.6503422632126115,0,Fixed-Wing
1970-01-01 00:00:06.858658304,2064,1536693072169536216,base_link,0,1,40.5920989,-79.9007804,364.710646601,0.409599981689,0.0,0.0,0.0,0.409599981689,0.0,0.0,0.0,1.63839992676,1,51.200289581707395,211.5327473719642,364.7069251910245,6.517177477269555,13.601267092893906,-0.27541515666195543,0,Fixed-Wing
1970-01-01 00:00:07.257960256,2066,1536693072568758168,base_link,0,1,40.5921477,-79.9007505,364.590656903,0.409599981689,0.0,0.0,0.0,0.409599981689,0.0,0.0,0.0,1.63839992676,1,53.73148075728476,216.95211810817187,364.58673222581047,6.3267284100824135,13.545751554587138,-0.3004230794768447,0,Fixed-Wing
1970-01-01 00:00:07.676651136,2068,1536693072977690232,base_link,0,1,40.5921971,-79.900724,364.51066351,0.409599981689,0.0,0.0,0.0,0.409599981689,0.0,0.0,0.0,1.63839992676,1,55.974836122890665,222.4381202129705,364.50653014912155,5.607280976022004,13.71229708332258,-0.20046559976634612,0,Fixed-Wing
1970-01-01 00:00:08.018729120,2070,1536693073329567704,base_link,0,1,40.5922472,-79.9007014,364.330665872,0.409599981689,0.0,0.0,0.0,0.409599981689,0.0,0.0,0.0,1.63839992676,1,57.8880267608472,228.00185342485827,364.3263185226235,4.78203214354298,13.906586478889867,-0.4504401043244493,0,Fixed-Wing
1970-01-01 00:00:08.421600608,2072,1536693073731786296,base_link,0,1,40.5922982,-79.9006828,364.070663807,0.409599981689,0.0,0.0,0.0,0.409599981689,0.0,0.0,0.0,1.63839992676,1,59.46258767142443,233.6655283672398,364.0660965246333,3.9356249905074576,14.156391468638777,-0.6504265357347997,0,Fixed-Wing
1970-01-01 00:00:08.797485440,2074,1536693074108093496,base_link,0,1,40.59235,-79.9006673,363.64065827,0.409599981689,0.0,0.0,0.0,0.409599981689,0.0,0.0,0.0,1.63839992676,1,60.77470938751361,239.41803659664407,363.63586478588525,3.2796565580527353,14.378430833421074,-1.0753669618951116,0,Fixed-Wing
1970-01-01 00:00:09.260327104,2076,1536693074570929432,base_link,0,1,40.5924026,-79.9006538,363.010650383,0.409599981689,0.0,0.0,0.0,0.409599981689,0.0,0.0,0.0,1.63839992676,1,61.91751390209768,245.25937711386223,363.00562344728166,2.8564471381503935,14.600467700674509,-1.5752922262942626,0,Fixed-Wing
1970-01-01 00:00:09.641476320,2078,1536693074952248696,base_link,0,1,40.5924564,-79.9006428,362.450639473,0.409599981689,0.0,0.0,0.0,0.409599981689,0.0,0.0,0.0,1.63839992676,1,62.84867575657014,251.23398051868355,362.4453703411564,2.327444965800396,14.933559134124318,-1.4003561949647132,0,Fixed-Wing
1970-01-01 00:00:10.045383392,2080,1536693075356109880,base_link,0,1,40.5925109,-79.9006339,362.200626153,0.409599981689,0.0,0.0,0.0,0.409599981689,0.0,0.0,0.0,1.63839992676,1,63.60206076332268,257.28633070653547,362.1951077108139,1.883090606486581,15.127887711806704,-0.6255330330821922,0,Fixed-Wing
1970-01-01 00:00:10.421952992,2082,1536693075732864472,base_link,0,1,40.5925655,-79.9006258,362.230611993,0.409599981689,0.0,0.0,0.0,0.409599981689,0.0,0.0,0.0,1.63839992676,1,64.2877224597922,263.34979679348373,362.2248386161945,1.713815762560703,15.155671972156167,0.07431258671570268,0,Fixed-Wing
1970-01-01 00:00:10.857288480,2084,1536693076166198136,base_link,0,1,40.5926194,-79.9006159,362.460599963,0.409599981689,0.0,0.0,0.0,0.409599981689,0.0,0.0,0.0,1.63839992676,1,65.12576633651067,269.33553619709045,362.4545675376945,2.094695989338252,14.961393633774117,0.5742088974927396,0,Fixed-Wing
1970-01-01 00:00:11.232285088,2086,1536693076542953816,base_link,0,1,40.5926726,-79.9006032,362.650591082,0.435600034618,0.0,0.0,0.0,0.435600034618,0.0,0.0,0.0,1.74240013847,1,66.20084547930503,275.2435398939956,362.64429478104296,2.687167141475472,14.76709274144645,0.474224449042422,0,Fixed-Wing
1970-01-01 00:00:11.641815200,2088,1536693076952374424,base_link,0,1,40.5927251,-79.9005871,362.740585957,0.409599981689,0.0,0.0,0.0,0.409599981689,0.0,0.0,0.0,1.63839992676,1,67.56375217244198,281.07380567558357,362.73402050836773,3.4065939305410913,14.572786328670007,0.22427002498200607,0,Fixed-Wing
1970-01-01 00:00:12.016333248,2090,1536693077327230616,base_link,0,1,40.5927766,-79.9005658,362.57058654,0.409599981689,0.0,0.0,0.0,0.409599981689,0.0,0.0,0.0,1.63839992676,1,69.36686453047636,286.793011911042,362.56374655129133,4.506890784156087,14.295192288169195,-0.42560083652579567,0,Fixed-Wing
1970-01-01 00:00:12.396513824,2092,1536693077707278648,base_link,0,1,40.5928267,-79.9005373,362.150595028,0.435600034618,0.0,0.0,0.0,0.435600034618,0.0,0.0,0.0,1.74240013847,1,71.7794931282858,292.3567393655017,362.1434751767864,6.030380494375936,13.906572088161825,-1.0504709682460736,0,Fixed-Wing
1970-01-01 00:00:12.854621152,2094,1536693078165418328,base_link,0,1,40.5928742,-79.9005001,361.780613436,0.435600034618,0.0,0.0,0.0,0.435600034618,0.0,0.0,0.0,1.74240013847,1,74.92862451852612,297.63174048358616,361.7732128596943,7.871273899005765,13.18489877770252,-0.9254730118104496,0,Fixed-Wing
1970-01-01 00:00:13.213576672,2096,1536693078523958616,base_link,0,1,40.5929187,-79.9004547,361.370641416,0.435600034618,0.0,0.0,0.0,0.435600034618,0.0,0.0,0.0,1.74240013847,1,78.771929068385,302.5735906960739,361.3629615165868,9.60636411773396,12.352185974489378,-1.0254258361661523,0,Fixed-Wing
1970-01-01 00:00:13.623878688,2098,1536693078934602616,base_link,0,1,40.5929596,-79.9004017,360.970678603,0.435600034618,0.0,0.0,0.0,0.435600034618,0.0,0.0,0.0,1.74240013847,1,83.2586138442074,307.1156614783174,360.96272418556794,11.214497076383406,11.35293475099546,-1.000395749386604,0,Fixed-Wing
1970-01-01 00:00:14.032209312,2100,1536693079343007832,base_link,0,1,40.5929955,-79.900341,360.600725669,0.435600034618,0.0,0.0,0.0,0.435600034618,0.0,0.0,0.0,1.74240013847,1,88.39714595175107,311.10248187792814,360.59250852545193,12.843793619619294,9.965082895155046,-0.9253563924025072,0,Fixed-Wing
1970-01-01 00:00:14.401245568,2102,1536693079712122520,base_link,0,1,40.5930257,-79.9002729,360.490782596,0.409599981689,0.0,0.0,0.0,0.409599981689,0.0,0.0,0.0,1.63839992676,1,94.1621332234898,314.4563277966715,360.4823182019661,14.409622278946738,8.38295916242375,-0.2754214129854957,0,Fixed-Wing
1970-01-01 00:00:14.812695360,2104,1536693080123577592,base_link,0,1,40.5930496,-79.9001999,360.490847084,0.409599981689,0.0,0.0,0.0,0.409599981689,0.0,0.0,0.0,1.63839992676,1,100.34193722037936,317.1105593859,360.48215687331685,15.446459316508891,6.634268705002052,-0.000403241982847551,0,Fixed-Wing
1970-01-01 00:00:15.268282016,2106,1536693080579018296,base_link,0,1,40.5930673,-79.9001236,360.500917468,0.409599981689,0.0,0.0,0.0,0.409599981689,0.0,0.0,0.0,1.63839992676,1,106.801109267394,319.0762760863774,360.4920242543255,16.144741531084193,4.913321370222883,0.02466358146424204,0,Fixed-Wing
1970-01-01 00:00:15.667678912,2108,1536693080975277592,base_link,0,1,40.593078,-79.9000449,360.660993159,0.409599981689,0.0,0.0,0.0,0.409599981689,0.0,0.0,0.0,1.63839992676,1,113.4634650604933,320.2646426348317,360.65192537019084,16.65260059413093,2.970329731013939,0.39967385407720096,0,Fixed-Wing
1970-01-01 00:00:16.007205472,2110,1536693081316877944,base_link,0,1,40.5930827,-79.8999658,361.001071715,0.409599981689,0.0,0.0,0.0,0.409599981689,0.0,0.0,0.0,1.63839992676,1,120.15969529355166,320.78671072990824,360.9918551727765,16.73726997182646,1.3049125174690996,0.8496566992661112,0,Fixed-Wing
1970-01-01 00:00:16.414248512,2112,1536693081724907448,base_link,0,1,40.5930826,-79.8998873,361.451151631,0.409599981689,0.0,0.0,0.0,0.409599981689,0.0,0.0,0.0,1.63839992676,1,126.80514338991456,320.7757382630224,361.44180717384955,16.610339698816727,-0.027425750628866267,1.12465788275073,0,Fixed-Wing
1970-01-01 00:00:16.839668576,2114,1536693082150146488,base_link,0,1,40.5930788,-79.8998104,362.08123144,0.409599981689,0.0,0.0,0.0,0.409599981689,0.0,0.0,0.0,1.63839992676,1,133.31515509116903,320.35388459803244,362.0717756843944,16.271815569561188,-1.0544259133569953,1.5746102908297366,0,Fixed-Wing
1970-01-01 00:00:17.218102048,2116,1536693082528838104,base_link,0,1,40.5930726,-79.8997353,362.881310408,0.409599981689,0.0,0.0,0.0,0.409599981689,0.0,0.0,0.0,1.63839992676,1,139.6727979744031,319.66551650316796,362.87175341705847,15.890968741758662,-1.7205804225277317,1.999549420649539,0,Fixed-Wing
1970-01-01 00:00:17.612293504,2118,1536693082922911832,base_link,0,1,40.5930658,-79.8996625,363.611387291,0.409599981689,0.0,0.0,0.0,0.409599981689,0.0,0.0,0.0,1.63839992676,1,145.83573607126854,318.9105149001995,363.60173045366065,15.404302892342377,-1.8871312989896774,1.8245822365137359,0,Fixed-Wing
1970-01-01 00:00:18.085108832,2120,1536693083395285944,base_link,0,1,40.5930595,-79.899591,364.051462656,0.409599981689,0.0,0.0,0.0,0.409599981689,0.0,0.0,0.0,1.63839992676,1,151.8886168465729,318.21102767856144,364.04169977754225,15.129213918511956,-1.7483727504768738,1.0997061177457415,0,Fixed-Wing
1970-01-01 00:00:18.388403680,2122,1536693083699232184,base_link,0,1,40.5930544,-79.8995208,364.311536216,0.409599981689,0.0,0.0,0.0,0.409599981689,0.0,0.0,0.0,1.63839992676,1,157.83144035743922,317.64479685212154,364.3016575535687,14.854125087461059,-1.415297544834624,0.6497661112591607,0,Fixed-Wing
1970-01-01 00:00:18.832308416,2124,1536693084142742488,base_link,0,1,40.5930508,-79.8994512,364.351608562,0.409599981689,0.0,0.0,0.0,0.409599981689,0.0,0.0,0.0,1.63839992676,1,163.7234627407203,317.245137251899,364.34160153468207,14.727147346601729,-0.998951707594122,0.09984023433713717,0,Fixed-Wing
1970-01-01 00:00:19.236434848,2126,1536693084546775960,base_link,0,1,40.5930483,-79.8993818,364.241680262,0.409599981689,0.0,0.0,0.0,0.409599981689,0.0,0.0,0.0,1.63839992676,1,169.59854799450298,316.967632097314,364.23153377302646,14.68481288391214,-0.6936258953482054,-0.2751150689129248,0,Fixed-Wing
1970-01-01 00:00:19.634141952,2128,1536693084944913464,base_link,0,1,40.5930473,-79.8993125,364.051751256,0.409599981689,0.0,0.0,0.0,0.409599981689,0.0,0.0,0.0,1.63839992676,1,175.4651618297181,316.85670600852603,364.04145183186563,14.663638519430245,-0.27726046302842344,-0.4751110184759179,0,Fixed-Wing
1970-01-01 00:00:20.009043840,2130,1536693085319608536,base_link,0,1,40.5930476,-79.899243,363.781821929,0.409599981689,0.0,0.0,0.0,0.409599981689,0.0,0.0,0.0,1.63839992676,1,181.34870077709587,316.8901490908505,363.7713565095241,14.705942944712813,0.08359119654988531,-0.675104972621774,0,Fixed-Wing
1970-01-01 00:00:20.424826016,2132,1536693085735696472,base_link,0,1,40.5930491,-79.8991733,363.541892323,0.409599981689,0.0,0.0,0.0,0.409599981689,0.0,0.0,0.0,1.63839992676,1,187.24916777728282,317.0568616075356,363.53124835351895,14.748254720160142,0.41669899366148966,-0.600151860020484,0,Fixed-Wing
1970-01-01 00:00:20.845162240,2134,1536693086155855320,base_link,0,1,40.593051,-79.8991031,363.311963071,0.409599981689,0.0,0.0,0.0,0.409599981689,0.0,0.0,0.0,1.63839992676,1,193.1919608926914,317.2680013350295,363.30113160158027,14.854049113821498,0.5277450890796589,-0.5751782821359803,0,Fixed-Wing
1970-01-01 00:00:21.205863584,2136,1536693086516441336,base_link,0,1,40.5930526,-79.8990326,363.072034255,0.409599981689,0.0,0.0,0.0,0.409599981689,0.0,0.0,0.0,1.63839992676,1,199.16015042512979,317.4458302464945,363.06101061837865,14.917527619391102,0.44448449297510023,-0.60018392167952,0,Fixed-Wing
1970-01-01 00:00:21.607923424,2138,1536693086918697048,base_link,0,1,40.5930542,-79.8989614,362.882106161,0.409599981689,0.0,0.0,0.0,0.409599981689,0.0,0.0,0.0,1.63839992676,1,205.187599561901,317.62366805026767,362.87088287266226,15.065647376571187,0.44450671935585895,-0.4752255072532711,0,Fixed-Wing
1970-01-01 00:00:22.019033504,2140,1536693087328101432,base_link,0,1,40.5930557,-79.8988895,362.77217883,0.409599981689,0.0,0.0,0.0,0.409599981689,0.0,0.0,0.0,1.63839992676,1,211.27430974600793,317.7904111544517,362.7607487923562,15.21377074054604,0.4167754473092462,-0.27528083280069177,0,Fixed-Wing
1970-01-01 00:00:22.418626688,2142,1536693087728943128,base_link,0,1,40.5930572,-79.8988177,362.842251405,0.409599981689,0.0,0.0,0.0,0.409599981689,0.0,0.0,0.0,1.63839992676,1,217.35256004078576,317.95716796937467,362.8306091007544,15.192625193468867,0.4168097173882217,0.1746162842792963,0,Fixed-Wing
1970-01-01 00:00:22.843033024,2144,1536693088152763704,base_link,0,1,40.5930589,-79.8987461,363.002323703,0.409599981689,0.0,0.0,0.0,0.409599981689,0.0,0.0,0.0,1.63839992676,1,223.41388161243904,318.1461442144647,362.99046282566167,15.150311742564044,0.4723473241285648,0.39955540007671814,0,Fixed-Wing
1970-01-01 00:00:23.247978464,2146,1536693088556020088,base_link,0,1,40.5930604,-79.8986747,363.112395887,0.409599981689,0.0,0.0,0.0,0.409599981689,0.0,0.0,0.0,1.63839992676,1,229.45827100151286,318.3129118960618,363.1003123990316,15.1079896447297,0.4168368787091888,0.27456970590797436,0,Fixed-Wing
1970-01-01 00:00:23.635901376,2148,1536693088946695256,base_link,0,1,40.5930611,-79.898603,363.042468714,0.409599981689,0.0,0.0,0.0,0.409599981689,0.0,0.0,0.0,1.63839992676,1,235.528053098801,318.39083436942406,363.03016039903633,15.171458880091532,0.19476771678159588,-0.17534536927779093,0,Fixed-Wing
1970-01-01 00:00:24.024016416,2150,1536693089334099672,base_link,0,1,40.5930615,-79.8985312,362.922541774,0.409599981689,0.0,0.0,0.0,0.409599981689,0.0,0.0,0.0,1.63839992676,1,241.60629965585912,318.43544383777515,362.91000421232764,15.192615851014729,0.11150164930200736,-0.3003311513693495,0,Fixed-Wing
1970-01-01 00:00:24.431949472,2152,1536693089742739672,base_link,0,1,40.5930614,-79.8984592,362.882615252,0.409599981689,0.0,0.0,0.0,0.409599981689,0.0,0.0,0.0,1.63839992676,1,247.70148192389706,318.4245366365115,362.86984478142296,15.234946768108161,-0.02726261879191074,-0.10037875245808951,0,Fixed-Wing
1970-01-01 00:00:24.815640000,2154,1536693090126033112,base_link,0,1,40.5930606,-79.8983872,362.872689026,0.409599981689,0.0,0.0,0.0,0.409599981689,0.0,0.0,0.0,1.63839992676,1,253.79666797200363,318.33589925117434,362.85968371886327,15.23495621641368,-0.2215497072757259,-0.02539764036525054,0,Fixed-Wing
1970-01-01 00:00:25.218128000,2156,1536693090528383608,base_link,0,1,40.5930596,-79.8983153,362.932762788,0.409599981689,0.0,0.0,0.0,0.409599981689,0.0,0.0,0.0,1.63839992676,1,259.88339223799824,318.22505957785734,362.91951828112576,15.213805938313694,-0.27704446701027174,0.1495568681747723,0,Fixed-Wing
1970-01-01 00:00:25.655809728,2158,1536693090966680472,base_link,0,1,40.5930585,-79.898244,363.092835989,0.409599981689,0.0,0.0,0.0,0.409599981689,0.0,0.0,0.0,1.63839992676,1,265.9193281575803,318.1031228227187,363.0793491508385,15.086860144076727,-0.304781693462091,0.399498273372811,0,Fixed-Wing
1970-01-01 00:00:26.048376064,2160,1536693091358968568,base_link,0,1,40.5930583,-79.8981737,363.452907808,0.409599981689,0.0,0.0,0.0,0.409599981689,0.0,0.0,0.0,1.63839992676,1,271.8706141107244,318.0811450098018,363.43917153992203,14.875277015649573,-0.054933682889954,0.8993783454856341,0,Fixed-Wing
1970-01-01 00:00:26.423361408,2162,1536693091734241048,base_link,0,1,40.593059,-79.8981043,363.692978348,0.409599981689,0.0,0.0,0.0,0.409599981689,0.0,0.0,0.0,1.63839992676,1,277.74570201986876,318.1591102638615,363.6789854212146,14.68481952100556,0.19487464740647217,0.5994163185084648,0,Fixed-Wing
1970-01-01 00:00:26.842964768,2164,1536693092153732312,base_link,0,1,40.5930601,-79.8980354,363.743048221,0.409599981689,0.0,0.0,0.0,0.409599981689,0.0,0.0,0.0,1.63839992676,1,283.57845245302826,318.2814900036302,363.72879289036456,14.578996731044377,0.3058889363567931,0.12449408529311048,0,Fixed-Wing
1970-01-01 00:00:27.250456320,2166,1536693092561122072,base_link,0,1,40.5930614,-79.8979669,363.753117612,0.409599981689,0.0,0.0,0.0,0.409599981689,0.0,0.0,0.0,1.63839992676,1,289.37733797628636,318.4260814701518,363.73859497064507,14.49435117378841,0.36140728836455727,0.024500361879799006,0,Fixed-Wing
1970-01-01 00:00:27.647961024,2168,1536693092958400184,base_link,0,1,40.5930632,-79.8978983,363.693186907,0.409599981689,0.0,0.0,0.0,0.409599981689,0.0,0.0,0.0,1.63839992676,1,295.18468339233664,318.6262004781805,363.67838851582195,14.515496729521624,0.500198730822431,-0.15048641599063417,0,Fixed-Wing
1970-01-01 00:00:28.045628576,2170,1536693093356270360,base_link,0,1,40.5930648,-79.8978296,363.643256394,0.409599981689,0.0,0.0,0.0,0.409599981689,0.0,0.0,0.0,1.63839992676,1,301.0004952887045,318.8041143700221,363.62817768076786,14.536658750816333,0.444696901965786,-0.12550230093078607,0,Fixed-Wing
1970-01-01 00:00:28.406475616,2172,1536693093717265336,base_link,0,1,40.5930659,-79.8977602,363.603326809,0.409599981689,0.0,0.0,0.0,0.409599981689,0.0,0.0,0.0,1.63839992676,1,306.8755683122663,318.92650953774495,363.58796240942297,14.684782314397433,0.30592749862616375,-0.10051832599284474,0,Fixed-Wing
1970-01-01 00:00:28.872908576,2174,1536693094183484952,base_link,0,1,40.5930666,-79.8976906,363.6133976,0.409599981689,0.0,0.0,0.0,0.409599981689,0.0,0.0,0.0,1.63839992676,1,312.7675764467295,319.0044915943448,363.59774350423,14.727111731591002,0.19491664546218318,0.024447908555586532,0,Fixed-Wing
1970-01-01 00:00:29.231074752,2176,1536693094541802296,base_link,0,1,40.5930677,-79.8976208,363.67346844,0.409599981689,0.0,0.0,0.0,0.409599981689,0.0,0.0,0.0,1.63839992676,1,318.6765161380468,319.1269024985394,363.6575161414138,14.76943226542083,0.30596683203708935,0.14940208604753585,0,Fixed-Wing
1970-01-01 00:00:29.653754112,2178,1536693094964163864,base_link,0,1,40.593069,-79.8975507,363.753539512,0.409599981689,0.0,0.0,0.0,0.409599981689,0.0,0.0,0.0,1.63839992676,1,324.61085239410994,319.2715306760121,363.7372811368218,14.832911140207678,0.36149904761990853,0.1993731123303824,0,Fixed-Wing
1970-01-01 00:00:30.024493184,2180,1536693095334936248,base_link,0,1,40.5930702,-79.8974801,363.823611144,0.409599981689,0.0,0.0,0.0,0.409599981689,0.0,0.0,0.0,1.63839992676,1,330.58751620587975,319.40505971631745,363.8070395427417,14.938709134370487,0.3337566838183152,0.17436157838790878,0,Fixed-Wing
1970-01-01 00:00:30.432346272,2182,1536693095743230744,base_link,0,1,40.5930707,-79.897409,363.903683583,0.409599981689,0.0,0.0,0.0,0.409599981689,0.0,0.0,0.0,1.63839992676,1,336.6065116353755,319.46085928535285,363.88679483112566,15.044517281576288,0.13947137699154544,0.1993488495621577,0,Fixed-Wing
1970-01-01 00:00:30.831726528,2184,1536693096142519000,base_link,0,1,40.593071,-79.8973377,364.073756317,0.409599981689,0.0,0.0,0.0,0.409599981689,0.0,0.0,0.0,1.63839992676,1,342.64244404029716,319.49445853037685,364.05654494988886,15.086851359160697,0.08398152620855583,0.42429149933689153,0,Fixed-Wing
1970-01-01 00:00:31.221168608,2186,1536693096531800920,base_link,0,1,40.5930716,-79.8972664,364.363828937,0.409599981689,0.0,0.0,0.0,0.409599981689,0.0,0.0,0.0,1.63839992676,1,348.67838170201276,319.5613844144981,364.34628757677285,15.086864498550518,0.1672816721728628,0.7242135350368107,0,Fixed-Wing
1970-01-01 00:00:31.603477504,2188,1536693096913803128,base_link,0,1,40.5930726,-79.8971951,364.6239014,0.409599981689,0.0,0.0,0.0,0.409599981689,0.0,0.0,0.0,1.63839992676,1,354.71431602608305,319.6727346496985,364.60602211090975,15.086856156084915,0.27832061967862537,0.649208116739185,0,Fixed-Wing
1970-01-01 00:00:32.039873536,2190,1536693097350403864,base_link,0,1,40.5930728,-79.8971232,364.813974814,0.409599981689,0.0,0.0,0.0,0.409599981689,0.0,0.0,0.0,1.63839992676,1,360.80104420913455,319.6952467879641,364.7957534869115,15.213815729022246,0.056269232490575756,0.47423477863561847,0,Fixed-Wing
1970-01-01 00:00:32.397550784,2192,1536693097708363352,base_link,0,1,40.5930718,-79.8970508,364.984049243,0.409599981689,0.0,0.0,0.0,0.409599981689,0.0,0.0,0.0,1.63839992676,1,366.9301057968337,319.5845020699985,364.96548433955684,15.319628342650178,-0.27680712550668196,0.42424334355297283,0,Fixed-Wing
1970-01-01 00:00:32.836347712,2194,1536693098146458264,base_link,0,1,40.5930705,-79.8969784,365.054123804,0.409599981689,0.0,0.0,0.0,0.409599981689,0.0,0.0,0.0,1.63839992676,1,373.0591637209672,319.44044163923996,365.035211113143,15.319619185544653,-0.3600799611040398,0.1742825131691062,0,Fixed-Wing
1970-01-01 00:00:33.245940192,2196,1536693098556550648,base_link,0,1,40.5930689,-79.8969053,364.974199213,0.409599981689,0.0,0.0,0.0,0.409599981689,0.0,0.0,0.0,1.63839992676,1,379.2474735456675,319.26306600412755,364.95493100539665,15.467719687112538,-0.4433515258546738,-0.20066063888975802,0,Fixed-Wing
1970-01-01 00:00:33.621427456,2198,1536693098931959032,base_link,0,1,40.5930673,-79.8968313,364.754275552,0.409599981689,0.0,0.0,0.0,0.409599981689,0.0,0.0,0.0,1.63839992676,1,385.51196487080216,319.0856924300955,364.7346412284656,15.658135831010016,-0.443346374171252,-0.5506156957277285,0,Fixed-Wing
1970-01-01 00:00:34.003112832,2200,1536693099313974648,base_link,0,1,40.5930657,-79.8967564,364.564352822,0.409599981689,0.0,0.0,0.0,0.409599981689,0.0,0.0,0.0,1.63839992676,1,391.8526477100689,318.9083296401278,364.54434155948564,15.848577004208467,-0.4433194193338664,-0.47565523054183434,0,Fixed-Wing
1970-01-01 00:00:34.478863360,2202,1536693099789366648,base_link,0,1,40.5930645,-79.8966806,364.384430857,0.409599981689,0.0,0.0,0.0,0.409599981689,0.0,0.0,0.0,1.63839992676,1,398.26951853301,318.7753977897203,364.3640293820915,16.039009353005582,-0.33226400387809535,-0.4506914319276222,0,Fixed-Wing
1970-01-01 00:00:34.858189120,2204,1536693100169009304,base_link,0,1,40.5930634,-79.8966043,364.184509372,0.409599981689,0.0,0.0,0.0,0.409599981689,0.0,0.0,0.0,1.63839992676,1,404.7287150208412,318.6535780063522,364.16370799731885,16.144802621060357,-0.30448932177918875,-0.5007045727784301,0,Fixed-Wing
1970-01-01 00:00:35.222988544,2206,1536693100533847768,base_link,0,1,40.5930615,-79.8965275,364.13458874,0.409599981689,0.0,0.0,0.0,0.409599981689,0.0,0.0,0.0,1.63839992676,1,411.2302535441164,318.442931748183,364.1133826500504,16.250636807418537,-0.526511659370182,-0.1257885249373909,0,Fixed-Wing
1970-01-01 00:00:35.605900448,2208,1536693100916692056,base_link,0,1,40.5930578,-79.8964502,364.164669371,0.409599981689,0.0,0.0,0.0,0.409599981689,0.0,0.0,0.0,1.63839992676,1,417.77413643932897,318.03240320441387,364.14305916887224,16.356476833856718,-1.0261187009794224,0.07417664716672454,0,Fixed-Wing
1970-01-01 00:00:36.060736192,2210,1536693101371402040,base_link,0,1,40.5930513,-79.8963732,364.134750862,0.409599981689,0.0,0.0,0.0,0.409599981689,0.0,0.0,0.0,1.63839992676,1,424.2926372264858,317.310929226724,364.11274701285856,16.293034093658562,-1.8033287867892795,-0.0757654263624903,0,Fixed-Wing
1970-01-01 00:00:36.414002144,2212,1536693101724369688,base_link,0,1,40.5930404,-79.8962964,364.024833975,0.409599981689,0.0,0.0,0.0,0.409599981689,0.0,0.0,0.0,1.63839992676,1,430.7942309839309,316.10082542325006,364.0024551839671,16.250774865576815,-3.0246621379126166,-0.27567512639126446,0,Fixed-Wing
1970-01-01 00:00:36.816622944,2214,1536693102126729400,base_link,0,1,40.5930238,-79.8962207,363.864918328,0.409599981689,0.0,0.0,0.0,0.409599981689,0.0,0.0,0.0,1.63839992676,1,437.20273941423716,314.25772071558976,363.84219541084997,16.01810749953448,-4.606851915897366,-0.4005703201545307,0,Fixed-Wing
1970-01-01 00:00:37.262076608,2216,1536693102572666776,base_link,0,1,40.5930001,-79.896147,363.75500358,0.409599981689,0.0,0.0,0.0,0.409599981689,0.0,0.0,0.0,1.63839992676,1,443.44199026106486,311.6261419728378,363.73197999113063,15.595047095267937,-6.577647771445063,-0.27548414118046327,0,Fixed-Wing
1970-01-01 00:00:37.622137472,2218,1536693102932406488,base_link,0,1,40.5929691,-79.896077,363.715088076,0.409599981689,0.0,0.0,0.0,0.409599981689,0.0,0.0,0.0,1.63839992676,1,449.3680739551754,308.18387056960165,363.69181799184275,14.812283809224077,-8.603979222193951,-0.10038517214818825,0,Fixed-Wing
1970-01-01 00:00:38.033878080,2220,1536693103344561560,base_link,0,1,40.5929315,-79.8960123,363.605169891,0.409599981689,0.0,0.0,0.0,0.409599981689,0.0,0.0,0.0,1.63839992676,1,454.84552868460986,304.0086273992715,363.5817129736987,13.690932864345395,-10.436046806581034,-0.2752081917422663,0,Fixed-Wing
1970-01-01 00:00:38.460382336,2222,1536693103770492376,base_link,0,1,40.5928873,-79.8959544,363.495247492,0.409599981689,0.0,0.0,0.0,0.409599981689,0.0,0.0,0.0,1.63839992676,1,459.7473768625854,299.100407118682,363.4716722578684,12.252200635313333,-12.26812774624384,-0.2750474677008293,0,Fixed-Wing
1970-01-01 00:00:38.878714496,2224,1536693104189506232,base_link,0,1,40.5928373,-79.8959045,363.305319319,0.409599981689,0.0,0.0,0.0,0.409599981689,0.0,0.0,0.0,1.63839992676,1,463.97202074758627,293.5480405436743,363.2816971966134,10.559524206471439,-13.878175497858518,-0.47484387147298557,0,Fixed-Wing
1970-01-01 00:00:39.235489472,2226,1536693104546384920,base_link,0,1,40.5927827,-79.8958634,362.965384057,0.435600034618,0.0,0.0,0.0,0.435600034618,0.0,0.0,0.0,1.74240013847,1,467.45172180320014,287.4847822554476,362.94178506994706,8.697534875896693,-15.15515257793255,-0.849612518193457,0,Fixed-Wing
1970-01-01 00:00:39.647098112,2228,1536693104956912248,base_link,0,1,40.5927239,-79.8958327,362.655439902,0.435600034618,0.0,0.0,0.0,0.435600034618,0.0,0.0,0.0,1.74240013847,1,470.0510400496821,280.9550520901352,362.6319418384461,6.497012456244819,-16.321101995636862,-0.7744551238654445,0,Fixed-Wing
1970-01-01 00:00:40.000388032,2230,1536693105311319288,base_link,0,1,40.5926619,-79.8958127,362.435486132,0.435600034618,0.0,0.0,0.0,0.435600034618,0.0,0.0,0.0,1.74240013847,1,471.74457448288945,274.06990246051794,362.41216351034444,4.2330000655053945,-17.20947520269065,-0.5493373261322241,0,Fixed-Wing
1970-01-01 00:00:40.423434272,2232,1536693105734304952,base_link,0,1,40.5925983,-79.8958021,362.275523414,0.435600034618,0.0,0.0,0.0,0.435600034618,0.0,0.0,0.0,1.74240013847,1,472.6423621883638,267.0070220054864,362.2524347274626,2.2440260685373214,-17.653714528959323,-0.3992431066909633,0,Fixed-Wing
1970-01-01 00:00:40.845741664,2234,1536693106154666776,base_link,0,1,40.5925342,-79.8958003,362.315551905,0.47609999671,0.0,0.0,0.0,0.47609999671,0.0,0.0,0.0,1.90439998684,1,472.7951972567642,259.8885767969613,362.2927466408637,0.3820122235868584,-17.79259898301372,0.100759883425697,0,Fixed-Wing
1970-01-01 00:00:41.225001568,2236,1536693106535914040,base_link,0,1,40.5924703,-79.8958051,362.665573566,0.47609999671,0.0,0.0,0.0,0.47609999671,0.0,0.0,0.0,1.90439998684,1,472.3893241161719,252.7923189431598,362.64308422163697,-1.0144824911887185,-17.737141549047713,0.8756710069093127,0,Fixed-Wing
1970-01-01 00:00:41.658527744,2238,1536693106969214488,base_link,0,1,40.5924075,-79.8958137,363.055590894,0.47609999671,0.0,0.0,0.0,0.47609999671,0.0,0.0,0.0,1.90439998684,1,471.66175199962254,245.81819920404314,363.03342857270525,-1.8185711235765132,-17.43185655612185,0.9756681832045149,0,Fixed-Wing
1970-01-01 00:00:42.038450656,2240,1536693107347386680,base_link,0,1,40.5923462,-79.8958239,363.525605975,0.47609999671,0.0,0.0,0.0,0.47609999671,0.0,0.0,0.0,1.90439998684,1,470.79872383113343,239.01065177721347,363.5037666807372,-2.1571443852066934,-17.01550800424334,1.1756130864953354,0,Fixed-Wing
1970-01-01 00:00:42.422058176,2242,1536693107732934328,base_link,0,1,40.592286,-79.895834,363.875620716,0.47609999671,0.0,0.0,0.0,0.47609999671,0.0,0.0,0.0,1.90439998684,1,469.9441430588288,232.3252572951568,363.85409196827413,-2.1360300648238066,-16.710185943417837,0.8756402798870185,0,Fixed-Wing
1970-01-01 00:00:42.791116448,2244,1536693108102028344,base_link,0,1,40.5922265,-79.8958428,364.035636516,0.47609999671,0.0,0.0,0.0,0.47609999671,0.0,0.0,0.0,1.90439998684,1,469.19959512478823,225.717599104967,364.0144003358515,-1.861002287149673,-16.515883588465766,0.4006917823164574,0,Fixed-Wing
1970-01-01 00:00:43.256705568,2246,1536693108567564312,base_link,0,1,40.5921675,-79.8958496,364.005654175,0.47609999671,0.0,0.0,0.0,0.47609999671,0.0,0.0,0.0,1.90439998684,1,468.6243413428365,219.16547101692746,363.9846892839393,-1.4378504794096771,-16.37708574566411,-0.07426296284537723,0,Fixed-Wing
1970-01-01 00:00:43.642862240,2248,1536693108953532664,base_link,0,1,40.5921087,-79.8958542,363.795674022,0.47609999671,0.0,0.0,0.0,0.47609999671,0.0,0.0,0.0,1.90439998684,1,468.23531635507214,212.63555925761372,363.77495922936805,-0.9723704262516756,-16.321555890995864,-0.5242216026616063,0,Fixed-Wing
1970-01-01 00:00:44.054758432,2250,1536693109365639928,base_link,0,1,40.5920499,-79.8958567,363.465696041,0.47609999671,0.0,0.0,0.0,0.47609999671,0.0,0.0,0.0,1.90439998684,1,468.02406079912896,206.1056552887449,363.44521159756766,-0.5280346030238592,-16.32153641872932,-0.8242062987569638,0,Fixed-Wing
1970-01-01 00:00:44.393691520,2252,1536693109703030168,base_link,0,1,40.5919906,-79.8958573,363.095720234,0.47609999671,0.0,0.0,0.0,0.47609999671,0.0,0.0,0.0,1.90439998684,1,467.9736531374257,199.52023472762176,363.0754493917691,-0.1259942703897859,-16.460300493460434,-0.9242229804577732,0,Fixed-Wing
1970-01-01 00:00:44.797933312,2254,1536693110105854776,base_link,0,1,40.5919309,-79.8958559,362.785746664,0.47609999671,0.0,0.0,0.0,0.47609999671,0.0,0.0,0.0,1.90439998684,1,468.0925660734815,192.89040650571246,362.76567154399123,0.2972236384709905,-16.571297723472846,-0.7742916968345404,0,Fixed-Wing
1970-01-01 00:00:45.234010752,2256,1536693110544880728,base_link,0,1,40.5918709,-79.8958527,362.455775084,0.435600034618,0.0,0.0,0.0,0.435600034618,0.0,0.0,0.0,1.74240013847,1,468.36386211240443,186.22727227913816,362.4358785828054,0.6781061713384418,-16.654546293542776,-0.8243195998436078,0,Fixed-Wing
1970-01-01 00:00:45.615410272,2258,1536693110926285688,base_link,0,1,40.5918104,-79.895849,362.095804245,0.47609999671,0.0,0.0,0.0,0.47609999671,0.0,0.0,0.0,1.90439998684,1,468.6774883436903,179.50861446393031,362.07607783188195,0.7839107558403869,-16.793327855768105,-0.8993242607671357,0,Fixed-Wing
1970-01-01 00:00:46.045447456,2260,1536693111355889848,base_link,0,1,40.5917492,-79.8958452,361.815833821,0.435600034618,0.0,0.0,0.0,0.435600034618,0.0,0.0,0.0,1.74240013847,1,468.99959156490104,172.71222356197208,361.7962718757804,0.8050990459652689,-16.98762219951118,-0.6993767633430914,0,Fixed-Wing
1970-01-01 00:00:46.426269376,2262,1536693111737142392,base_link,0,1,40.5916874,-79.895842,361.705863054,0.47609999671,0.0,0.0,0.0,0.47609999671,0.0,0.0,0.0,1.90439998684,1,469.2709178028831,165.84920317458375,361.68646376986567,0.6781816540784851,-17.154163021274126,-0.27446605774044014,0,Fixed-Wing
1970-01-01 00:00:46.841006880,2264,1536693112151840888,base_link,0,1,40.5916253,-79.8958393,361.845891919,0.47609999671,0.0,0.0,0.0,0.47609999671,0.0,0.0,0.0,1.90439998684,1,469.4999364440267,158.9528709883379,361.82665182364417,0.5724335472333424,-17.237426073964997,0.3504009302625278,0,Fixed-Wing
1970-01-01 00:00:47.201231296,2266,1536693112511958840,base_link,0,1,40.5915631,-79.8958372,362.145920229,0.435600034618,0.0,0.0,0.0,0.435600034618,0.0,0.0,0.0,1.74240013847,1,469.67817366164775,152.0454339695383,362.12683584047556,0.44550505680396685,-17.26518267342103,0.7503118554870281,0,Fixed-Wing
1970-01-01 00:00:47.616826240,2268,1536693112927689336,base_link,0,1,40.5915013,-79.895836,362.325947468,0.435600034618,0.0,0.0,0.0,0.435600034618,0.0,0.0,0.0,1.74240013847,1,469.78020804120837,145.18240977652044,362.3070158720813,0.25503557937462573,-17.154172533469264,0.4503611326906531,0,Fixed-Wing
1970-01-01 00:00:48.024519488,2270,1536693113335130232,base_link,0,1,40.5914395,-79.8958356,362.375973905,0.435600034618,0.0,0.0,0.0,0.435600034618,0.0,0.0,0.0,1.74240013847,1,469.8145071589667,138.3193781744495,362.35719268174614,0.08573086255048917,-17.15419105244451,0.12541725425436825,0,Fixed-Wing
1970-01-01 00:00:48.410901664,2272,1536693113720666168,base_link,0,1,40.5913777,-79.8958356,362.37599995,0.435600034618,0.0,0.0,0.0,0.435600034618,0.0,0.0,0.0,1.74240013847,1,469.81493968418414,131.4563433714452,362.3573641864344,0.0010810995264284719,-17.154199053197733,0.00042867705688017974,0,Fixed-Wing
1970-01-01 00:00:48.814761952,2274,1536693114125658840,base_link,0,1,40.5913159,-79.8958365,362.296025091,0.409599981689,0.0,0.0,0.0,0.409599981689,0.0,0.0,0.0,1.63839992676,1,469.7391745575953,124.59330227411083,362.2775329884021,-0.189375414827728,-17.154214785915716,-0.19953858620999654,0,Fixed-Wing
1970-01-01 00:00:49.240158944,2276,1536693114551015960,base_link,0,1,40.5912541,-79.8958387,362.186048916,0.409599981689,0.0,0.0,0.0,0.409599981689,0.0,0.0,0.0,1.63839992676,1,469.55335221375935,117.7302539362934,362.16770116192527,-0.46446412792454295,-17.154232883549078,-0.27452534743589835,0,Fixed-Wing
1970-01-01 00:00:49.642806592,2278,1536693114953763608,base_link,0,1,40.5911919,-79.8958438,362.026069952,0.409599981689,0.0,0.0,0.0,0.409599981689,0.0,0.0,0.0,1.63839992676,1,469.1220214075983,110.8227686558298,362.00787794916494,-1.0781140878702526,-17.265303303756482,-0.39947913477170666,0,Fixed-Wing
1970-01-01 00:00:50.016211840,2280,1536693115327034936,base_link,0,1,40.5911295,-79.8958533,361.846086574,0.409599981689,0.0,0.0,0.0,0.409599981689,0.0,0.0,0.0,1.63839992676,1,468.31819566128115,103.89304962023519,361.8280704783732,-2.009167555200745,-17.320876715835162,-0.44942991457119574,0,Fixed-Wing
1970-01-01 00:00:50.407422656,2282,1536693115718266840,base_link,0,1,40.5910672,-79.8958692,361.616096601,0.409599981689,0.0,0.0,0.0,0.409599981689,0.0,0.0,0.0,1.63839992676,1,466.9725540388733,96.9744016512069,361.5982882288905,-3.3634397766637787,-17.29320451467906,-0.574342191123993,0,Fixed-Wing
1970-01-01 00:00:50.828561440,2284,1536693116138571896,base_link,0,1,40.5910054,-79.8958936,361.326097706,0.409599981689,0.0,0.0,0.0,0.409599981689,0.0,0.0,0.0,1.63839992676,1,464.9073100473227,90.11123489849396,361.3085408819942,-5.162090466009397,-17.154528862332043,-0.7242253327375839,0,Fixed-Wing
1970-01-01 00:00:51.227836512,2286,1536693116538703736,base_link,0,1,40.5909445,-79.8959275,360.866088693,0.409599981689,0.0,0.0,0.0,0.409599981689,0.0,0.0,0.0,1.63839992676,1,462.0377932186149,83.34796438206538,360.8488322618593,-7.172375527602767,-16.904837585648277,-1.1490446140259907,0,Fixed-Wing
1970-01-01 00:00:51.596533600,2288,1536693116907271000,base_link,0,1,40.5908859,-79.8959727,360.416067117,0.409599981689,0.0,0.0,0.0,0.409599981689,0.0,0.0,0.0,1.63839992676,1,458.21162077397224,76.84005756677922,360.39916822312307,-9.563542312000079,-16.266554393722643,-1.123938119062026,0,Fixed-Wing
1970-01-01 00:00:51.991063072,2290,1536693117301755320,base_link,0,1,40.5908312,-79.8960311,360.01603035,0.409599981689,0.0,0.0,0.0,0.409599981689,0.0,0.0,0.0,1.63839992676,1,453.26793243038526,70.76519016071654,359.9995546380042,-12.35678039483948,-15.184169641652472,-0.9988366925503636,0,Fixed-Wing
1970-01-01 00:00:52.422917600,2292,1536693117733516376,base_link,0,1,40.590783,-79.896102,359.805978004,0.435600034618,0.0,0.0,0.0,0.435600034618,0.0,0.0,0.0,1.74240013847,1,447.2659796032106,65.41210508330147,359.7899826612506,-15.001919188896812,-13.38007012968707,-0.5238264861530763,0,Fixed-Wing
1970-01-01 00:00:52.787082176,2294,1536693118097789528,base_link,0,1,40.5907429,-79.8961839,359.695910941,0.435600034618,0.0,0.0,0.0,0.435600034618,0.0,0.0,0.0,1.74240013847,1,440.33273193921286,60.95849461154717,359.68044153865844,-17.329696544926744,-11.13182764342618,-0.2737987312309166,0,Fixed-Wing
1970-01-01 00:00:53.205909376,2296,1536693118516291960,base_link,0,1,40.5907139,-79.8962749,359.815829837,0.435600034618,0.0,0.0,0.0,0.435600034618,0.0,0.0,0.0,1.74240013847,1,432.629030141734,57.737528431945975,359.80091689428485,-19.255451542017592,-8.05082541098431,0.3011289161050964,0,Fixed-Wing
1970-01-01 00:00:53.640538400,2298,1536693118951190552,base_link,0,1,40.5906972,-79.8963717,360.215737573,0.435600034618,0.0,0.0,0.0,0.435600034618,0.0,0.0,0.0,1.74240013847,1,424.43424419245457,55.8824877241216,360.20139097050384,-20.482919496598008,-4.636686024071176,1.0009874955170954,0,Fixed-Wing
1970-01-01 00:00:54.038682560,2300,1536693119349555544,base_link,0,1,40.5906941,-79.8964697,361.015638319,0.435600034618,0.0,0.0,0.0,0.435600034618,0.0,0.0,0.0,1.74240013847,1,416.1378049350124,55.53776487397181,361.00184062231506,-20.73700258559474,-0.8616369520764479,2.0007289855534043,0,Fixed-Wing
1970-01-01 00:00:54.409922496,2302,1536693119720638360,base_link,0,1,40.5907016,-79.8965644,362.285537971,0.435600034618,0.0,0.0,0.0,0.435600034618,0.0,0.0,0.0,1.74240013847,1,408.1207008081475,56.370225214102106,362.2722502249013,-20.03880265363821,2.080739904194663,3.1753968655846854,0,Fixed-Wing
1970-01-01 00:00:54.839885568,2304,1536693120150193144,base_link,0,1,40.590715,-79.8966534,363.865440986,0.435600034618,0.0,0.0,0.0,0.435600034618,0.0,0.0,0.0,1.74240013847,1,400.5861318325197,57.857932106526874,363.8526168529106,-18.832702980230884,3.718532820829806,3.9501364180806817,0,Fixed-Wing
1970-01-01 00:00:55.220027648,2306,1536693120530801336,base_link,0,1,40.5907309,-79.8967362,365.625349317,0.435600034618,0.0,0.0,0.0,0.435600034618,0.0,0.0,0.0,1.74240013847,1,393.57644003818484,59.62330769459405,365.6129446448407,-17.520769133933186,4.412567488089033,4.399950489603505,0,Fixed-Wing
1970-01-01 00:00:55.673651104,2308,1536693120984199448,base_link,0,1,40.5907463,-79.8968143,367.325262695,0.409599981689,0.0,0.0,0.0,0.409599981689,0.0,0.0,0.0,1.63839992676,1,386.96464097658617,61.33318471104511,367.3132457438775,-16.526233722836423,4.273848456057578,4.249913389697481,0,Fixed-Wing
1970-01-01 00:00:56.007932128,2310,1536693121318858584,base_link,0,1,40.5907599,-79.8968892,368.695180131,0.409599981689,0.0,0.0,0.0,0.409599981689,0.0,0.0,0.0,1.63839992676,1,380.62373855284244,62.84318467350394,368.6835294411337,-15.84912585700256,3.7742544908851374,3.4250327991627674,0,Fixed-Wing
1970-01-01 00:00:56.426199296,2312,1536693121734192248,base_link,0,1,40.5907717,-79.896962,369.615100495,0.409599981689,0.0,0.0,0.0,0.409599981689,0.0,0.0,0.0,1.63839992676,1,374.46060207960085,64.15330063618504,369.60380100806884,-15.40479873535375,3.2746431646777148,2.300224622974782,0,Fixed-Wing
1970-01-01 00:00:56.822450400,2314,1536693122133357848,base_link,0,1,40.5907812,-79.8970338,370.035022869,0.409599981689,0.0,0.0,0.0,0.409599981689,0.0,0.0,0.0,1.63839992676,1,368.38210808235976,65.20800044537029,370.0240661113136,-15.193234329322664,2.6362288677617456,1.0504552931914213,0,Fixed-Wing
1970-01-01 00:00:57.198812160,2316,1536693122509608248,base_link,0,1,40.5907889,-79.8971054,369.84494622,0.409599981689,0.0,0.0,0.0,0.409599981689,0.0,0.0,0.0,1.63839992676,1,362.32052177774625,66.06280539054254,369.83432735058176,-15.150973444278538,2.136590386329319,-0.47425323681526327,0,Fixed-Wing
1970-01-01 00:00:57.622635648,2318,1536693122933502680,base_link,0,1,40.5907945,-79.897178,369.204869445,0.409599981689,0.0,0.0,0.0,0.409599981689,0.0,0.0,0.0,1.63839992676,1,356.17426500221285,66.68439629009379,369.1945897678259,-15.362607823788306,1.5536703989743292,-1.5990281488302465,0,Fixed-Wing
1970-01-01 00:00:58.010928064,2320,1536693123321826072,base_link,0,1,40.5907981,-79.8972521,368.284791988,0.409599981689,0.0,0.0,0.0,0.409599981689,0.0,0.0,0.0,1.63839992676,1,349.90101819216625,67.08387834214466,368.274854828087,-15.68002022112283,0.9985079248120272,-2.298883319891647,0,Fixed-Wing
1970-01-01 00:00:58.410600032,2322,1536693123720234040,base_link,0,1,40.5907995,-79.897329,367.144712603,0.409599981689,0.0,0.0,0.0,0.409599981689,0.0,0.0,0.0,1.63839992676,1,343.39073023145215,67.23903698905352,367.1351271102395,-16.272506081834074,0.3878200228176411,-2.8487566651772513,0,Fixed-Wing
1970-01-01 00:00:58.831086016,2324,1536693124141649848,base_link,0,1,40.5907987,-79.8974088,365.914631187,0.409599981689,0.0,0.0,0.0,0.409599981689,0.0,0.0,0.0,1.63839992676,1,336.634942325336,67.1498739541702,365.9054062477619,-16.886134753676533,-0.22286357165288162,-3.073695101411522,0,Fixed-Wing
1970-01-01 00:00:59.236538880,2326,1536693124547402808,base_link,0,1,40.5907959,-79.8974913,364.844547861,0.409599981689,0.0,0.0,0.0,0.409599981689,0.0,0.0,0.0,1.63839992676,1,329.65059778667677,66.838603905213,364.8356904646622,-17.457413507480346,-0.7780214631540215,-2.673761389874739,0,Fixed-Wing
1970-01-01 00:00:59.603659520,2328,1536693124914185464,base_link,0,1,40.5907915,-79.8975759,363.954463072,0.409599981689,0.0,0.0,0.0,0.409599981689,0.0,0.0,0.0,1.63839992676,1,322.4884895642325,66.34965091826871,363.9459764001915,-17.901734963455368,-1.2221410944945825,-2.2238459516012963,0,Fixed-Wing
1970-01-01 00:01:00.033518784,2330,1536693125344327384,base_link,0,1,40.5907864,-79.8976618,363.394377258,0.409599981689,0.0,0.0,0.0,0.409599981689,0.0,0.0,0.0,1.63839992676,1,315.2163463156038,65.78296706640077,363.3862594789931,-18.176768209850326,-1.4164298847675973,-1.3990159973365284,0,Fixed-Wing
1970-01-01 00:01:00.430747200,2332,1536693125741508536,base_link,0,1,40.5907814,-79.8977483,363.0742908,0.409599981689,0.0,0.0,0.0,0.409599981689,0.0,0.0,0.0,1.63839992676,1,307.8934194267416,65.22739600467304,363.066535917819,-18.30370224096287,-1.3886533952737652,-0.7991510705988085,0,Fixed-Wing
1970-01-01 00:01:00.831654336,2334,1536693126142411672,base_link,0,1,40.5907768,-79.8978343,362.984204696,0.409599981689,0.0,0.0,0.0,0.409599981689,0.0,0.0,0.0,1.63839992676,1,300.6128303159516,64.71625717434614,362.97680182236616,-18.197878695932562,-1.2775947508539551,-0.2242909411712549,0,Fixed-Wing
1970-01-01 00:01:01.233297952,2336,1536693126543811160,base_link,0,1,40.5907729,-79.8979194,363.064119229,0.409599981689,0.0,0.0,0.0,0.409599981689,0.0,0.0,0.0,1.63839992676,1,293.4084375505664,64.28286682204018,363.0570557426869,-18.007425446937212,-1.083261936532443,0.20059518325312967,0,Fixed-Wing
1970-01-01 00:01:01.634375552,2338,1536693126945174520,base_link,0,1,40.5907703,-79.8980031,363.284034658,0.409599981689,0.0,0.0,0.0,0.409599981689,0.0,0.0,0.0,1.63839992676,1,286.3225660088826,63.99385742963693,363.27729563937237,-17.71118089598265,-0.7223808107979779,0.5504910197373128,0,Fixed-Wing
1970-01-01 00:01:01.999004544,2340,1536693127309720056,base_link,0,1,40.5907692,-79.8980858,363.523950489,0.409599981689,0.0,0.0,0.0,0.409599981689,0.0,0.0,0.0,1.63839992676,1,279.32134628592945,63.871436647508204,363.51752269409974,-17.499593137738106,-0.3059915219962257,0.6004490481314194,0,Fixed-Wing
1970-01-01 00:01:02.443852928,2342,1536693127754654488,base_link,0,1,40.5907693,-79.8981677,363.713866643,0.409599981689,0.0,0.0,0.0,0.409599981689,0.0,0.0,0.0,1.63839992676,1,272.38784539087106,63.88228723234266,363.7077381708185,-17.330329497570197,0.027121105667775057,0.47544479145063023,0,Fixed-Wing
1970-01-01 00:01:02.819899264,2344,1536693128130709720,base_link,0,1,40.5907695,-79.8982494,363.623782971,0.409599981689,0.0,0.0,0.0,0.409599981689,0.0,0.0,0.0,1.63839992676,1,265.47126371762334,63.90424729198668,363.61794548063733,-17.288039795259735,0.054889308471616674,-0.22443739906664506,0,Fixed-Wing
1970-01-01 00:01:03.242354080,2346,1536693128552927800,base_link,0,1,40.5907696,-79.898331,363.223699455,0.409599981689,0.0,0.0,0.0,0.409599981689,0.0,0.0,0.0,1.63839992676,1,258.56313593816145,63.91510571272957,363.218145225312,-17.266909234081,0.027140691570644533,-0.9993032759162996,0,Fixed-Wing
1970-01-01 00:01:03.592332608,2348,1536693128903245144,base_link,0,1,40.5907697,-79.8984133,362.773615234,0.409599981689,0.0,0.0,0.0,0.409599981689,0.0,0.0,0.0,1.63839992676,1,251.59574632340028,63.925968031910486,362.76833913011274,-17.415034567575837,0.027150435741230723,-1.1242931900931525,0,Fixed-Wing
1970-01-01 00:01:04.021990656,2350,1536693129332291096,base_link,0,1,40.5907695,-79.8984961,362.30353064,0.409599981689,0.0,0.0,0.0,0.409599981689,0.0,0.0,0.0,1.63839992676,1,244.58602893494225,63.90351957057348,362.2985270167267,-17.520833106606517,-0.05611007160337488,-1.1742983595390228,0,Fixed-Wing
1970-01-01 00:01:04.431126336,2352,1536693129741046776,base_link,0,1,40.5907687,-79.8985793,361.983445901,0.409599981689,0.0,0.0,0.0,0.409599981689,0.0,0.0,0.0,1.63839992676,1,237.5424569582258,63.81444673656807,361.9787089936881,-17.60545286485028,-0.2226381139860047,-0.7993871786288098,0,Fixed-Wing
1970-01-01 00:01:04.815176576,2354,1536693130125922840,base_link,0,1,40.5907675,-79.8986628,361.903361035,0.409599981689,0.0,0.0,0.0,0.409599981689,0.0,0.0,0.0,1.63839992676,1,230.4734980889566,63.680961256779085,361.8988844350878,-17.668907563929146,-0.3336478040311726,-0.19952199090756495,0,Fixed-Wing
1970-01-01 00:01:05.183185568,2356,1536693130493788536,base_link,0,1,40.5907649,-79.8987461,361.853276975,0.409599981689,0.0,0.0,0.0,0.409599981689,0.0,0.0,0.0,1.63839992676,1,223.42147649534223,63.39201003972792,361.84905381707506,-17.62657273592058,-0.7222354011361848,-0.12455194602246093,0,Fixed-Wing
1970-01-01 00:01:05.625233696,2358,1536693130936011000,base_link,0,1,40.5907625,-79.8988289,361.803193353,0.409599981689,0.0,0.0,0.0,0.409599981689,0.0,0.0,0.0,1.63839992676,1,216.41178292545024,63.12527719012252,361.7992141823995,-17.520773571949523,-0.6667004506745018,-0.12457448322843703,0,Fixed-Wing
1970-01-01 00:01:06.030851392,2360,1536693131338753272,base_link,0,1,40.5907608,-79.8989106,361.993110572,0.409599981689,0.0,0.0,0.0,0.409599981689,0.0,0.0,0.0,1.63839992676,1,209.49521868431475,62.93629254880315,361.98936386386237,-17.287996223584564,-0.47236831055707795,0.47528033579082085,0,Fixed-Wing
1970-01-01 00:01:06.457217568,2362,1536693131767677336,base_link,0,1,40.5907593,-79.898991,362.233029046,0.409599981689,0.0,0.0,0.0,0.409599981689,0.0,0.0,0.0,1.63839992676,1,202.68871034918888,62.769528265259765,362.22950359509366,-17.012910787934054,-0.41682838525237936,0.6002307824986944,0,Fixed-Wing
1970-01-01 00:01:06.817102368,2364,1536693132127617048,base_link,0,1,40.5907574,-79.8990698,362.442949333,0.409599981689,0.0,0.0,0.0,0.409599981689,0.0,0.0,0.0,1.63839992676,1,196.0176546051902,62.55835251566799,362.4396341618554,-16.674346176626848,-0.5278351265419438,0.5252226854239636,0,Fixed-Wing
1970-01-01 00:01:07.201128800,2366,1536693132511607864,base_link,0,1,40.5907555,-79.8991467,362.792871572,0.409599981689,0.0,0.0,0.0,0.409599981689,0.0,0.0,0.0,1.63839992676,1,189.50745283656576,62.34718818055825,362.7897549385257,-16.272290644158844,-0.5278065959716525,0.8751291036777249,0,Fixed-Wing
1970-01-01 00:01:07.653853024,2368,1536693132960951992,base_link,0,1,40.590754,-79.8992209,363.242796409,0.409599981689,0.0,0.0,0.0,0.409599981689,0.0,0.0,0.0,1.63839992676,1,183.2258290088958,62.18045703642119,363.23986468345015,-15.700958629845507,-0.4167455530959136,1.1250521645086977,0,Fixed-Wing
1970-01-01 00:01:08.010874688,2370,1536693133321175640,base_link,0,1,40.590753,-79.8992922,363.882724007,0.409599981689,0.0,0.0,0.0,0.409599981689,0.0,0.0,0.0,1.63839992676,1,177.1897168840241,62.06926502312973,363.8799636582,-15.087300570316593,-0.2779251430128991,1.5999314504131257,0,Fixed-Wing
1970-01-01 00:01:08.438779872,2372,1536693133749103576,base_link,0,1,40.5907527,-79.8993609,364.602653974,0.409599981689,0.0,0.0,0.0,0.409599981689,0.0,0.0,0.0,1.63839992676,1,171.37371520471066,62.03582037001442,364.60005263988705,-14.537133114493498,-0.0835951227515329,1.7998669804890282,0,Fixed-Wing
1970-01-01 00:01:08.842524448,2374,1536693134151915128,base_link,0,1,40.5907529,-79.8994271,365.282586292,0.409599981689,0.0,0.0,0.0,0.409599981689,0.0,0.0,0.0,1.63839992676,1,165.76935556423177,62.05791074903908,365.28013264571683,-14.008132495029455,0.05521504259074066,1.699864291376902,0,Fixed-Wing
1970-01-01 00:01:09.220391680,2376,1536693134531075800,base_link,0,1,40.5907527,-79.8994908,365.822521337,0.409599981689,0.0,0.0,0.0,0.409599981689,0.0,0.0,0.0,1.63839992676,1,160.37663789727503,62.03558757582678,365.8202055837388,-13.479132038814187,-0.05579691314040404,1.349915736696949,0,Fixed-Wing
1970-01-01 00:01:09.606289504,2378,1536693134916647896,base_link,0,1,40.5907528,-79.8995528,365.992457999,0.409599981689,0.0,0.0,0.0,0.409599981689,0.0,0.0,0.0,1.63839992676,1,155.12782868802879,62.046583404268944,365.9902717659288,-13.119431935308393,0.027484142987165762,0.4250815018783752,0,Fixed-Wing
1970-01-01 00:01:10.047832032,2380,1536693135358415576,base_link,0,1,40.5907526,-79.8996139,365.702395711,0.409599981689,0.0,0.0,0.0,0.409599981689,0.0,0.0,0.0,1.63839992676,1,149.9552015377602,62.024264258556826,365.7003332230025,-12.929014395328412,-0.05578684637813397,-0.7247032284282258,0,Fixed-Wing
1970-01-01 00:01:10.443802720,2382,1536693135754666744,base_link,0,1,40.5907522,-79.8996744,365.162334127,0.409599981689,0.0,0.0,0.0,0.409599981689,0.0,0.0,0.0,1.63839992676,1,144.8333645536107,61.97973677736155,365.16039026076976,-12.802064052723328,-0.11129672188561328,-1.349590861386663,0,Fixed-Wing
1970-01-01 00:01:10.832885536,2384,1536693136142732408,base_link,0,1,40.5907521,-79.8997354,364.422271912,0.409599981689,0.0,0.0,0.0,0.409599981689,0.0,0.0,0.0,1.63839992676,1,139.66919424411867,61.96852579243591,364.42044316099475,-12.907876468127599,-0.028021927983322988,-1.8495024726991633,0,Fixed-Wing
1970-01-01 00:01:11.242460064,2386,1536693136553348568,base_link,0,1,40.5907527,-79.8997973,363.462208491,0.409599981689,0.0,0.0,0.0,0.409599981689,0.0,0.0,0.0,1.63839992676,1,134.4288266610751,62.03505151657336,363.46049152707633,-13.098332037031597,0.16628146975334634,-2.399405202268607,0,Fixed-Wing
1970-01-01 00:01:11.655729824,2388,1536693136966505656,base_link,0,1,40.5907535,-79.8998607,362.312143462,0.409599981689,0.0,0.0,0.0,0.409599981689,0.0,0.0,0.0,1.63839992676,1,129.0614691770948,62.12378731546855,362.3105363350503,-13.415744100490901,0.22179569258867932,-2.8743203018054615,0,Fixed-Wing
1970-01-01 00:01:12.038934176,2390,1536693137349563800,base_link,0,1,40.5907549,-79.8999264,360.992075841,0.409599981689,0.0,0.0,0.0,0.409599981689,0.0,0.0,0.0,1.63839992676,1,123.49939547599391,62.27915344102678,360.99057715588026,-13.902438521144322,0.3883386170187169,-3.299246346771616,0,Fixed-Wing
1970-01-01 00:01:12.419841376,2392,1536693137730459736,base_link,0,1,40.5907581,-79.8999951,359.532004412,0.409599981689,0.0,0.0,0.0,0.409599981689,0.0,0.0,0.0,1.63839992676,1,117.68334400016698,62.63441237067639,359.5306120423743,-14.537257581195025,0.8879719496639614,-3.6491920683314367,0,Fixed-Wing
1970-01-01 00:01:12.833053536,2394,1536693138142871832,base_link,0,1,40.5907638,-79.9000666,357.951929086,0.409599981689,0.0,0.0,0.0,0.409599981689,0.0,0.0,0.0,1.63839992676,1,111.63024662838717,63.26730156633175,357.9506391063411,-15.129755302777234,1.5819105618024594,-3.949152382487425,0,Fixed-Wing
1970-01-01 00:01:13.201742784,2396,1536693138512429240,base_link,0,1,40.5907736,-79.9001416,356.41184848,0.409599981689,0.0,0.0,0.0,0.409599981689,0.0,0.0,0.0,1.63839992676,1,105.28084405469623,64.3555057061483,356.4106553950309,-15.870372035750282,2.7199731548433035,-3.8491990614608245,0,Fixed-Wing
1970-01-01 00:01:13.636608160,2398,1536693138947139448,base_link,0,1,40.5907886,-79.9002202,354.861762033,0.409599981689,0.0,0.0,0.0,0.409599981689,0.0,0.0,0.0,1.63839992676,1,98.62666947073986,66.02118202871452,354.8606580910897,-16.632151609947975,4.16336854112866,-3.8742280998033167,0,Fixed-Wing
1970-01-01 00:01:14.033830272,2400,1536693139344611000,base_link,0,1,40.59081,-79.9003021,353.271669552,0.409599981689,0.0,0.0,0.0,0.409599981689,0.0,0.0,0.0,1.63839992676,1,91.69312022277053,68.39759352117261,353.27064380347656,-17.330450355978005,5.939855609662315,-3.9742508044989715,0,Fixed-Wing
1970-01-01 00:01:14.391204256,2402,1536693139702027384,base_link,0,1,40.5908404,-79.9003849,351.6915724,0.409599981689,0.0,0.0,0.0,0.409599981689,0.0,0.0,0.0,1.63839992676,1,84.68337543576263,71.77347884221669,351.6906062444284,-17.520901589455843,8.438046788369498,-3.9493139081235222,0,Fixed-Wing
1970-01-01 00:01:14.811029952,2404,1536693140121626328,base_link,0,1,40.590881,-79.9004655,349.981473242,0.409599981689,0.0,0.0,0.0,0.409599981689,0.0,0.0,0.0,1.63839992676,1,77.85987447173034,76.28210109254368,349.9805414498483,-17.05538397174631,11.269329933155685,-4.274317808683014,0,Fixed-Wing
1970-01-01 00:01:15.223957312,2406,1536693140534431064,base_link,0,1,40.5909287,-79.9005443,347.761372974,0.409599981689,0.0,0.0,0.0,0.409599981689,0.0,0.0,0.0,1.63839992676,1,71.18875629484859,81.57919193445707,347.76045330404713,-16.674502228014337,13.2401121826274,-5.549124412431507,0,Fixed-Wing
1970-01-01 00:01:15.593684032,2408,1536693140903359576,base_link,0,1,40.590984,-79.9006194,344.971273329,0.409599981689,0.0,0.0,0.0,0.409599981689,0.0,0.0,0.0,1.63839992676,1,64.83087269493545,87.72027546652828,344.97033965194396,-15.891570414625953,15.349677268917405,-6.973906783668158,0,Fixed-Wing
1970-01-01 00:01:16.015103872,2410,1536693141325942584,base_link,0,1,40.5910473,-79.9006883,341.831176692,0.409599981689,0.0,0.0,0.0,0.409599981689,0.0,0.0,0.0,1.63839992676,1,58.99787198699179,94.7497738886834,341.830198758043,-14.579622294455998,17.57027592589242,-7.848802096338309,0,Fixed-Wing
