time,field.header.seq,field.header.stamp,field.header.frame_id,field.status.status,field.status.service,lat,lon,alt,field.position_covariance0,field.position_covariance1,field.position_covariance2,field.position_covariance3,field.position_covariance4,field.position_covariance5,field.position_covariance6,field.position_covariance7,field.position_covariance8,field.position_covariance_type,x,y,z,vel_x,vel_y,vel_z,track_id,uav_category
1970-01-01 00:00:00.000000000,4161,1536681799025679072,base_link,0,1,40.5916804,-79.9010803,401.980514428,0.33639998064,0.0,0.0,0.0,0.33639998064,0.0,0.0,0.0,1.34559992256,1,50.676030502227185,188.17952048699834,401.9775307363898,-8.508238270539383,17.82379977080012,-5.125640520729178,0,Fixed-Wing
1970-01-01 00:00:00.399096672,4163,1536681799424574720,base_link,0,1,40.5917446,-79.9011205,399.930446973,0.33639998064,0.0,0.0,0.0,0.33639998064,0.0,0.0,0.0,1.34559992256,1,47.27273519401143,195.3090403953184,399.9272745280981,-8.508238270539383,17.82379977080012,-5.125640520729178,0,Fixed-Wing
1970-01-01 00:00:00.803778464,4165,1536681799829398752,base_link,0,1,40.5918119,-79.9011504,397.88038874,0.33639998064,0.0,0.0,0.0,0.33639998064,0.0,0.0,0.0,1.34559992256,1,44.7414174144443,202.78282673528625,397.8770007273935,-6.3282944489178306,18.684465849919647,-5.125684501761469,0,Fixed-Wing
1970-01-01 00:00:01.174499232,4167,1536681800200271040,base_link,0,1,40.591881,-79.9011706,395.600339657,0.33639998064,0.0,0.0,0.0,0.33639998064,0.0,0.0,0.0,1.34559992256,1,43.03127898525605,210.456501576081,395.5967142068031,-4.2753460729706205,19.184187101986865,-5.700716301476092,0,Fixed-Wing
1970-01-01 00:00:01.603610240,4169,1536681800629405216,base_link,0,1,40.5919514,-79.9011789,393.120302164,0.33639998064,0.0,0.0,0.0,0.33639998064,0.0,0.0,0.0,1.34559992256,1,42.32856300164647,218.27453895626834,393.1164180174569,-1.7567899590239477,19.54509345046837,-6.2007404733654425,0,Fixed-Wing
1970-01-01 00:00:02.016683008,4171,1536681801042365728,base_link,0,1,40.5920226,-79.901174,390.590277787,0.33639998064,0.0,0.0,0.0,0.33639998064,0.0,0.0,0.0,1.34559992256,1,42.74332065303702,226.1814172288216,390.58611472287606,1.0368941284763622,19.767195681383143,-6.325758236452117,0,Fixed-Wing
1970-01-01 00:00:02.438819008,4173,1536681801452604064,base_link,0,1,40.5920938,-79.9011548,388.270267972,0.33639998064,0.0,0.0,0.0,0.33639998064,0.0,0.0,0.0,1.34559992256,1,44.368671929090446,234.08830416749737,388.26580784350045,4.063378190133573,19.76721734668942,-5.800767198439019,0,Fixed-Wing
1970-01-01 00:00:02.814527616,4175,1536681801840347200,base_link,0,1,40.5921644,-79.9011242,386.080270015,0.33639998064,0.0,0.0,0.0,0.33639998064,0.0,0.0,0.0,1.34559992256,1,46.95910703252956,241.92856508848013,386.0754980936838,6.476087758597782,19.600652302456893,-5.475774374541658,0,Fixed-Wing
1970-01-01 00:00:03.209520352,4177,1536681802235182144,base_link,0,1,40.5922341,-79.9010858,384.020280379,0.36000002861,0.0,0.0,0.0,0.36000002861,0.0,0.0,0.0,1.44000011444,1,50.20985844551825,249.6688836675615,384.01518472082006,8.126878532471729,19.350796447703402,-5.150783432159329,0,Fixed-Wing
1970-01-01 00:00:03.647098368,4179,1536681802672697600,base_link,0,1,40.592303,-79.901042,381.930296582,0.36000002861,0.0,0.0,0.0,0.36000002861,0.0,0.0,0.0,1.44000011444,1,53.917746681723216,257.32035866383,381.9248658658949,9.269720590512414,19.128687490671297,-5.225797137312895,0,Fixed-Wing
1970-01-01 00:00:04.041801952,4181,1536681803067389152,base_link,0,1,40.5923712,-79.9009955,379.710315836,0.36000002861,0.0,0.0,0.0,0.36000002861,0.0,0.0,0.0,1.44000011444,1,57.85419663917116,264.89409005943605,379.7045398797458,9.841124893619853,18.934328489015115,-5.550814965372695,0,Fixed-Wing
1970-01-01 00:00:04.403162944,4183,1536681803427295264,base_link,0,1,40.5924385,-79.9009478,377.3003367,0.409599981689,0.0,0.0,0.0,0.409599981689,0.0,0.0,0.0,1.63839992676,1,61.89222241290035,272.3678636833567,377.29420735940005,10.095064434322989,18.68443405980159,-6.025831300864439,0,Fixed-Wing
1970-01-01 00:00:04.800783168,4185,1536681803826291104,base_link,0,1,40.5925053,-79.9008976,374.870360329,0.384400005913,0.0,0.0,0.0,0.384400005913,0.0,0.0,0.0,1.53760002365,1,66.14187779297905,279.78610862441883,374.86386652521605,10.624138450196732,18.545612352655354,-6.075852085459985,0,Fixed-Wing
1970-01-01 00:00:05.245767296,4187,1536681804271582112,base_link,0,1,40.5925716,-79.9008452,372.500386417,0.36000002861,0.0,0.0,0.0,0.36000002861,0.0,0.0,0.0,1.44000011444,1,70.57776601910436,287.1488286053644,372.4935171267479,11.089720565313286,18.406799952363855,-5.92587349617034,0,Fixed-Wing
1970-01-01 00:00:05.613881376,4189,1536681804639723232,base_link,0,1,40.5926363,-79.9007896,370.100416433,0.36000002861,0.0,0.0,0.0,0.36000002861,0.0,0.0,0.0,1.44000011444,1,75.28454269183625,294.3338631660102,370.09316508852123,11.766941681829728,17.962586401614544,-6.000880095566714,0,Fixed-Wing
1970-01-01 00:00:06.014472736,4191,1536681805040373952,base_link,0,1,40.5926988,-79.9007288,367.690452654,0.36000002861,0.0,0.0,0.0,0.36000002861,0.0,0.0,0.0,1.44000011444,1,80.43151964970305,301.2745842069494,367.68281371900184,12.867442394666995,17.351802602347988,-6.025878423798474,0,Fixed-Wing
1970-01-01 00:00:06.409682656,4193,1536681805435415840,base_link,0,1,40.5927576,-79.9006596,365.460498944,0.36000002861,0.0,0.0,0.0,0.36000002861,0.0,0.0,0.0,1.44000011444,1,86.28959850683636,307.80442656925374,365.45247102368813,14.645197142833268,16.324605905760876,-5.575856738284273,0,Fixed-Wing
1970-01-01 00:00:06.789116672,4195,1536681805814962816,base_link,0,1,40.5928115,-79.9005828,363.330554981,0.36000002861,0.0,0.0,0.0,0.36000002861,0.0,0.0,0.0,1.44000011444,1,92.79105409311433,313.7901252514762,363.3221435433311,16.253638965694925,14.964246705556121,-5.325818700892597,0,Fixed-Wing
1970-01-01 00:00:07.201123488,4197,1536681806226541152,base_link,0,1,40.5928583,-79.9004965,361.550623595,0.36000002861,0.0,0.0,0.0,0.36000002861,0.0,0.0,0.0,1.44000011444,1,100.09673870051617,318.98738226164494,361.5418434178816,18.26421151850461,12.993142525421888,-4.450750313623786,0,Fixed-Wing
1970-01-01 00:00:07.577618272,4199,1536681806603546976,base_link,0,1,40.5928964,-79.9004004,360.440705744,0.384400005913,0.0,0.0,0.0,0.384400005913,0.0,0.0,0.0,1.53760002365,1,108.23205814708182,323.2185343600314,360.43157937282166,20.338298616414114,10.577880245966185,-2.7756601126498026,0,Fixed-Wing
1970-01-01 00:00:08.001190464,4201,1536681807027033376,base_link,0,1,40.5929235,-79.9002953,359.940801556,0.36000002861,0.0,0.0,0.0,0.36000002861,0.0,0.0,0.0,1.44000011444,1,117.1292948557611,326.2281615828997,359.931364635342,22.243091771698218,7.524068057170723,-1.250536843699166,0,Fixed-Wing
1970-01-01 00:00:08.417193472,4203,1536681807442978176,base_link,0,1,40.5929386,-79.9001843,360.010908289,0.36000002861,0.0,0.0,0.0,0.36000002861,0.0,0.0,0.0,1.44000011444,1,126.52602387012112,327.9052089429787,360.0012059440188,23.49182253590005,4.192618400197432,0.17460327169203538,0,Fixed-Wing
1970-01-01 00:00:08.813918336,4205,1536681807838660320,base_link,0,1,40.5929407,-79.9000701,360.861023611,0.36000002861,0.0,0.0,0.0,0.36000002861,0.0,0.0,0.0,1.44000011444,1,136.19368923001736,328.13863303313644,360.8511104178832,24.169163399740583,0.5835602253944216,2.124761184660997,0,Fixed-Wing
1970-01-01 00:00:09.246813696,4207,1536681808272707584,base_link,0,1,40.5929316,-79.8999584,362.601140991,0.36000002861,0.0,0.0,0.0,0.36000002861,0.0,0.0,0.0,1.44000011444,1,145.6497625034905,327.12832489859386,362.5910712049641,23.64018318368288,-2.5257703363564588,4.349901967702294,0,Fixed-Wing
1970-01-01 00:00:09.620602944,4209,1536681808646440928,base_link,0,1,40.5929161,-79.8998524,364.981255212,0.36000002861,0.0,0.0,0.0,0.36000002861,0.0,0.0,0.0,1.44000011444,1,154.62333726605436,325.40731551096155,364.9710627576968,22.43393690640964,-4.302523469080768,5.949978881831726,0,Fixed-Wing
1970-01-01 00:00:10.054569056,4211,1536681809079023232,base_link,0,1,40.5928998,-79.8997516,367.361364491,0.36000002861,0.0,0.0,0.0,0.36000002861,0.0,0.0,0.0,1.44000011444,1,163.15671574778472,323.5974640267916,367.3510520766265,21.33344620432588,-4.5246287104248495,5.94997329732422,0,Fixed-Wing
1970-01-01 00:00:10.418458176,4213,1536681809443618112,base_link,0,1,40.5928847,-79.8996572,369.611466784,0.47609999671,0.0,0.0,0.0,0.47609999671,0.0,0.0,0.0,1.90439998684,1,171.14830209093728,321.9208649270211,369.6010302921478,19.978965857881406,-4.191497749426247,5.624945538803274,0,Fixed-Wing
1970-01-01 00:00:10.810109824,4215,1536681809835867744,base_link,0,1,40.5928715,-79.8995672,371.511563838,0.36000002861,0.0,0.0,0.0,0.36000002861,0.0,0.0,0.0,1.44000011444,1,178.76739778256265,320.45524646289,371.5009926413368,19.04773922906344,-3.664046160327814,4.74990587297242,0,Fixed-Wing
1970-01-01 00:00:11.220128896,4217,1536681810245630240,base_link,0,1,40.592861,-79.8994808,372.731656135,0.384400005913,0.0,0.0,0.0,0.384400005913,0.0,0.0,0.0,1.53760002365,1,186.08171311394435,319.28943510007787,372.7209346556501,18.28578832845423,-2.9145284070303035,3.0498550357833665,0,Fixed-Wing
1970-01-01 00:00:11.604125600,4219,1536681810628709376,base_link,0,1,40.592852,-79.8993963,373.161745897,0.448900022364,0.0,0.0,0.0,0.448900022364,0.0,0.0,0.0,1.79560008945,1,193.23515940842043,318.2901656379736,373.1508620845794,17.883615736190208,-2.4981736552607003,1.074818572323153,0,Fixed-Wing
1970-01-01 00:00:12.008909600,4221,1536681811034689504,base_link,0,1,40.5928454,-79.8993135,373.051832956,0.396899993992,0.0,0.0,0.0,0.396899993992,0.0,0.0,0.0,1.58759997597,1,200.24466973199034,317.55739824848825,373.04076986270877,17.523775808924782,-1.8319184737133298,-0.2752305546765399,0,Fixed-Wing
1970-01-01 00:00:12.406469408,4223,1536681811431563936,base_link,0,1,40.5928418,-79.8992325,372.481916964,0.396899993992,0.0,0.0,0.0,0.396899993992,0.0,0.0,0.0,1.58759997597,1,207.10177669323605,317.1577679791585,372.4706551556907,17.142767403114263,-0.99907567332437,-1.4252867675452308,0,Fixed-Wing
1970-01-01 00:00:12.819283456,4225,1536681811845110496,base_link,0,1,40.5928408,-79.8991522,371.521999202,0.372100017452,0.0,0.0,0.0,0.372100017452,0.0,0.0,0.0,1.48840006981,1,213.8996028106409,317.0468595506776,371.5105188978318,16.994565293512167,-0.27727107120227856,-2.4003406446472297,0,Fixed-Wing
1970-01-01 00:00:13.223707712,4227,1536681812249628384,base_link,0,1,40.5928426,-79.8990708,370.382081424,0.372100017452,0.0,0.0,0.0,0.372100017452,0.0,0.0,0.0,1.48840006981,1,220.79053293349295,317.2468981769201,370.37035667497054,17.2273253071301,0.5000965656063272,-2.850405557153124,0,Fixed-Wing
1970-01-01 00:00:13.606873344,4229,1536681812632440128,base_link,0,1,40.592847,-79.8989883,369.26216371,0.372100017452,0.0,0.0,0.0,0.372100017452,0.0,0.0,0.0,1.48840006981,1,227.7745733680724,317.7356834195843,369.25016934346775,17.460101086448603,1.2219631066604109,-2.8004683287569776,0,Fixed-Wing
1970-01-01 00:00:14.005577184,4231,1536681813031307456,base_link,0,1,40.5928525,-79.8989035,368.7222479,0.372100017452,0.0,0.0,0.0,0.372100017452,0.0,0.0,0.0,1.48840006981,1,234.95333593912832,318.34666790516945,368.7099629719306,17.946906427639817,1.5274612139629085,-1.3505159288428104,0,Fixed-Wing
1970-01-01 00:00:14.406392576,4233,1536681813432020832,base_link,0,1,40.5928597,-79.8988179,368.552332219,0.372100017452,0.0,0.0,0.0,0.372100017452,0.0,0.0,0.0,1.48840006981,1,242.1998285375335,319.1464691616085,368.539736565206,18.116231496012958,1.9995031410975628,-0.42556601681155826,0,Fixed-Wing
1970-01-01 00:00:14.831777216,4235,1536681813857626784,base_link,0,1,40.5928669,-79.8987316,368.242417263,0.372100017452,0.0,0.0,0.0,0.372100017452,0.0,0.0,0.0,1.48840006981,1,249.5055726758829,319.94627236514,368.2295002489683,18.264360345873456,1.999508008828741,-0.775590790594265,0,Fixed-Wing
1970-01-01 00:00:15.177582720,4237,1536681814203140608,base_link,0,1,40.5928733,-79.8986452,368.112502749,0.384400005913,0.0,0.0,0.0,0.384400005913,0.0,0.0,0.0,1.53760002365,1,256.8197903991398,320.6572500387004,368.0992600564201,18.28554430814222,1.7774441839010535,-0.3256004813704294,0,Fixed-Wing
1970-01-01 00:00:15.611802720,4239,1536681814637579776,base_link,0,1,40.592879,-79.8985584,368.232588943,0.384400005913,0.0,0.0,0.0,0.384400005913,0.0,0.0,0.0,1.53760002365,1,264.1678817728299,321.2905119558595,368.21901463940765,18.37022843422531,1.5831547928976875,0.2993864574688132,0,Fixed-Wing
1970-01-01 00:00:16.010228704,4241,1536681815032706368,base_link,0,1,40.5928837,-79.8984724,368.352674743,0.372100017452,0.0,0.0,0.0,0.372100017452,0.0,0.0,0.0,1.48840006981,1,271.44825172098024,321.81272619868764,368.3387688095933,18.200924870375843,1.305535607070425,0.29938542546418034,0,Fixed-Wing
1970-01-01 00:00:16.424284352,4243,1536681815449719168,base_link,0,1,40.5928868,-79.8983877,368.402759885,0.372100017452,0.0,0.0,0.0,0.372100017452,0.0,0.0,0.0,1.48840006981,1,278.6185722089125,322.15725594739166,368.3885277797683,17.925801219830646,0.8613243717600483,0.12439742543747911,0,Fixed-Wing
1970-01-01 00:00:16.819106496,4245,1536681815844799808,base_link,0,1,40.5928891,-79.8983038,368.392844552,0.372100017452,0.0,0.0,0.0,0.372100017452,0.0,0.0,0.0,1.48840006981,1,285.72116837515364,322.412944980657,368.3782857385531,17.756490415602855,0.639222583163388,-0.025605103038088828,0,Fixed-Wing
1970-01-01 00:00:17.213184768,4247,1536681816238471616,base_link,0,1,40.5928919,-79.8982199,368.182929025,0.372100017452,0.0,0.0,0.0,0.372100017452,0.0,0.0,0.0,1.48840006981,1,292.8237526808593,322.7241568736647,368.1680327807353,17.75646076426412,0.7780297325192009,-0.5256323945444308,0,Fixed-Wing
1970-01-01 00:00:17.601891488,4249,1536681816627467680,base_link,0,1,40.5928937,-79.8981366,367.703013308,0.372100017452,0.0,0.0,0.0,0.372100017452,0.0,0.0,0.0,1.48840006981,1,299.87553435768643,322.92430729780733,367.6877797431483,17.62945419206787,0.5003760603565865,-1.2006325939674412,0,Fixed-Wing
1970-01-01 00:00:18.019166752,4251,1536681817044986208,base_link,0,1,40.5928956,-79.8980528,367.123098072,0.396899993992,0.0,0.0,0.0,0.396899993992,0.0,0.0,0.0,1.58759997597,1,306.9696371282866,323.1355662730036,367.10751679449123,17.735256926500398,0.5281474379906115,-1.450657371642734,0,Fixed-Wing
1970-01-01 00:00:18.435711040,4253,1536681817461423168,base_link,0,1,40.5928971,-79.8979683,366.493183727,0.396899993992,0.0,0.0,0.0,0.396899993992,0.0,0.0,0.0,1.58759997597,1,314.1229965285042,323.3024109383807,366.4772461964491,17.88339850054399,0.4171116634428529,-1.575676495105398,0,Fixed-Wing
1970-01-01 00:00:18.803333120,4255,1536681817829153408,base_link,0,1,40.5928982,-79.8978835,366.143269864,0.396899993992,0.0,0.0,0.0,0.396899993992,0.0,0.0,0.0,1.58759997597,1,321.30176686699195,323.424856789033,366.1269690420315,17.946925846219415,0.3061146266307446,-0.8756928860439928,0,Fixed-Wing
1970-01-01 00:00:19.213515712,4257,1536681818239344704,base_link,0,1,40.5928991,-79.8977989,366.063355892,0.396899993992,0.0,0.0,0.0,0.396899993992,0.0,0.0,0.0,1.58759997597,1,328.4636199336314,323.5251120358415,366.0466857087992,17.90463266659856,0.2506381170212535,-0.2007083330806836,0,Fixed-Wing
1970-01-01 00:00:19.604452896,4259,1536681818630333536,base_link,0,1,40.5929006,-79.8977147,366.143441275,0.396899993992,0.0,0.0,0.0,0.396899993992,0.0,0.0,0.0,1.58759997597,1,335.5916158051053,323.69201223568365,366.1263920882752,17.81998967868475,0.41725049960533056,0.19926594869005498,0,Fixed-Wing
1970-01-01 00:00:20.011422272,4261,1536681819037334816,base_link,0,1,40.5929017,-79.8976309,366.253526427,0.396899993992,0.0,0.0,0.0,0.396899993992,0.0,0.0,0.0,1.58759997597,1,342.6857529593371,323.8144982516811,366.23609435430035,17.73534288557954,0.30621503999356037,0.2742556650628103,0,Fixed-Wing
1970-01-01 00:00:20.410401472,4263,1536681819436277632,base_link,0,1,40.5929027,-79.8975474,366.253611325,0.396899993992,0.0,0.0,0.0,0.396899993992,0.0,0.0,0.0,1.58759997597,1,349.7544879527659,323.9258789858147,366.23579044120703,17.671837483571977,0.2784518353340104,-0.0007597827332972429,0,Fixed-Wing
1970-01-01 00:00:20.798538176,4265,1536681819824382944,base_link,0,1,40.5929044,-79.8974643,366.113695538,0.396899993992,0.0,0.0,0.0,0.396899993992,0.0,0.0,0.0,1.58759997597,1,356.78934896547247,324.11499437864705,366.0954759522513,17.587152531766463,0.4727884820809436,-0.35078622238927437,0,Fixed-Wing
1970-01-01 00:00:21.212539072,4267,1536681820238508544,base_link,0,1,40.5929057,-79.8973806,365.843780539,0.396899993992,0.0,0.0,0.0,0.396899993992,0.0,0.0,0.0,1.58759997597,1,363.8749974129295,324.2596912806022,365.8251538678315,17.71412111864251,0.361742254887929,-0.6758052110495782,0,Fixed-Wing
1970-01-01 00:00:21.622082720,4269,1536681820648020544,base_link,0,1,40.5929057,-79.8972967,365.623866293,0.396899993992,0.0,0.0,0.0,0.396899993992,0.0,0.0,0.0,1.58759997597,1,370.9775861866788,324.2600301402699,365.6048310476792,17.756471934373366,0.0008471491692318978,-0.550807050380655,0,Fixed-Wing
1970-01-01 00:00:22.020291136,4271,1536681821044178208,base_link,0,1,40.5929054,-79.8972126,365.473952387,0.396899993992,0.0,0.0,0.0,0.396899993992,0.0,0.0,0.0,1.58759997597,1,378.0971114136019,324.22706446651574,365.4545013663456,17.79881306730772,-0.08241418438544201,-0.3758242033340764,0,Fixed-Wing
1970-01-01 00:00:22.397370144,4273,1536681821420396256,base_link,0,1,40.5929052,-79.8971288,365.494038145,0.372100017452,0.0,0.0,0.0,0.372100017452,0.0,0.0,0.0,1.48840006981,1,385.1912493818003,324.205218183321,365.4741643759504,17.73534492049592,-0.05461570798686921,0.04915752401203122,0,Fixed-Wing
1970-01-01 00:00:22.813062400,4275,1536681821838067840,base_link,0,1,40.5929048,-79.897046,365.644122975,0.372100017452,0.0,0.0,0.0,0.372100017452,0.0,0.0,0.0,1.48840006981,1,392.20074102943573,324.1611703364124,365.62382490707336,17.523729119088642,-0.11011961727149355,0.37415132780736826,0,Fixed-Wing
1970-01-01 00:00:23.222482592,4277,1536681822248415584,base_link,0,1,40.5929039,-79.8969636,365.714207614,0.372100017452,0.0,0.0,0.0,0.372100017452,0.0,0.0,0.0,1.48840006981,1,399.17636883802385,324.06159697347806,365.69348250344865,17.439069521470287,-0.24893340733584068,0.17414399093823363,0,Fixed-Wing
1970-01-01 00:00:23.614013312,4279,1536681822639815360,base_link,0,1,40.5929032,-79.8968816,365.654291773,0.372100017452,0.0,0.0,0.0,0.372100017452,0.0,0.0,0.0,1.48840006981,1,406.1181252859494,323.98423215787074,365.63313302044406,17.354391119813926,-0.1934120390183125,-0.15087370751146523,0,Fixed-Wing
1970-01-01 00:00:24.010081792,4281,1536681823035543808,base_link,0,1,40.5929022,-79.8967991,365.604376579,0.372100017452,0.0,0.0,0.0,0.372100017452,0.0,0.0,0.0,1.48840006981,1,413.1022120214451,323.8735609333614,365.58277559679436,17.4602168387392,-0.276678061273401,-0.1258935591242505,0,Fixed-Wing
1970-01-01 00:00:24.445967968,4283,1536681823471872480,base_link,0,1,40.5929018,-79.8967173,365.584460432,0.372100017452,0.0,0.0,0.0,0.372100017452,0.0,0.0,0.0,1.48840006981,1,420.0270381775623,323.82952589827147,365.5624100879072,17.312065390293014,-0.11008758772476313,-0.05091377221788207,0,Fixed-Wing
1970-01-01 00:00:24.820201600,4285,1536681823845873472,base_link,0,1,40.5929006,-79.8966348,365.554545344,0.372100017452,0.0,0.0,0.0,0.372100017452,0.0,0.0,0.0,1.48840006981,1,427.01112768850624,323.6966582401248,365.53203868932667,17.46022377735983,-0.3321691453666631,-0.07592849645135402,0,Fixed-Wing
1970-01-01 00:00:25.226014624,4287,1536681824251749792,base_link,0,1,40.5928975,-79.8965522,365.504631155,0.372100017452,0.0,0.0,0.0,0.372100017452,0.0,0.0,0.0,1.48840006981,1,434.00369386406777,323.35279699265044,365.48167070029933,17.481415438903838,-0.8596531186859124,-0.1259199725683402,0,Fixed-Wing
1970-01-01 00:00:25.628613504,4289,1536681824654487328,base_link,0,1,40.5928898,-79.8964686,365.214719902,0.372100017452,0.0,0.0,0.0,0.372100017452,0.0,0.0,0.0,1.48840006981,1,441.0809297992981,322.49809399578714,365.1913180391884,17.693089838075764,-2.136757492158239,-0.7258816527773604,0,Fixed-Wing
1970-01-01 00:00:26.026900192,4291,1536681825047652736,base_link,0,1,40.5928767,-79.8963851,365.044810794,0.372100017452,0.0,0.0,0.0,0.372100017452,0.0,0.0,0.0,1.48840006981,1,448.1497456291183,321.043720296609,365.02099044527074,17.672039574550524,-3.6359342479453005,-0.4258189847941196,0,Fixed-Wing
1970-01-01 00:00:26.389108320,4293,1536681825414706208,base_link,0,1,40.5928568,-79.8963028,364.914903285,0.372100017452,0.0,0.0,0.0,0.372100017452,0.0,0.0,0.0,1.48840006981,1,455.11702607622385,318.8341927649694,364.8907014136997,17.418201117763914,-5.5238188290991275,-0.3257225789276674,0,Fixed-Wing
1970-01-01 00:00:26.795011584,4295,1536681825820795584,base_link,0,1,40.5928292,-79.8962217,364.63499775,0.372100017452,0.0,0.0,0.0,0.372100017452,0.0,0.0,0.0,1.48840006981,1,461.98276575536346,315.7695545266336,364.61045582595807,17.16434919784902,-7.661595595839401,-0.7006139693540092,0,Fixed-Wing
1970-01-01 00:00:27.226490560,4297,1536681826252304832,base_link,0,1,40.5927926,-79.8961444,364.365092071,0.372100017452,0.0,0.0,0.0,0.372100017452,0.0,0.0,0.0,1.48840006981,1,468.5268824750008,311.7054315228153,364.34027388151287,16.36029179909329,-10.160307509545845,-0.6754548611129962,0,Fixed-Wing
1970-01-01 00:00:27.599573440,4299,1536681826624639456,base_link,0,1,40.5927459,-79.8960732,364.335184353,0.372100017452,0.0,0.0,0.0,0.372100017452,0.0,0.0,0.0,1.48840006981,1,474.55469508215106,306.5196640740532,364.3101731097418,15.069531517875703,-12.964418621905196,-0.07525192942765102,0,Fixed-Wing
1970-01-01 00:00:28.022316544,4301,1536681827048114944,base_link,0,1,40.5926901,-79.8960108,364.38527142,0.372100017452,0.0,0.0,0.0,0.372100017452,0.0,0.0,0.0,1.48840006981,1,479.8376160334318,300.3232805251068,364.3601609881108,13.20730237820186,-15.490958872366036,0.12496969592248774,0,Fixed-Wing
1970-01-01 00:00:28.419399744,4303,1536681827445339136,base_link,0,1,40.5926266,-79.8959597,364.485350134,0.372100017452,0.0,0.0,0.0,0.372100017452,0.0,0.0,0.0,1.48840006981,1,484.1639936852605,293.27173729864194,364.46024216099795,10.815944129571733,-17.62885806616211,0.25020293221786005,0,Fixed-Wing
1970-01-01 00:00:28.827320256,4305,1536681827850212160,base_link,0,1,40.5925566,-79.895924,364.865415798,0.372100017452,0.0,0.0,0.0,0.372100017452,0.0,0.0,0.0,1.48840006981,1,487.1867461587684,285.4982830627068,364.8404315326304,7.556881183769804,-19.433635589837905,0.9504734290811712,0,Fixed-Wing
1970-01-01 00:00:29.209230528,4307,1536681828235071072,base_link,0,1,40.5924828,-79.8959046,365.545466367,0.372100017452,0.0,0.0,0.0,0.372100017452,0.0,0.0,0.0,1.48840006981,1,488.82966180049027,277.3027525085715,365.5207190382847,4.107289104304641,-20.488826385338257,1.700718764135729,0,Fixed-Wing
1970-01-01 00:00:29.605944064,4309,1536681828631741504,base_link,0,1,40.5924081,-79.8958989,366.275503298,0.372100017452,0.0,0.0,0.0,0.372100017452,0.0,0.0,0.0,1.48840006981,1,489.31280195972465,269.0071993819441,366.2510751076758,1.2078503980859523,-20.73888281656849,1.82589017347766,0,Fixed-Wing
1970-01-01 00:00:29.994945664,4311,1536681829020827328,base_link,0,1,40.5923348,-79.8959038,366.985528808,0.372100017452,0.0,0.0,0.0,0.372100017452,0.0,0.0,0.0,1.48840006981,1,488.89857482148443,260.86705818374566,366.9614712790501,-1.0355678456005535,-20.350352995496053,1.7759904284358186,0,Fixed-Wing
1970-01-01 00:00:30.425998176,4313,1536681829451906720,base_link,0,1,40.5922637,-79.8959161,367.915545839,0.372100017452,0.0,0.0,0.0,0.372100017452,0.0,0.0,0.0,1.48840006981,1,487.8578901541001,252.97119841333904,367.8918867002671,-2.60171166846078,-19.73964942601654,2.32603855304248,0,Fixed-Wing
1970-01-01 00:00:30.798050080,4315,1536681829823931392,base_link,0,1,40.5921958,-79.8959319,368.94555797,0.372100017452,0.0,0.0,0.0,0.372100017452,0.0,0.0,0.0,1.48840006981,1,486.52088965245963,245.43068899971033,368.92229613511773,-3.3425012541012222,-18.85127353407178,2.576023587126599,0,Fixed-Wing
1970-01-01 00:00:31.257317792,4317,1536681830282191648,base_link,0,1,40.5921299,-79.8959481,369.835568876,0.33639998064,0.0,0.0,0.0,0.33639998064,0.0,0.0,0.0,1.34559992256,1,485.1499982848581,238.11227501060114,369.812689394623,-3.427228419003825,-18.296034972772972,2.22598314876322,0,Fixed-Wing
1970-01-01 00:00:31.613131328,4319,1536681830638750592,base_link,0,1,40.5920654,-79.8959634,370.365580139,0.33639998064,0.0,0.0,0.0,0.33639998064,0.0,0.0,0.0,1.34559992256,1,483.85525749901444,230.94932468788562,370.34306288833363,-3.2368519646091443,-17.907375806788792,1.325933734276532,0,Fixed-Wing
1970-01-01 00:00:32.008451008,4321,1536681831034280896,base_link,0,1,40.5920018,-79.8959774,370.245592378,0.33639998064,0.0,0.0,0.0,0.33639998064,0.0,0.0,0.0,1.34559992256,1,482.67051221970837,223.88630498247437,370.2234172056379,-2.9618631982651777,-17.657549263528125,-0.2991142067394037,0,Fixed-Wing
1970-01-01 00:00:32.420207680,4323,1536681831446009696,base_link,0,1,40.5919386,-79.8959889,369.845607032,0.384400005913,0.0,0.0,0.0,0.384400005913,0.0,0.0,0.0,1.53760002365,1,481.69738284656387,216.867710934819,369.8237484060554,-2.4328234328612552,-17.546485119138424,-0.9991719989561432,0,Fixed-Wing
1970-01-01 00:00:32.801892928,4325,1536681831827658912,base_link,0,1,40.5918745,-79.8959984,369.245624132,0.36000002861,0.0,0.0,0.0,0.36000002861,0.0,0.0,0.0,1.44000011444,1,480.8935569689433,209.74917507336087,369.22406471530485,-2.00956469405142,-17.79633965364532,-1.4992092268764168,0,Fixed-Wing
1970-01-01 00:00:33.220551392,4327,1536681832246231840,base_link,0,1,40.5918101,-79.8960055,368.48564384,0.384400005913,0.0,0.0,0.0,0.384400005913,0.0,0.0,0.0,1.53760002365,1,480.29289657031194,202.5973329733201,368.46436135304475,-1.5016509965784053,-17.879605250101918,-1.8992584056502437,0,Fixed-Wing
1970-01-01 00:00:33.594654848,4329,1536681832620278464,base_link,0,1,40.5917452,-79.8960092,367.625667264,0.547600014114,0.0,0.0,0.0,0.547600014114,0.0,0.0,0.0,2.19040005646,1,479.9800651868167,195.38998194464483,367.60463369293916,-0.7820784587380558,-18.01837757168819,-2.1493191502639775,0,Fixed-Wing
1970-01-01 00:00:33.997214496,4331,1536681833023148160,base_link,0,1,40.5916793,-79.8960095,366.835694616,0.384400005913,0.0,0.0,0.0,0.384400005913,0.0,0.0,0.0,1.53760002365,1,479.9550798921693,188.07160112777336,366.81488344402294,-0.06246323661855513,-18.29595204217867,-1.9743756222905517,0,Fixed-Wing
1970-01-01 00:00:34.408708032,4333,1536681833434296640,base_link,0,1,40.5916118,-79.8960072,366.365725329,0.435600034618,0.0,0.0,0.0,0.435600034618,0.0,0.0,0.0,1.74240013847,1,480.1502387546553,180.5755616093869,366.3451166395217,0.4878971562149559,-18.740098795966134,-1.174417011253155,0,Fixed-Wing
1970-01-01 00:00:34.790857760,4335,1536681833815293568,base_link,0,1,40.591544,-79.8960022,366.335758962,0.36000002861,0.0,0.0,0.0,0.36000002861,0.0,0.0,0.0,1.44000011444,1,480.5740078817621,173.04623426573136,366.31532762895097,1.0594228177670573,-18.82331835913888,-0.07447252642677427,0,Fixed-Wing
1970-01-01 00:00:35.203665344,4337,1536681834225444608,base_link,0,1,40.591476,-79.8959947,366.595795268,0.396899993992,0.0,0.0,0.0,0.396899993992,0.0,0.0,0.0,1.58759997597,1,481.2094445649419,165.4947178248862,366.5755169900199,1.588591707949547,-18.87879110211287,0.6504734026722758,0,Fixed-Wing
1970-01-01 00:00:35.585477120,4339,1536681834610712032,base_link,0,1,40.5914082,-79.8959859,366.845832848,0.409599981689,0.0,0.0,0.0,0.409599981689,0.0,0.0,0.0,1.63839992676,1,481.95493509645326,157.9654182592289,366.8256897441437,1.8637263287783412,-18.823248914143278,0.6254318853095242,0,Fixed-Wing
1970-01-01 00:00:36.009236224,4341,1536681835035085888,base_link,0,1,40.591341,-79.895977,366.775870303,0.36000002861,0.0,0.0,0.0,0.36000002861,0.0,0.0,0.0,1.44000011444,1,482.7088644484865,150.50274269885068,366.75585116173875,1.8848233800831338,-18.65668890094554,-0.17459645601235252,0,Fixed-Wing
1970-01-01 00:00:36.410649376,4343,1536681835436362592,base_link,0,1,40.5912742,-79.8959688,366.445906894,0.36000002861,0.0,0.0,0.0,0.36000002861,0.0,0.0,0.0,1.44000011444,1,483.4035123929423,143.0844787433018,366.42600636381155,1.7366198611394168,-18.545659888872237,-0.8246119948179853,0,Fixed-Wing
1970-01-01 00:00:36.776182656,4345,1536681835801316000,base_link,0,1,40.5912076,-79.895962,366.045941988,0.36000002861,0.0,0.0,0.0,0.36000002861,0.0,0.0,0.0,1.44000011444,1,483.9796341139123,135.6884169986538,366.0261598506271,1.4403043024250906,-18.490154361619986,-0.9996162829611421,0,Fixed-Wing
1970-01-01 00:00:37.257274432,4347,1536681836270435680,base_link,0,1,40.5911406,-79.8959565,365.545975939,0.36000002861,0.0,0.0,0.0,0.36000002861,0.0,0.0,0.0,1.44000011444,1,484.44569708817227,128.2479261896081,365.52631278966203,1.1651574356498884,-18.60122702261421,-1.2496176524126668,0,Fixed-Wing
1970-01-01 00:00:37.644759808,4349,1536681836670633344,base_link,0,1,40.5910727,-79.895954,364.976007215,0.33639998064,0.0,0.0,0.0,0.33639998064,0.0,0.0,0.0,1.34559992256,1,484.65778852221314,120.70747167566864,364.9564754902932,0.5302285851021793,-18.851136284848664,-1.4245932484220702,0,Fixed-Wing
1970-01-01 00:00:38.016686176,4351,1536681837042377120,base_link,0,1,40.5910042,-79.8959577,364.446032403,0.372100017452,0.0,0.0,0.0,0.372100017452,0.0,0.0,0.0,1.48840006981,1,484.34500848745586,113.10035377794628,364.4266641653579,-0.7819500868932039,-19.017794744305903,-1.3245283123382023,0,Fixed-Wing
1970-01-01 00:00:38.442648672,4353,1536681837468512704,base_link,0,1,40.5909345,-79.8959667,363.986052681,0.372100017452,0.0,0.0,0.0,0.372100017452,0.0,0.0,0.0,1.48840006981,1,483.5835543038613,105.35994645803626,363.9668750143958,-1.9036354589863436,-19.35101829977505,-1.1494728774053442,0,Fixed-Wing
1970-01-01 00:00:38.822515680,4355,1536681837848326816,base_link,0,1,40.5908648,-79.895984,363.51606446,0.372100017452,0.0,0.0,0.0,0.372100017452,0.0,0.0,0.0,1.48840006981,1,482.11943563178016,97.6194947993599,363.4971209318551,-3.6602966802028902,-19.35112914669091,-1.174385206351758,0,Fixed-Wing
1970-01-01 00:00:39.182790976,4357,1536681838208696448,base_link,0,1,40.5907965,-79.8960119,363.246064783,0.372100017452,0.0,0.0,0.0,0.372100017452,0.0,0.0,0.0,1.48840006981,1,479.757942384926,90.03446297265552,363.22741090758274,-5.903733117135346,-18.96257956676095,-0.6742750606808556,0,Fixed-Wing
1970-01-01 00:00:39.594049120,4359,1536681838619608928,base_link,0,1,40.5907305,-79.8960523,363.116051315,0.422499969006,0.0,0.0,0.0,0.422499969006,0.0,0.0,0.0,1.68999987602,1,476.33821029094923,82.70478713951007,363.0977528684752,-8.549330234941976,-18.32418958286361,-0.3241450977688487,0,Fixed-Wing
1970-01-01 00:00:40.025180064,4361,1536681839051030976,base_link,0,1,40.5906692,-79.8961048,362.906023444,0.422499969006,0.0,0.0,0.0,0.422499969006,0.0,0.0,0.0,1.68999987602,1,471.8940666343637,75.8969933888695,362.8881397076801,-11.110359141463846,-17.019484376601426,-0.524032901987681,0,Fixed-Wing
1970-01-01 00:00:40.406968640,4363,1536681839432671552,base_link,0,1,40.5906146,-79.8961712,362.965978469,0.47609999671,0.0,0.0,0.0,0.47609999671,0.0,0.0,0.0,1.90439998684,1,466.2731363310692,69.83318271366366,362.9485769592542,-14.05232575823618,-15.159526688014608,0.1510931289351447,0,Fixed-Wing
1970-01-01 00:00:40.818596640,4365,1536681839843521728,base_link,0,1,40.5905689,-79.8962485,363.095918533,0.384400005913,0.0,0.0,0.0,0.384400005913,0.0,0.0,0.0,1.53760002365,1,459.729363415275,64.75768577901198,363.07904502879705,-16.359432289485625,-12.688742336629204,0.3261701738571787,0,Fixed-Wing
1970-01-01 00:00:41.245832224,4367,1536681840271579680,base_link,0,1,40.590535,-79.8963355,363.405843634,0.384400005913,0.0,0.0,0.0,0.384400005913,0.0,0.0,0.0,1.53760002365,1,452.36432680698704,60.99256389627877,363.38953317070525,-18.412591520719843,-9.412804706833029,0.7762203547704871,0,Fixed-Wing
1970-01-01 00:00:41.621372544,4369,1536681840646816544,base_link,0,1,40.5905131,-79.8964267,363.925759333,0.396899993992,0.0,0.0,0.0,0.396899993992,0.0,0.0,0.0,1.58759997597,1,444.64365120613036,58.56005785306138,363.9100138328489,-19.3016890021417,-6.081265108043468,1.3012016553591366,0,Fixed-Wing
1970-01-01 00:00:42.008990848,4371,1536681841033878944,base_link,0,1,40.5905027,-79.8965203,364.52566769,0.384400005913,0.0,0.0,0.0,0.384400005913,0.0,0.0,0.0,1.53760002365,1,436.7197193559547,57.40465039305133,364.5104793967581,-19.809829625439193,-2.8885186500251336,1.5011639097730267,0,Fixed-Wing
1970-01-01 00:00:42.393813472,4373,1536681841419366112,base_link,0,1,40.5905032,-79.8966119,365.315573478,0.384400005913,0.0,0.0,0.0,0.384400005913,0.0,0.0,0.0,1.53760002365,1,428.9650438594231,57.45973346699165,365.3009101712985,-19.38668874132901,0.13770768485080964,1.9760769363509212,0,Fixed-Wing
1970-01-01 00:00:42.851318784,4375,1536681841876586784,base_link,0,1,40.5905121,-79.8966989,366.485480431,0.384400005913,0.0,0.0,0.0,0.384400005913,0.0,0.0,0.0,1.53760002365,1,421.599768413794,58.44769020853914,366.4712985070108,-18.413188614072737,2.469891853868731,2.9259708392807227,0,Fixed-Wing
1970-01-01 00:00:43.224683936,4377,1536681842250199008,base_link,0,1,40.5905239,-79.8967811,367.725391091,0.384400005913,0.0,0.0,0.0,0.384400005913,0.0,0.0,0.0,1.53760002365,1,414.64084009820414,59.75772985168709,367.71165252272147,-17.39732078897461,3.2750991078698632,3.100885039276733,0,Fixed-Wing
1970-01-01 00:00:43.658099168,4379,1536681842683985280,base_link,0,1,40.5905365,-79.8968589,368.805305938,0.384400005913,0.0,0.0,0.0,0.384400005913,0.0,0.0,0.0,1.53760002365,1,408.0543942412229,61.15663729898836,368.79197823628544,-16.466114642453107,3.497268618253173,2.700814283909949,0,Fixed-Wing
1970-01-01 00:00:44.012692096,4381,1536681843038476448,base_link,0,1,40.5905488,-79.8969339,369.535223797,0.384400005913,0.0,0.0,0.0,0.384400005913,0.0,0.0,0.0,1.53760002365,1,401.7049724562183,62.522244636432276,369.52228528541286,-15.873554462511521,3.414018343609797,1.825767622818546,0,Fixed-Wing
1970-01-01 00:00:44.443827264,4383,1536681843469442976,base_link,0,1,40.5905598,-79.8970071,369.695144066,0.435600034618,0.0,0.0,0.0,0.435600034618,0.0,0.0,0.0,1.74240013847,1,395.5079093478933,63.74349186632185,369.6825801564747,-15.492657770812457,3.053118074723926,0.400737177654662,0,Fixed-Wing
1970-01-01 00:00:44.803216096,4385,1536681843828758080,base_link,0,1,40.5905697,-79.8970792,369.255065941,0.435600034618,0.0,0.0,0.0,0.435600034618,0.0,0.0,0.0,1.74240013847,1,389.40394217826196,64.84258535751158,369.2428659578892,-15.259917924078366,2.7477337279743352,-1.0992854964638354,0,Fixed-Wing
1970-01-01 00:00:45.256120576,4387,1536681844281754880,base_link,0,1,40.5905781,-79.8971518,368.36498795,0.435600034618,0.0,0.0,0.0,0.435600034618,0.0,0.0,0.0,1.74240013847,1,383.25762994364027,65.77509820770786,368.35315013276636,-15.365780586554223,2.331282125490688,-2.224289562807087,0,Fixed-Wing
1970-01-01 00:00:45.601689984,4389,1536681844627372416,base_link,0,1,40.5905843,-79.8972261,367.23490916,0.435600034618,0.0,0.0,0.0,0.435600034618,0.0,0.0,0.0,1.74240013847,1,376.96739968955086,66.46329076559186,367.22343850952075,-15.725575635223521,1.7204813947100206,-2.82427905811403,0,Fixed-Wing
1970-01-01 00:00:46.036561888,4391,1536681845062014336,base_link,0,1,40.5905885,-79.8973028,365.994828769,0.435600034618,0.0,0.0,0.0,0.435600034618,0.0,0.0,0.0,1.74240013847,1,370.47399711722176,66.92937234425352,365.98373314351,-16.233506430822757,1.1652039466541453,-3.0992634150268827,0,Fixed-Wing
1970-01-01 00:00:46.383823520,4393,1536681845407204864,base_link,0,1,40.5905901,-79.8973819,364.824747031,0.435600034618,0.0,0.0,0.0,0.435600034618,0.0,0.0,0.0,1.74240013847,1,363.77743564315034,67.10671406000915,364.814034420266,-16.74140368517854,0.4433542893890774,-2.924246808109956,0,Fixed-Wing
1970-01-01 00:00:46.801704032,4395,1536681845824562144,base_link,0,1,40.5905886,-79.8974631,363.884664466,0.435600034618,0.0,0.0,0.0,0.435600034618,0.0,0.0,0.0,1.74240013847,1,356.90312352768416,66.9397933459772,363.8743414115688,-17.185780288665455,-0.4173017850798999,-2.3492325217429766,0,Fixed-Wing
1970-01-01 00:00:47.197266304,4397,1536681846220359168,base_link,0,1,40.5905847,-79.8975456,363.244581596,0.435600034618,0.0,0.0,0.0,0.435600034618,0.0,0.0,0.0,1.74240013847,1,349.9187860911132,66.50635138070535,363.23464951635947,-17.46084359142742,-1.0836049131795988,-1.5992297380233822,0,Fixed-Wing
1970-01-01 00:00:47.623013600,4399,1536681846648830528,base_link,0,1,40.5905786,-79.8976287,362.884499055,0.435600034618,0.0,0.0,0.0,0.435600034618,0.0,0.0,0.0,1.74240013847,1,342.8836804407797,65.82860147877025,362.87495554154924,-17.58776412583373,-1.694374754837753,-0.8992349370255681,0,Fixed-Wing
1970-01-01 00:00:47.996708000,4401,1536681847019578720,base_link,0,1,40.5905716,-79.897712,362.7044167,0.435600034618,0.0,0.0,0.0,0.435600034618,0.0,0.0,0.0,1.74240013847,1,335.83165657768996,65.05091227224528,362.6952558441787,-17.63005965772436,-1.9442230163124208,-0.4492492434263795,0,Fixed-Wing
1970-01-01 00:00:48.399761504,4403,1536681847423717024,base_link,0,1,40.5905652,-79.8977954,362.684334,0.384400005913,0.0,0.0,0.0,0.384400005913,0.0,0.0,0.0,1.53760002365,1,328.7711710910389,64.33986242533268,362.67554768136733,-17.65121371662758,-1.7776246172815036,-0.04927040702838781,0,Fixed-Wing
1970-01-01 00:00:48.802818528,4405,1536681847828700480,base_link,0,1,40.5905603,-79.8978779,362.934251597,0.384400005913,0.0,0.0,0.0,0.384400005913,0.0,0.0,0.0,1.53760002365,1,321.78688334443757,63.79540376318067,362.9258264292058,-17.460719366503383,-1.3611466553800255,0.6256968695961973,0,Fixed-Wing
1970-01-01 00:00:49.205955456,4407,1536681848231409824,base_link,0,1,40.5905567,-79.8979601,363.204168961,0.384400005913,0.0,0.0,0.0,0.384400005913,0.0,0.0,0.0,1.53760002365,1,314.8279864663735,63.395320916896,363.19609457136266,-17.397242195160203,-1.0002071157116887,0.6756703553921284,0,Fixed-Wing
1970-01-01 00:00:49.642182720,4409,1536681848667671072,base_link,0,1,40.5905537,-79.8980413,363.344087106,0.384400005913,0.0,0.0,0.0,0.384400005913,0.0,0.0,0.0,1.53760002365,1,307.9537377301103,63.06187814799404,363.3363511461771,-17.18562184065803,-0.8336069222549014,0.3506414370360744,0,Fixed-Wing
1970-01-01 00:00:50.040068896,4411,1536681849065927776,base_link,0,1,40.5905518,-79.8981221,363.534005205,0.384400005913,0.0,0.0,0.0,0.384400005913,0.0,0.0,0.0,1.53760002365,1,301.1133489005625,62.85060114525416,363.5265974584124,-17.10097207386937,-0.5281925068496918,0.47561578058832765,0,Fixed-Wing
1970-01-01 00:00:50.403859680,4413,1536681849429166208,base_link,0,1,40.5905503,-79.8982023,363.71392376,0.384400005913,0.0,0.0,0.0,0.384400005913,0.0,0.0,0.0,1.53760002365,1,294.32375216304973,62.683753253829025,363.7068341162779,-16.973991843781988,-0.4171197285628381,0.4505916446636604,0,Fixed-Wing
1970-01-01 00:00:50.753768896,4415,1536681849779503584,base_link,0,1,40.5905488,-79.8982817,363.853843144,0.435600034618,0.0,0.0,0.0,0.435600034618,0.0,0.0,0.0,1.74240013847,1,287.6018797447437,62.51691375574808,363.84706133334237,-16.80468104576505,-0.41709874520236667,0.35056804266119457,0,Fixed-Wing
1970-01-01 00:00:51.196315040,4417,1536681850220751808,base_link,0,1,40.5905477,-79.8983612,364.003762267,0.435600034618,0.0,0.0,0.0,0.435600034618,0.0,0.0,0.0,1.74240013847,1,280.87153964631705,62.394501033137715,363.9972811486641,-16.825850246066665,-0.3060318065259082,0.37554953830436943,0,Fixed-Wing
1970-01-01 00:00:51.577260448,4419,1536681850602667424,base_link,0,1,40.5905464,-79.8984405,364.18368169,0.435600034618,0.0,0.0,0.0,0.435600034618,0.0,0.0,0.0,1.74240013847,1,274.15813281641846,62.249884824460366,364.1774936607647,-16.78351707474647,-0.3615405216933709,0.45053128025145384,0,Fixed-Wing
1970-01-01 00:00:52.008320928,4421,1536681851033005344,base_link,0,1,40.5905447,-79.8985191,364.593602008,0.435600034618,0.0,0.0,0.0,0.435600034618,0.0,0.0,0.0,1.74240013847,1,267.5039975388279,62.06085807955856,364.5876979592356,-16.635338193976423,-0.47256686225452427,1.0255107461772184,0,Fixed-Wing
1970-01-01 00:00:52.439801728,4423,1536681851465643776,base_link,0,1,40.5905429,-79.8985969,365.133523197,0.435600034618,0.0,0.0,0.0,0.435600034618,0.0,0.0,0.0,1.74240013847,1,260.91759359045926,61.86073564403833,365.12789353277697,-16.466009870921567,-0.5003060888005706,1.3504889338534554,0,Fixed-Wing
1970-01-01 00:00:52.802566336,4425,1536681851828345120,base_link,0,1,40.5905405,-79.8986733,365.60344608,0.435600034618,0.0,0.0,0.0,0.435600034618,0.0,0.0,0.0,1.74240013847,1,254.44970961858849,61.593990932168225,365.59807992864097,-16.16970992967694,-0.6668617796752585,1.1754659896600117,0,Fixed-Wing
1970-01-01 00:00:53.196516832,4427,1536681852221547232,base_link,0,1,40.5905382,-79.8987494,365.723369238,0.435600034618,0.0,0.0,0.0,0.435600034618,0.0,0.0,0.0,1.74240013847,1,248.00720783873368,61.3383544994488,365.7182589457914,-16.10625444963702,-0.6390910817985684,0.3004475428760145,0,Fixed-Wing
1970-01-01 00:00:53.605464960,4429,1536681852631318336,base_link,0,1,40.5905364,-79.8988256,365.603292091,0.435600034618,0.0,0.0,0.0,0.435600034618,0.0,0.0,0.0,1.74240013847,1,241.55622864415713,61.13824724000918,365.5984309358563,-16.127447986441368,-0.5002681485990479,-0.299570024837692,0,Fixed-Wing
1970-01-01 00:00:53.982367008,4431,1536681853007969856,base_link,0,1,40.590535,-79.8989022,365.433214377,0.384400005913,0.0,0.0,0.0,0.384400005913,0.0,0.0,0.0,1.53760002365,1,235.07138268705484,60.98256497549886,365.4285966584881,-16.212114892755736,-0.3892056612757955,-0.42458569342045394,0,Fixed-Wing
1970-01-01 00:00:54.389415456,4433,1536681853415042176,base_link,0,1,40.5905343,-79.8989795,365.22313566,0.384400005913,0.0,0.0,0.0,0.384400005913,0.0,0.0,0.0,1.53760002365,1,228.52727200816804,60.904622823575494,365.21875616972534,-16.36027669721699,-0.19485537980841627,-0.5246012219069485,0,Fixed-Wing
1970-01-01 00:00:54.837205472,4435,1536681853860772480,base_link,0,1,40.5905342,-79.8990573,365.15305619,0.384400005913,0.0,0.0,0.0,0.384400005913,0.0,0.0,0.0,1.53760002365,1,221.94083523391265,60.89331792523723,365.1489090535655,-16.466091935638474,-0.028262245845667167,-0.17461779039962266,0,Fixed-Wing
1970-01-01 00:00:55.243889344,4437,1536681854269580288,base_link,0,1,40.5905344,-79.8991352,365.202976501,0.384400005913,0.0,0.0,0.0,0.384400005913,0.0,0.0,0.0,1.53760002365,1,215.3459358118575,60.91533546163092,365.19905489511706,-16.48724855513791,0.05504384098422577,0.12536460387892134,0,Fixed-Wing
1970-01-01 00:00:55.589706784,4439,1536681854615463552,base_link,0,1,40.590535,-79.8992134,365.132896347,0.384400005913,0.0,0.0,0.0,0.384400005913,0.0,0.0,0.0,1.53760002365,1,208.7256335986346,60.98177792245215,365.1291938652636,-16.550755533057213,0.16610615205308932,-0.1746525746337113,0,Fixed-Wing
1970-01-01 00:00:56.005420608,4441,1536681855030457472,base_link,0,1,40.5905358,-79.8992917,364.982816017,0.384400005913,0.0,0.0,0.0,0.384400005913,0.0,0.0,0.0,1.53760002365,1,202.0968626604622,61.0704357372295,364.97932585378953,-16.57192734543102,0.22164453694337283,-0.37467002868510235,0,Fixed-Wing
1970-01-01 00:00:56.391234368,4443,1536681855414316640,base_link,0,1,40.5905371,-79.8993703,364.73273518,0.384400005913,0.0,0.0,0.0,0.384400005913,0.0,0.0,0.0,1.53760002365,1,195.44269011692057,61.214623999247635,364.72945069728354,-16.63543135885405,0.36047065504533293,-0.6246878912649834,0,Fixed-Wing
1970-01-01 00:00:56.788610720,4445,1536681855814460320,base_link,0,1,40.5905381,-79.899449,364.532654378,0.384400005913,0.0,0.0,0.0,0.384400005913,0.0,0.0,0.0,1.53760002365,1,188.7800548192476,61.32550274754391,364.52956921240354,-16.656588244182444,0.27719687074068133,-0.4997037121999881,0,Fixed-Wing
1970-01-01 00:00:57.219818560,4447,1536681856245541664,base_link,0,1,40.5905392,-79.8995282,364.362573034,0.384400005913,0.0,0.0,0.0,0.384400005913,0.0,0.0,0.0,1.53760002365,1,182.07509145840282,61.44749193612111,364.3596813317504,-16.76240840211193,0.30497297144300717,-0.4247197016329096,0,Fixed-Wing
1970-01-01 00:00:57.621359712,4449,1536681856646428064,base_link,0,1,40.5905399,-79.8996074,364.372491869,0.384400005913,0.0,0.0,0.0,0.384400005913,0.0,0.0,0.0,1.53760002365,1,175.37013466167295,61.52506794512428,364.36978702102965,-16.762391991824686,0.19394002250791686,0.025264223198178115,0,Fixed-Wing
1970-01-01 00:00:58.006932256,4451,1536681857032541120,base_link,0,1,40.5905398,-79.8996861,364.602411563,0.384400005913,0.0,0.0,0.0,0.384400005913,0.0,0.0,0.0,1.53760002365,1,168.70751506605455,61.51381117900294,364.5998862708434,-16.656548989045987,-0.028141915303336873,0.5752481245343688,0,Fixed-Wing
1970-01-01 00:00:58.400137184,4453,1536681857425815264,base_link,0,1,40.5905392,-79.8997645,364.882331784,0.384400005913,0.0,0.0,0.0,0.384400005913,0.0,0.0,0.0,1.53760002365,1,162.07029500545264,61.447035218569994,364.87997898980154,-16.593050151504798,-0.16693990108237244,0.7002317973953609,0,Fixed-Wing
1970-01-01 00:00:58.814451392,4455,1536681857840101536,base_link,0,1,40.5905384,-79.8998419,365.152253119,0.384400005913,0.0,0.0,0.0,0.384400005913,0.0,0.0,0.0,1.53760002365,1,155.51773300129747,61.35805635334677,365.15006408102636,-16.38140501038791,-0.22244716305806378,0.6752127280620357,0,Fixed-Wing
1970-01-01 00:00:59.190630592,4457,1536681858216460000,base_link,0,1,40.5905374,-79.8999188,365.37217506,0.384400005913,0.0,0.0,0.0,0.384400005913,0.0,0.0,0.0,1.53760002365,1,149.00749883674422,61.24687312990534,365.37014228075896,-16.275585411383133,-0.2779580586035735,0.5501954993314939,0,Fixed-Wing
1970-01-01 00:00:59.620405120,4459,1536681858646292736,base_link,0,1,40.5905366,-79.8999951,365.542097538,0.384400005913,0.0,0.0,0.0,0.384400005913,0.0,0.0,0.0,1.53760002365,1,142.5480576154692,61.157906551222766,365.5402130332201,-16.14860305318757,-0.22241644670643268,0.42517688115282226,0,Fixed-Wing
1970-01-01 00:01:00.041600384,4461,1536681859063455328,base_link,0,1,40.5905363,-79.9000709,365.592020325,0.384400005913,0.0,0.0,0.0,0.384400005913,0.0,0.0,0.0,1.53760002365,1,136.13094159809768,61.12447137620052,365.5902761246721,-16.04279004342878,-0.08358793755562033,0.1251577286299721,0,Fixed-Wing
1970-01-01 00:01:00.400625632,4463,1536681859426261344,base_link,0,1,40.5905381,-79.9001468,365.491942136,0.384400005913,0.0,0.0,0.0,0.384400005913,0.0,0.0,0.0,1.53760002365,1,129.7053524658553,61.324250138042714,365.4903297228042,-16.063972830605948,0.4994469046054917,-0.24986600466974096,0,Fixed-Wing
1970-01-01 00:01:00.833976768,4465,1536681859857165440,base_link,0,1,40.5905435,-79.9002222,365.381862953,0.384400005913,0.0,0.0,0.0,0.384400005913,0.0,0.0,0.0,1.53760002365,1,123.32208634226787,61.92382359895299,365.38037116176616,-15.958165308968582,1.4989336522756957,-0.2748964025950329,0,Fixed-Wing
1970-01-01 00:01:01.224142624,4467,1536681860245224832,base_link,0,1,40.5905538,-79.9002967,365.431782637,0.384400005913,0.0,0.0,0.0,0.384400005913,0.0,0.0,0.0,1.53760002365,1,117.01500852783266,63.06756193561222,365.4303982660958,-15.767694536088008,2.8593458416480644,0.12506776082403803,0,Fixed-Wing
1970-01-01 00:01:01.616562464,4469,1536681860641058944,base_link,0,1,40.5905695,-79.9003693,365.601702001,0.384400005913,0.0,0.0,0.0,0.384400005913,0.0,0.0,0.0,1.53760002365,1,110.86877688298733,64.8109920998343,365.60040974799233,-15.365579112113323,4.35857541055519,0.4250287047413792,0,Fixed-Wing
1970-01-01 00:01:02.039956736,4471,1536681861065808480,base_link,0,1,40.590591,-79.9004385,365.881622406,0.384400005913,0.0,0.0,0.0,0.384400005913,0.0,0.0,0.0,1.53760002365,1,105.01037937369594,67.19853648350119,365.8804043824269,-14.645993773228483,5.96886095916723,0.6999865860863963,0,Fixed-Wing
1970-01-01 00:01:02.414018240,4473,1536681861439845376,base_link,0,1,40.5906179,-79.9005032,366.221545145,0.33639998064,0.0,0.0,0.0,0.33639998064,0.0,0.0,0.0,1.34559992256,1,99.5329410903874,70.18577435466744,366.22038257373123,-13.69359570827136,7.468094677915644,0.8499454782608495,0,Fixed-Wing
1970-01-01 00:01:02.840745024,4475,1536681861866450112,base_link,0,1,40.59065,-79.9005628,366.591470914,0.33639998064,0.0,0.0,0.0,0.33639998064,0.0,0.0,0.0,1.34559992256,1,94.48725768900849,73.75049488170586,366.5903446516885,-12.614208503447273,8.911801317596044,0.9249051948931708,0,Fixed-Wing
1970-01-01 00:01:03.213962592,4477,1536681862239539168,base_link,0,1,40.5906865,-79.9006165,366.911400866,0.33639998064,0.0,0.0,0.0,0.33639998064,0.0,0.0,0.0,1.34559992256,1,89.94105637276057,77.80385525684804,366.9102919623055,-11.365503290619792,10.133400937855441,0.7998682765425258,0,Fixed-Wing
1970-01-01 00:01:03.575917152,4479,1536681862601513664,base_link,0,1,40.5907277,-79.9006629,367.161336302,0.33639998064,0.0,0.0,0.0,0.33639998064,0.0,0.0,0.0,1.34559992256,1,86.01285840245959,82.3791713858325,367.16022391066167,-9.820494925752463,11.438290322461171,0.6248298708904088,0,Fixed-Wing
1970-01-01 00:01:04.007500384,4481,1536681863033164256,base_link,0,1,40.5907726,-79.9007023,367.341277337,0.33639998064,0.0,0.0,0.0,0.33639998064,0.0,0.0,0.0,1.34559992256,1,82.6772674195883,87.36538951276609,367.340142481257,-8.338977457178203,12.465545317333948,0.44979642648826257,0,Fixed-Wing
1970-01-01 00:01:04.407716736,4483,1536681863433014848,base_link,0,1,40.5908205,-79.9007343,367.451224671,0.33639998064,0.0,0.0,0.0,0.33639998064,0.0,0.0,0.0,1.34559992256,1,79.96814706600871,92.68477239516349,367.45004904454754,-6.772800883948982,13.298457205993515,0.2747664082264123,0,Fixed-Wing
1970-01-01 00:01:04.834305600,4485,1536681863860163808,base_link,0,1,40.5908708,-79.9007591,367.401178353,0.33639998064,0.0,0.0,0.0,0.33639998064,0.0,0.0,0.0,1.34559992256,1,77.86856445140003,98.27068617517423,367.3999448465917,-5.248956536521696,13.964784450026855,-0.12526049488954527,0,Fixed-Wing
1970-01-01 00:01:05.207300224,4487,1536681864233202752,base_link,0,1,40.5909227,-79.9007771,367.291138308,0.33639998064,0.0,0.0,0.0,0.33639998064,0.0,0.0,0.0,1.34559992256,1,76.34465744964136,104.03428927272682,367.2898315727372,-3.8097675043966817,14.409007743881475,-0.2752831846362369,0,Fixed-Wing
1970-01-01 00:01:05.640768256,4489,1536681864666629120,base_link,0,1,40.5909756,-79.9007884,367.211104686,0.33639998064,0.0,0.0,0.0,0.33639998064,0.0,0.0,0.0,1.34559992256,1,75.38796078183904,109.90895118550432,367.20971054929726,-2.391741669505798,14.686654781943744,-0.20030255859992963,0,Fixed-Wing
1970-01-01 00:01:06.041605248,4491,1536681865067443168,base_link,0,1,40.591029,-79.9007934,367.231077287,0.33639998064,0.0,0.0,0.0,0.33639998064,0.0,0.0,0.0,1.34559992256,1,74.9646113167789,115.83914650271086,367.2295829319051,-1.0583736626503537,14.825488293016349,0.0496809565196088,0,Fixed-Wing
1970-01-01 00:01:06.396416800,4493,1536681865422223616,base_link,0,1,40.5910824,-79.9007939,367.281054486,0.33639998064,0.0,0.0,0.0,0.33639998064,0.0,0.0,0.0,1.34559992256,1,74.92222333035684,121.76934632734478,367.2794499030007,-0.10596996605514164,14.825499561584792,0.1246674277389559,0,Fixed-Wing
1970-01-01 00:01:06.829283808,4495,1536681865855115680,base_link,0,1,40.5911357,-79.9007913,367.241034898,0.33639998064,0.0,0.0,0.0,0.33639998064,0.0,0.0,0.0,1.34559992256,1,75.14227368424272,127.68844189426609,367.23931169916716,0.5501258847147028,14.797738917303285,-0.1003455095838035,0,Fixed-Wing
1970-01-01 00:01:07.213520160,4497,1536681866239274240,base_link,0,1,40.5911889,-79.9007874,367.241016689,0.33639998064,0.0,0.0,0.0,0.33639998064,0.0,0.0,0.0,1.34559992256,1,75.47237933676718,133.59643415733552,367.2391682939849,0.8252641313111297,14.769980657673578,-0.00035851295564270913,0,Fixed-Wing
1970-01-01 00:01:07.600743232,4499,1536681866626517440,base_link,0,1,40.5912422,-79.9007839,367.350998044,0.33639998064,0.0,0.0,0.0,0.33639998064,0.0,0.0,0.0,1.34559992256,1,75.768622588786,139.51553380068034,367.34901911006386,0.7406081300470646,14.797749108362055,0.2746270401974016,0,Fixed-Wing
1970-01-01 00:01:08.010992064,4501,1536681867036831264,base_link,0,1,40.5912955,-79.9007827,367.470977072,0.33639998064,0.0,0.0,0.0,0.33639998064,0.0,0.0,0.0,1.34559992256,1,75.87015298770686,145.4346319592347,367.46886439343695,0.25382599730214395,14.797745396385906,0.299613208432703,0,Fixed-Wing
1970-01-01 00:01:08.393962560,4503,1536681867418828032,base_link,0,1,40.5913487,-79.9007835,367.530954119,0.33639998064,0.0,0.0,0.0,0.33639998064,0.0,0.0,0.0,1.34559992256,1,75.80236753402248,151.342622001824,367.528704464151,-0.169463634210949,14.769975106473225,0.1496001767851851,0,Fixed-Wing
1970-01-01 00:01:08.821507360,4505,1536681867847370624,base_link,0,1,40.5914017,-79.9007848,367.320930755,0.33639998064,0.0,0.0,0.0,0.33639998064,0.0,0.0,0.0,1.34559992256,1,75.69225047274975,157.22839462263283,367.3185396887603,-0.27529265318182894,14.714431552022091,-0.5254119384767364,0,Fixed-Wing
1970-01-01 00:01:09.293035200,4507,1536681868318174048,base_link,0,1,40.5914548,-79.9007866,367.040906855,0.33639998064,0.0,0.0,0.0,0.33639998064,0.0,0.0,0.0,1.34559992256,1,75.5398039473173,163.12526993191608,367.03836914537,-0.3811163135811313,14.742188273208114,-0.7004263584758519,0,Fixed-Wing
1970-01-01 00:01:09.614259744,4509,1536681868640137984,base_link,0,1,40.5915083,-79.9007888,366.760882395,0.33639998064,0.0,0.0,0.0,0.33639998064,0.0,0.0,0.0,1.34559992256,1,75.35349429448459,169.06656540377023,366.758191796393,-0.4657741320817621,14.853238679635368,-0.7004433724424075,0,Fixed-Wing
1970-01-01 00:01:09.992375456,4511,1536681869017781920,base_link,0,1,40.5915623,-79.9007912,366.490857539,0.33639998064,0.0,0.0,0.0,0.33639998064,0.0,0.0,0.0,1.34559992256,1,75.15025305905723,175.0633867258988,366.4880071649298,-0.5081030885683901,14.99205330532142,-0.6754615786580587,0,Fixed-Wing
1970-01-01 00:01:10.423320576,4513,1536681869448952672,base_link,0,1,40.5916168,-79.9007936,366.280832491,0.33639998064,0.0,0.0,0.0,0.33639998064,0.0,0.0,0.0,1.34559992256,1,74.94701231370469,181.11573551615055,366.2778151051821,-0.5081018633813628,15.13087197562939,-0.525480149369173,0,Fixed-Wing
1970-01-01 00:01:10.831782592,4515,1536681869857629248,base_link,0,1,40.5916717,-79.9007952,366.180808106,0.33639998064,0.0,0.0,0.0,0.33639998064,0.0,0.0,0.0,1.34559992256,1,74.81149844999348,187.21250885055628,366.1776158469461,-0.33878465927802637,15.241933336014313,-0.2504981455901145,0,Fixed-Wing
1970-01-01 00:01:11.213172672,4517,1536681870237823808,base_link,0,1,40.5917268,-79.9007953,366.26078518,0.33639998064,0.0,0.0,0.0,0.33639998064,0.0,0.0,0.0,1.34559992256,1,74.80297227451872,193.33149927935213,366.25741003935343,-0.021315438686890786,15.297476071989635,0.19948548101837105,0,Fixed-Wing
1970-01-01 00:01:11.583502912,4519,1536681870609295424,base_link,0,1,40.591782,-79.9007937,366.530763958,0.33639998064,0.0,0.0,0.0,0.33639998064,0.0,0.0,0.0,1.34559992256,1,74.93836510436695,199.46160256279586,366.5271980182835,0.3384820746205719,15.325258208609327,0.6744699473252069,0,Fixed-Wing
1970-01-01 00:01:12.020216576,4521,1536681871046053024,base_link,0,1,40.591837,-79.9007913,366.720743648,0.33639998064,0.0,0.0,0.0,0.33639998064,0.0,0.0,0.0,1.34559992256,1,75.14148254218568,205.56949403973627,366.71698092004243,0.5077935945468326,15.269728692351023,0.4744572543972936,0,Fixed-Wing
1970-01-01 00:01:12.393397664,4523,1536681871418963008,base_link,0,1,40.5918919,-79.9007891,366.730723191,0.33639998064,0.0,0.0,0.0,0.33639998064,0.0,0.0,0.0,1.34559992256,1,75.32766627831485,211.66627454288917,366.72675837722574,0.4654593403229157,15.24195125788225,0.024443642958260625,0,Fixed-Wing
1970-01-01 00:01:12.794738752,4525,1536681871820461120,base_link,0,1,40.5919469,-79.9007882,366.670701384,0.33639998064,0.0,0.0,0.0,0.33639998064,0.0,0.0,0.0,1.34559992256,1,75.40379495397785,217.77415686165614,366.66652955356466,0.19032168915749992,15.269705796917421,-0.15057205915269378,0,Fixed-Wing
1970-01-01 00:01:13.206512608,4527,1536681872232178880,base_link,0,1,40.5920022,-79.900789,366.390677739,0.33639998064,0.0,0.0,0.0,0.33639998064,0.0,0.0,0.0,1.34559992256,1,75.33600416267822,223.91534565374303,366.38629355745354,-0.16947697824907237,15.352971980217234,-0.7005899902777912,0,Fixed-Wing
1970-01-01 00:01:13.598193664,4529,1536681872623817280,base_link,0,1,40.5920582,-79.9007906,366.010653007,0.33639998064,0.0,0.0,0.0,0.33639998064,0.0,0.0,0.0,1.34559992256,1,75.20048622178774,230.13426635878596,366.0060485322143,-0.33879485222620076,15.547301762607333,-0.9506125630980478,0,Fixed-Wing
1970-01-01 00:01:14.007481568,4531,1536681873033344512,base_link,0,1,40.5921151,-79.9007925,365.690627615,0.33639998064,0.0,0.0,0.0,0.33639998064,0.0,0.0,0.0,1.34559992256,1,75.0395712542716,236.45313553087635,365.6857933497797,-0.4022874187903369,15.797172930225969,-0.8006379560865184,0,Fixed-Wing
1970-01-01 00:01:14.405518752,4533,1536681873425504000,base_link,0,1,40.5921726,-79.9007952,365.530601179,0.33639998064,0.0,0.0,0.0,0.33639998064,0.0,0.0,0.0,1.34559992256,1,74.81093259577239,242.83864100598123,365.52552909613865,-0.5715966462480537,15.963763687762196,-0.40066063410264974,0,Fixed-Wing
1970-01-01 00:01:14.796729280,4535,1536681873822560608,base_link,0,1,40.5922303,-79.9007989,365.62057366,0.33639998064,0.0,0.0,0.0,0.33639998064,0.0,0.0,0.0,1.34559992256,1,74.49764062832534,249.24636565774722,365.61525746090723,-0.7832299186176073,16.01931162941497,0.22432091192143844,0,Fixed-Wing
1970-01-01 00:01:15.242896544,4537,1536681874268657472,base_link,0,1,40.5922881,-79.900803,365.870545711,0.33639998064,0.0,0.0,0.0,0.33639998064,0.0,0.0,0.0,1.34559992256,1,74.15048840139517,255.66520190302225,365.864978873781,-0.867880567325443,16.047090613187578,0.6243035321844559,0,Fixed-Wing
1970-01-01 00:01:15.609232608,4539,1536681874627546528,base_link,0,1,40.5923457,-79.9008055,366.140519488,0.33639998064,0.0,0.0,0.0,0.33639998064,0.0,0.0,0.0,1.34559992256,1,73.93878722931632,262.0618304137088,366.1346948665896,-0.5292529301971172,15.991571276716314,0.6742899820214632,0,Fixed-Wing
1970-01-01 00:01:15.987721664,4541,1536681875013614496,base_link,0,1,40.5924029,-79.9008051,366.280496395,0.33639998064,0.0,0.0,0.0,0.33639998064,0.0,0.0,0.0,1.34559992256,1,73.97258832484012,268.41403551182174,366.27440658700914,0.08450273880949766,15.880512745282402,0.34927930104885263,0,Fixed-Wing
1970-01-01 00:01:16.370900832,4543,1536681875396773088,base_link,0,1,40.5924598,-79.9008003,366.140477915,0.33639998064,0.0,0.0,0.0,0.33639998064,0.0,0.0,0.0,1.34559992256,1,74.37887341039361,274.7329168382309,366.1341136919715,1.0157127138837296,15.797203316022888,-0.35073223759411576,0,Fixed-Wing
1970-01-01 00:01:16.846384192,4545,1536681875872170080,base_link,0,1,40.5925163,-79.9007885,365.890466732,0.33639998064,0.0,0.0,0.0,0.33639998064,0.0,0.0,0.0,1.34559992256,1,75.3777493159139,281.0073781117447,365.8838167882039,2.4971897638007334,15.686153183784484,-0.6257422594190132,0,Fixed-Wing
1970-01-01 00:01:17.207442656,4547,1536681876233374624,base_link,0,1,40.5925719,-79.9007687,365.640464066,0.33639998064,0.0,0.0,0.0,0.33639998064,0.0,0.0,0.0,1.34559992256,1,77.05387232029229,287.1818988771429,365.63351843561026,4.190307510945956,15.436301913495498,-0.6257458814840788,0,Fixed-Wing
1970-01-01 00:01:17.614801888,4549,1536681876640665984,base_link,0,1,40.5926256,-79.9007397,365.530471545,0.33639998064,0.0,0.0,0.0,0.33639998064,0.0,0.0,0.0,1.34559992256,1,79.50883074281471,293.1454347117789,365.5232238732332,6.137396056306059,14.908839586589977,-0.2757364059426948,0,Fixed-Wing
1970-01-01 00:01:18.016016256,4551,1536681877041391136,base_link,0,1,40.5926764,-79.9007016,365.490489476,0.33639998064,0.0,0.0,0.0,0.33639998064,0.0,0.0,0.0,1.34559992256,1,82.7341577853179,298.7869309812424,365.48293842986806,8.06331760625799,14.103740673658791,-0.10071360841280352,0,Fixed-Wing
1970-01-01 00:01:18.402325312,4553,1536681877427664832,base_link,0,1,40.5927232,-79.9006547,365.450518001,0.33639998064,0.0,0.0,0.0,0.33639998064,0.0,0.0,0.0,1.34559992256,1,86.7044559442237,303.9842275644775,365.4426681182215,9.925745397264478,12.993241458087823,-0.10067577911641479,0,Fixed-Wing
