time,field.header.seq,field.header.stamp,field.header.frame_id,field.status.status,field.status.service,lat,lon,alt,field.position_covariance0,field.position_covariance1,field.position_covariance2,field.position_covariance3,field.position_covariance4,field.position_covariance5,field.position_covariance6,field.position_covariance7,field.position_covariance8,field.position_covariance_type,x,y,z,vel_x,vel_y,vel_z,track_id,uav_category
1970-01-01 00:00:00.000000000,1084,1532986742394063962,base_link,0,1,40.5915631,-79.8990468,410.58263527,0.518400041199,0.0,0.0,0.0,0.518400041199,0.0,0.0,0.0,2.07360016479,1,194.3744169924603,223.863510449435,410.5757398042338,22.2447030214714,3.915349127767786,-1.2756344718056523,0,Fixed-Wing
1970-01-01 00:00:00.427788008,1086,1532986742821835330,base_link,0,1,40.5915772,-79.8989417,410.072736682,0.518400041199,0.0,0.0,0.0,0.518400041199,0.0,0.0,0.0,2.07360016479,1,203.27189779639448,225.42957962425783,410.06550897693205,22.2447030214714,3.915349127767786,-1.2756344718056523,0,Fixed-Wing
1970-01-01 00:00:00.781028052,1088,1532986743174576528,base_link,0,1,40.5915909,-79.8988383,409.582836541,0.518400041199,0.0,0.0,0.0,0.518400041199,0.0,0.0,0.0,2.07360016479,1,212.02545711278128,226.95123452157236,409.57527018018357,21.88488311070698,3.8043084371660063,-1.2256521462177938,0,Fixed-Wing
1970-01-01 00:00:01.183952650,1090,1532986743577786565,base_link,0,1,40.5916082,-79.8987383,409.062931442,0.518400041199,0.0,0.0,0.0,0.518400041199,0.0,0.0,0.0,2.07360016479,1,220.4911622159136,228.87268125295168,409.0550096425381,21.16521519251443,4.8038330009333405,-1.3007098760580973,0,Fixed-Wing
1970-01-01 00:00:01.587717213,1092,1532986743981815799,base_link,0,1,40.5916314,-79.8986428,408.4330193,0.518400041199,0.0,0.0,0.0,0.518400041199,0.0,0.0,0.0,2.07360016479,1,228.57587771473453,231.44933520068383,408.42472010633344,20.212698318476683,6.441924755944403,-1.5757947512754498,0,Fixed-Wing
1970-01-01 00:00:02.036113960,1094,1532986744429683588,base_link,0,1,40.5916618,-79.8985529,407.633098448,0.518400041199,0.0,0.0,0.0,0.518400041199,0.0,0.0,0.0,2.07360016479,1,236.1864713216894,234.82555872372652,407.6243986731872,19.02734024769831,8.440938649845949,-2.0008936230785963,0,Fixed-Wing
1970-01-01 00:00:02.370744910,1096,1532986744764006922,base_link,0,1,40.5917,-79.8984691,406.643168124,0.518400041199,0.0,0.0,0.0,0.518400041199,0.0,0.0,0.0,2.07360016479,1,243.2806090506142,239.06797954776488,406.63404411596633,17.73614244872221,10.606529353916832,-2.4759978129537896,0,Fixed-Wing
1970-01-01 00:00:02.797643259,1098,1532986745191612789,base_link,0,1,40.5917469,-79.8983931,405.593226216,0.518400041199,0.0,0.0,0.0,0.518400041199,0.0,0.0,0.0,2.07360016479,1,249.71437282136895,244.27654339102736,405.5836560971106,16.085133257883484,13.021995597958112,-2.62608822110934,0,Fixed-Wing
1970-01-01 00:00:03.201941068,1100,1532986745594261291,base_link,0,1,40.5918015,-79.8983251,404.353272939,0.518400041199,0.0,0.0,0.0,0.518400041199,0.0,0.0,0.0,2.07360016479,1,255.47082877517568,250.3401891641903,404.34323950512317,14.391787514954977,15.1597966237554,-3.1011810331150196,0,Fixed-Wing
1970-01-01 00:00:03.578941361,1102,1532986745972895659,base_link,0,1,40.5918624,-79.8982664,402.863307551,0.518400041199,0.0,0.0,0.0,0.518400041199,0.0,0.0,0.0,2.07360016479,1,260.4399248709843,257.10343372153187,402.8528037569628,12.42329928798959,16.908872292607114,-3.726257051968181,0,Fixed-Wing
1970-01-01 00:00:03.980621836,1104,1532986746374643046,base_link,0,1,40.5919299,-79.8982207,401.34332615,0.518400041199,0.0,0.0,0.0,0.518400041199,0.0,0.0,0.0,2.07360016479,1,264.30843788304884,264.5995881728908,401.3323561412076,9.671717757460364,18.74122948372403,-3.801290097442497,0,Fixed-Wing
1970-01-01 00:00:04.397391449,1106,1532986746787467071,base_link,0,1,40.5920023,-79.8981879,399.77332955,0.518400041199,0.0,0.0,0.0,0.518400041199,0.0,0.0,0.0,2.07360016479,1,267.0848423646088,272.63985952738705,399.76190461744864,6.941323563460232,20.10158295747376,-3.9263054931445605,0,Fixed-Wing
1970-01-01 00:00:04.785066974,1108,1532986747179194936,base_link,0,1,40.5920781,-79.8981705,398.243315827,0.518400041199,0.0,0.0,0.0,0.518400041199,0.0,0.0,0.0,2.07360016479,1,268.5575091861712,281.05766287407255,398.23146288466137,3.681832736379205,21.045455412207307,-3.826276514411316,0,Fixed-Wing
1970-01-01 00:00:05.171972806,1110,1532986747565997120,base_link,0,1,40.5921554,-79.8981696,396.713284652,0.518400041199,0.0,0.0,0.0,0.518400041199,0.0,0.0,0.0,2.07360016479,1,268.63332682453995,289.64199154264,396.7010435451467,0.18955262578999252,21.461787451854033,-3.82622052871042,0,Fixed-Wing
1970-01-01 00:00:05.598234550,1112,1532986747992250032,base_link,0,1,40.5922316,-79.8981858,395.343236496,0.518400041199,0.0,0.0,0.0,0.518400041199,0.0,0.0,0.0,2.07360016479,1,267.26152407053536,298.1041134314728,395.33066210203026,-3.4296612197663667,21.156256753635837,-3.4261077826413624,0,Fixed-Wing
1970-01-01 00:00:06.006919196,1114,1532986748398916828,base_link,0,1,40.5923037,-79.898218,394.20317373,0.518400041199,0.0,0.0,0.0,0.518400041199,0.0,0.0,0.0,2.07360016479,1,264.53524369557437,306.1108779779684,394.19033266183027,-6.816007657747081,20.017812167786595,-2.850951893335179,0,Fixed-Wing
1970-01-01 00:00:06.384349921,1116,1532986748778437082,base_link,0,1,40.5923712,-79.8982641,392.963098706,0.518400041199,0.0,0.0,0.0,0.518400041199,0.0,0.0,0.0,2.07360016479,1,260.6322573301386,313.6067512630144,392.9500530468282,-9.757905019315283,18.74052653630914,-3.1008385752410517,0,Fixed-Wing
1970-01-01 00:00:06.791376780,1118,1532986749185122791,base_link,0,1,40.5924339,-79.898319,391.783016715,0.518400041199,0.0,0.0,0.0,0.518400041199,0.0,0.0,0.0,2.07360016479,1,255.98432390171772,320.5695473606577,391.769812027273,-11.620356487094131,17.407773593919885,-2.950735331977896,0,Fixed-Wing
1970-01-01 00:00:07.187718809,1120,1532986749581753651,base_link,0,1,40.5924938,-79.8983783,390.722931422,0.518400041199,0.0,0.0,0.0,0.518400041199,0.0,0.0,0.0,2.07360016479,1,250.96392787203618,327.22138947198243,390.7095873467765,-12.551554894174076,16.630353644225874,-2.6506809818854435,0,Fixed-Wing
1970-01-01 00:00:07.589528981,1122,1532986749983523375,base_link,0,1,40.5925536,-79.8984363,389.50284753,0.518400041199,0.0,0.0,0.0,0.518400041199,0.0,0.0,0.0,2.07360016479,1,246.05358988941398,333.86212276921526,389.48934951263743,-12.276397394438238,16.60258035919823,-3.0507318682817828,0,Fixed-Wing
1970-01-01 00:00:08.002934958,1124,1532986750396846344,base_link,0,1,40.5926141,-79.898491,388.052766748,0.518400041199,0.0,0.0,0.0,0.518400041199,0.0,0.0,0.0,2.07360016479,1,241.422616867071,340.58059052468894,388.0390893679799,-11.577953563767798,16.79692525032047,-3.6258135232523814,0,Fixed-Wing
1970-01-01 00:00:08.388945818,1126,1532986750781817687,base_link,0,1,40.5926772,-79.89854,386.282690742,0.518400041199,0.0,0.0,0.0,0.518400041199,0.0,0.0,0.0,2.07360016479,1,237.2741731452166,347.5877932840481,386.26878987493035,-10.3715760255572,17.518795244183817,-4.425947900279386,0,Fixed-Wing
1970-01-01 00:00:08.771312177,1128,1532986751165466506,base_link,0,1,40.5927442,-79.8985802,384.28262214,0.518400041199,0.0,0.0,0.0,0.518400041199,0.0,0.0,0.0,2.07360016479,1,233.87069045962429,355.02811077467004,384.26843599133525,-8.509089623013807,18.60163079994091,-5.0011097589268925,0,Fixed-Wing
1970-01-01 00:00:09.184651114,1130,1532986751578297285,base_link,0,1,40.5928149,-79.8986098,382.18256286,0.518400041199,0.0,0.0,0.0,0.518400041199,0.0,0.0,0.0,2.07360016479,1,231.364552840939,362.87934237560734,382.1680250539598,-6.265625999883176,19.628962305646997,-5.251263650302872,0,Fixed-Wing
1970-01-01 00:00:09.587741538,1132,1532986751981658108,base_link,0,1,40.5928887,-79.8986265,380.152515495,0.518400041199,0.0,0.0,0.0,0.518400041199,0.0,0.0,0.0,2.07360016479,1,229.95047354714598,371.07487073139293,380.13755606902447,-3.535357325562243,20.48974292789575,-5.076400900378865,0,Fixed-Wing
1970-01-01 00:00:09.999464129,1134,1532986752393540635,base_link,0,1,40.5929637,-79.8986281,378.342483068,0.518400041199,0.0,0.0,0.0,0.518400041199,0.0,0.0,0.0,2.07360016479,1,229.81470241275423,379.4037098210975,378.32703734368056,-0.3394431109193559,20.823034760825635,-4.5265005058825425,0,Fixed-Wing
1970-01-01 00:00:10.387602792,1136,1532986752781513987,base_link,0,1,40.593037,-79.898613,376.912468397,0.518400041199,0.0,0.0,0.0,0.518400041199,0.0,0.0,0.0,2.07360016479,1,231.09269868895362,387.54382166539875,376.89648597624654,3.195134471549691,20.3511954145468,-3.5765393628563795,0,Fixed-Wing
1970-01-01 00:00:10.771294493,1138,1532986753165469846,base_link,0,1,40.5931064,-79.8985828,375.812470747,0.518400041199,0.0,0.0,0.0,0.518400041199,0.0,0.0,0.0,2.07360016479,1,233.6490142498437,395.2508854683942,375.7959212453533,6.391076500667741,19.268526591185193,-2.7515356463371132,0,Fixed-Wing
1970-01-01 00:00:11.211052935,1140,1532986753604763842,base_link,0,1,40.5931694,-79.8985397,374.932488892,0.518400041199,0.0,0.0,0.0,0.518400041199,0.0,0.0,0.0,2.07360016479,1,237.29740830006233,402.2472595744109,374.91536643935916,9.121395588348044,17.49172239254949,-2.2014860818590978,0,Fixed-Wing
1970-01-01 00:00:11.579955561,1142,1532986753974002243,base_link,0,1,40.5932239,-79.8984849,374.322522465,0.518400041199,0.0,0.0,0.0,0.518400041199,0.0,0.0,0.0,2.07360016479,1,241.9363018735927,408.29973606489835,374.30484048736446,11.597755832838397,15.13187216046581,-1.5263835672472825,0,Fixed-Wing
1970-01-01 00:00:11.998501683,1144,1532986754392630445,base_link,0,1,40.5932687,-79.8984205,373.822569808,0.518400041199,0.0,0.0,0.0,0.518400041199,0.0,0.0,0.0,2.07360016479,1,247.38791691020754,413.275038413438,373.80435780911756,13.629650925828761,12.438815618051883,-1.2512630024523521,0,Fixed-Wing
1970-01-01 00:00:12.399310836,1146,1532986754792694928,base_link,0,1,40.5933027,-79.8983496,373.402628209,0.518400041199,0.0,0.0,0.0,0.518400041199,0.0,0.0,0.0,2.07360016479,1,253.38982620721637,417.0510001688733,373.3839345635871,15.005448487704038,9.440329203402484,-1.051105413569755,0,Fixed-Wing
1970-01-01 00:00:12.800686675,1148,1532986755194674317,base_link,0,1,40.5933255,-79.8982748,372.962695178,0.518400041199,0.0,0.0,0.0,0.518400041199,0.0,0.0,0.0,2.07360016479,1,259.7219260942713,419.58318772728353,372.94358072724384,15.830962110932264,6.330753779945634,-1.100934132894138,0,Fixed-Wing
1970-01-01 00:00:13.181403248,1150,1532986755575396043,base_link,0,1,40.5933368,-79.8981986,372.412768286,0.518400041199,0.0,0.0,0.0,0.518400041199,0.0,0.0,0.0,2.07360016479,1,266.17257895177636,420.8382728683766,372.39330540167373,16.12735787486706,3.1378540561651467,-1.3757502226853016,0,Fixed-Wing
1970-01-01 00:00:13.562278733,1152,1532986755956185736,base_link,0,1,40.5933367,-79.8981236,371.712844842,0.518400041199,0.0,0.0,0.0,0.518400041199,0.0,0.0,0.0,2.07360016479,1,272.52168231132737,420.8273507185684,371.6931149537762,15.873472705149254,-0.027306603317530355,-1.7505548947140424,0,Fixed-Wing
1970-01-01 00:00:13.971618582,1154,1532986756365748111,base_link,0,1,40.593326,-79.8980525,370.892921766,0.518400041199,0.0,0.0,0.0,0.518400041199,0.0,0.0,0.0,2.07360016479,1,278.5406682181915,419.63925689335844,370.8730107104145,15.048141933547372,-2.9703682295953056,-2.0503528742835866,0,Fixed-Wing
1970-01-01 00:00:14.405513651,1156,1532986756799377006,base_link,0,1,40.5933046,-79.8979874,370.052996959,0.518400041199,0.0,0.0,0.0,0.518400041199,0.0,0.0,0.0,2.07360016479,1,284.0517682860308,417.2628856551058,370.03299948312997,13.778370196256995,-5.941195449426872,-2.1001225737271905,0,Fixed-Wing
1970-01-01 00:00:14.789530792,1158,1532986757183667330,base_link,0,1,40.5932735,-79.8979307,369.443067564,0.518400041199,0.0,0.0,0.0,0.518400041199,0.0,0.0,0.0,2.07360016479,1,288.8518194725924,413.80929726374285,369.4230803706447,12.00066799646392,-8.634359524585925,-1.5248664002011898,0,Fixed-Wing
1970-01-01 00:00:15.163063741,1160,1532986757557040855,base_link,0,1,40.5932366,-79.8978826,369.073131782,0.518400041199,0.0,0.0,0.0,0.518400041199,0.0,0.0,0.0,2.07360016479,1,292.92387599626517,409.71159500413415,369.0532243229623,10.180599436156518,-10.244716661271495,-0.9246817298838198,0,Fixed-Wing
1970-01-01 00:00:15.554287036,1162,1532986757948364022,base_link,0,1,40.5931976,-79.8978401,368.97319116,0.518400041199,0.0,0.0,0.0,0.518400041199,0.0,0.0,0.0,2.07360016479,1,296.5218890584021,405.38068357979563,368.95339508594475,8.995437450027607,-10.827765810307774,-0.24958432383847043,0,Fixed-Wing
1970-01-01 00:00:15.939504334,1164,1532986758333511080,base_link,0,1,40.5931591,-79.8978002,369.083247692,0.518400041199,0.0,0.0,0.0,0.518400041199,0.0,0.0,0.0,2.07360016479,1,299.89981007993725,401.1053046825049,369.06356486798904,8.445182587054278,-10.6889282449979,0.27543684976897725,0,Fixed-Wing
1970-01-01 00:00:16.385998885,1166,1532986758778157893,base_link,0,1,40.5931239,-79.8977595,369.153303699,0.518400041199,0.0,0.0,0.0,0.518400041199,0.0,0.0,0.0,2.07360016479,1,303.34544254623273,397.1964006859555,369.13370338253077,8.614468816835453,-9.77269976286279,0.1753541772922902,0,Fixed-Wing
1970-01-01 00:00:16.791075706,1168,1532986759184987701,base_link,0,1,40.5930921,-79.8977157,369.113361488,0.518400041199,0.0,0.0,0.0,0.518400041199,0.0,0.0,0.0,2.07360016479,1,307.05348952371924,393.6650807027826,369.0938034616187,9.270534617774059,-8.82869724930852,-0.09975429122333405,0,Fixed-Wing
1970-01-01 00:00:17.189585379,1170,1532986759582907808,base_link,0,1,40.5930642,-79.8976679,368.883421771,0.518400041199,0.0,0.0,0.0,0.518400041199,0.0,0.0,0.0,2.07360016479,1,311.10013427379295,390.56686980743837,368.8638588672655,10.11706714320572,-7.745875802771648,-0.5748873558139742,0,Fixed-Wing
1970-01-01 00:00:17.594412889,1172,1532986759988456883,base_link,0,1,40.5930404,-79.8976157,368.583484873,0.518400041199,0.0,0.0,0.0,0.518400041199,0.0,0.0,0.0,2.07360016479,1,315.51924327341277,387.9239880198258,368.56386688965097,11.04826967118476,-6.607501806612714,-0.7500136946525713,0,Fixed-Wing
1970-01-01 00:00:17.968526220,1174,1532986760362104552,base_link,0,1,40.5930214,-79.897559,368.133550608,0.518400041199,0.0,0.0,0.0,0.518400041199,0.0,0.0,0.0,2.07360016479,1,320.3192741030154,385.8141682645838,368.11382199743196,12.000617101776163,-5.274786753508838,-1.1251628628763586,0,Fixed-Wing
1970-01-01 00:00:18.368009842,1176,1532986760762113836,base_link,0,1,40.5930068,-79.8974988,367.463618119,0.518400041199,0.0,0.0,0.0,0.518400041199,0.0,0.0,0.0,2.07360016479,1,325.41556855555336,384.1929824036514,367.4437300040389,12.741309490271965,-4.053147043948048,-1.6753053722243592,0,Fixed-Wing
1970-01-01 00:00:18.761283340,1178,1532986761155044455,base_link,0,1,40.5929966,-79.8974355,366.803686995,0.518400041199,0.0,0.0,0.0,0.518400041199,0.0,0.0,0.0,2.07360016479,1,330.77427492962244,383.0604433970399,366.7835919130119,13.397368816769436,-2.8314749329007887,-1.6504194964448957,0,Fixed-Wing
1970-01-01 00:00:19.173706188,1180,1532986761567735334,base_link,0,1,40.5929914,-79.8973695,366.33375658,0.518400041199,0.0,0.0,0.0,0.518400041199,0.0,0.0,0.0,2.07360016479,1,336.36153652602763,382.48319240653433,366.3134044459455,13.968782586229377,-1.4431924199227644,-1.1755215661365004,0,Fixed-Wing
1970-01-01 00:00:19.602614267,1182,1532986761994310620,base_link,0,1,40.5929894,-79.8973025,366.153825878,0.518400041199,0.0,0.0,0.0,0.518400041199,0.0,0.0,0.0,2.07360016479,1,342.0334528475383,382.26133478413453,366.1331858805524,14.180428923078164,-0.5546690161052139,-0.45056668898373065,0,Fixed-Wing
1970-01-01 00:00:20.010577321,1184,1532986762403799813,base_link,0,1,40.5929892,-79.8972358,366.203894135,0.518400041199,0.0,0.0,0.0,0.518400041199,0.0,0.0,0.0,2.07360016479,1,347.67997574417717,382.23938850665917,366.18295060748125,14.116942504009893,-0.05486816275573688,0.12441741610586567,0,Fixed-Wing
1970-01-01 00:00:20.401417867,1186,1532986762795494980,base_link,0,1,40.5929888,-79.8971697,366.433961869,0.518400041199,0.0,0.0,0.0,0.518400041199,0.0,0.0,0.0,2.07360016479,1,353.2757164947834,382.1952444238903,366.41271396379955,13.989981425679755,-0.1103651733549675,0.5744342403365683,0,Fixed-Wing
1970-01-01 00:00:20.781059406,1188,1532986763175039496,base_link,0,1,40.5929886,-79.897104,366.29402912,0.518400041199,0.0,0.0,0.0,0.518400041199,0.0,0.0,0.0,2.07360016479,1,358.83757367245255,382.17329117390886,366.27247250232,13.905268681263506,-0.05488559480535706,-0.3506194315732896,0,Fixed-Wing
1970-01-01 00:00:21.174023529,1190,1532986763565704458,base_link,0,1,40.5929883,-79.8970374,365.834097339,0.518400041199,0.0,0.0,0.0,0.518400041199,0.0,0.0,0.0,2.07360016479,1,364.4756028379444,382.14022133739684,365.8122234866819,14.095707220554534,-0.08267831180409867,-1.1506743194396554,0,Fixed-Wing
1970-01-01 00:00:21.594962576,1192,1532986763989046506,base_link,0,1,40.5929869,-79.8969686,365.454168269,0.518400041199,0.0,0.0,0.0,0.518400041199,0.0,0.0,0.0,2.07360016479,1,370.29988393859367,381.98501215238707,365.43196874538063,14.561358012733756,-0.3880404243435124,-0.9506796338366666,0,Fixed-Wing
1970-01-01 00:00:21.998969546,1194,1532986764392199558,base_link,0,1,40.5929852,-79.896898,365.314241171,0.518400041199,0.0,0.0,0.0,0.518400041199,0.0,0.0,0.0,2.07360016479,1,376.2765602188717,381.79651390049764,365.2917036844891,14.94236310703485,-0.4712668367312219,-0.35067843275828,0,Fixed-Wing
1970-01-01 00:00:22.357235694,1196,1532986764750881993,base_link,0,1,40.5929837,-79.8968263,365.094315126,0.518400041199,0.0,0.0,0.0,0.518400041199,0.0,0.0,0.0,2.07360016479,1,382.34635160910034,381.6302309107924,365.07142717118194,15.17516135783275,-0.4157261819412458,-0.5507160654908705,0,Fixed-Wing
1970-01-01 00:00:22.795369473,1198,1532986765189484891,base_link,0,1,40.5929821,-79.896754,364.824389744,0.518400041199,0.0,0.0,0.0,0.518400041199,0.0,0.0,0.0,2.07360016479,1,388.4669336617769,381.45284728195054,364.8011431282347,15.302143728159223,-0.4434790286609913,-0.6757405156913388,0,Fixed-Wing
1970-01-01 00:00:23.186779265,1200,1532986765579006496,base_link,0,1,40.59298,-79.8966809,364.524465396,0.518400041199,0.0,0.0,0.0,0.518400041199,0.0,0.0,0.0,2.07360016479,1,394.6552409336303,381.21994427437403,364.50085339108665,15.471464395531237,-0.5822837217087529,-0.7507581269858004,0,Fixed-Wing
1970-01-01 00:00:23.621698973,1202,1532986766015495512,base_link,0,1,40.5929761,-79.8966069,364.344542722,0.518400041199,0.0,0.0,0.0,0.518400041199,0.0,0.0,0.0,2.07360016479,1,400.91975619883897,380.78716337650553,364.32056650599895,15.661992952704551,-1.0820009347133046,-0.45073749590655626,0,Fixed-Wing
1970-01-01 00:00:23.941658071,1204,1532986766334909619,base_link,0,1,40.5929691,-79.8965328,364.294621439,0.518400041199,0.0,0.0,0.0,0.518400041199,0.0,0.0,0.0,2.07360016479,1,407.1927644750747,380.01013353804944,364.27029486645904,15.683226435778895,-1.9426620159309353,-0.12568475466374676,0,Fixed-Wing
1970-01-01 00:00:24.370176872,1206,1532986766762478375,base_link,0,1,40.5929566,-79.8964607,364.484700392,0.518400041199,0.0,0.0,0.0,0.518400041199,0.0,0.0,0.0,2.07360016479,1,413.29651241691084,378.62232565655245,364.46006453540843,15.260056557135474,-3.469675839155254,0.4744455224219978,0,Fixed-Wing
1970-01-01 00:00:24.788589880,1208,1532986767182366355,base_link,0,1,40.5929379,-79.8963919,364.714778539,0.518400041199,0.0,0.0,0.0,0.518400041199,0.0,0.0,0.0,2.07360016479,1,419.12094119402497,376.5459843892679,364.6898863826675,14.561727220510226,-5.191086767115854,0.5745804742690289,0,Fixed-Wing
1970-01-01 00:00:25.178047775,1210,1532986767568486052,base_link,0,1,40.5929137,-79.8963279,364.914854058,0.518400041199,0.0,0.0,0.0,0.518400041199,0.0,0.0,0.0,2.07360016479,1,424.53905987321315,373.8588343202443,364.88976254893856,13.545906263752325,-6.71817749054615,0.49971290275825797,0,Fixed-Wing
1970-01-01 00:00:25.585679568,1212,1532986767979425227,base_link,0,1,40.5928837,-79.8962688,365.144926972,0.518400041199,0.0,0.0,0.0,0.518400041199,0.0,0.0,0.0,2.07360016479,1,429.54240963050864,370.5275618362883,365.11969582794245,12.508937295417033,-8.328555994909662,0.5748590661676962,0,Fixed-Wing
1970-01-01 00:00:25.982753056,1214,1532986768376319676,base_link,0,1,40.5928488,-79.8962165,365.494994964,0.518400041199,0.0,0.0,0.0,0.518400041199,0.0,0.0,0.0,2.07360016479,1,433.9701458359337,366.6521089926814,365.4696890352257,11.069838656302156,-9.689068117082574,0.875022394215895,0,Fixed-Wing
1970-01-01 00:00:26.375327678,1216,1532986768769279384,base_link,0,1,40.5928095,-79.8961722,366.0450566,0.518400041199,0.0,0.0,0.0,0.518400041199,0.0,0.0,0.0,2.07360016479,1,437.72068411534303,362.28799927439485,366.0197447419796,9.37676765306774,-10.910765280153997,1.3752011509364939,0,Fixed-Wing
1970-01-01 00:00:26.781299860,1218,1532986769175157390,base_link,0,1,40.5927681,-79.8961358,366.695111029,0.518400041199,0.0,0.0,0.0,0.518400041199,0.0,0.0,0.0,2.07360016479,1,440.8024677641461,357.69064663294574,366.6698473485697,7.704805838270428,-11.493898829070073,1.6253296563098092,0,Fixed-Wing
1970-01-01 00:00:27.182960022,1220,1532986769575799348,base_link,0,1,40.5927246,-79.8961051,367.315160503,0.518400041199,0.0,0.0,0.0,0.518400041199,0.0,0.0,0.0,2.07360016479,1,443.40172953488235,352.8600538228124,367.2899866430607,6.4984468569491485,-12.077025491480464,1.550418005037648,0,Fixed-Wing
1970-01-01 00:00:27.597251634,1222,1532986769989747697,base_link,0,1,40.5926802,-79.8960799,367.80520473,0.518400041199,0.0,0.0,0.0,0.518400041199,0.0,0.0,0.0,2.07360016479,1,445.53538478903334,347.9294788464856,367.78015392735244,5.334378182395694,-12.326992155463984,1.225473357030496,0,Fixed-Wing
1970-01-01 00:00:27.980771148,1224,1532986770374751430,base_link,0,1,40.5926346,-79.8960605,368.275243526,0.518400041199,0.0,0.0,0.0,0.518400041199,0.0,0.0,0.0,2.07360016479,1,447.178045372881,342.8656102488683,368.2503528221047,4.10683626725117,-12.660241204897543,1.1755501366367225,0,Fixed-Wing
1970-01-01 00:00:28.385945924,1226,1532986770779227584,base_link,0,1,40.5925889,-79.8960454,368.525277971,0.518400041199,0.0,0.0,0.0,0.518400041199,0.0,0.0,0.0,2.07360016479,1,448.4566728574836,337.79060247196253,368.5005690722508,3.1967125635719182,-12.688090406332659,0.6255687759602644,0,Fixed-Wing
1970-01-01 00:00:28.781057754,1228,1532986771174965716,base_link,0,1,40.5925434,-79.8960339,368.715308656,0.518400041199,0.0,0.0,0.0,0.518400041199,0.0,0.0,0.0,2.07360016479,1,449.43053481737,332.73778353052535,368.69079755042634,2.4347644641168653,-12.632615821304912,0.4755925971056873,0,Fixed-Wing
1970-01-01 00:00:29.187107119,1230,1532986771581048201,base_link,0,1,40.592498,-79.8960258,368.875335827,0.518400041199,0.0,0.0,0.0,0.518400041199,0.0,0.0,0.0,2.07360016479,1,450.11656457818304,327.69605077536704,368.85103806839584,1.7151515838538438,-12.604899108355644,0.40061932279327156,0,Fixed-Wing
1970-01-01 00:00:29.591609737,1232,1532986771985683363,base_link,0,1,40.5924523,-79.8960208,368.975359957,0.518400041199,0.0,0.0,0.0,0.518400041199,0.0,0.0,0.0,2.07360016479,1,450.54015894163365,322.6209832164412,368.95129168590836,1.059033565136942,-12.688239868108731,0.25064532282083063,0,Fixed-Wing
1970-01-01 00:00:29.970522354,1234,1532986772364187981,base_link,0,1,40.5924065,-79.8960187,369.175381168,0.518400041199,0.0,0.0,0.0,0.518400041199,0.0,0.0,0.0,2.07360016479,1,450.7182585464603,317.5348004587951,369.15155619011,0.44526904917378146,-12.716029115425442,0.5006837912747101,0,Fixed-Wing
1970-01-01 00:00:30.386335979,1236,1532986772780189445,base_link,0,1,40.5923607,-79.8960189,369.375400031,0.518400041199,0.0,0.0,0.0,0.518400041199,0.0,0.0,0.0,2.07360016479,1,450.7016489256121,312.44860565040176,369.35182801672295,-0.041525920786829526,-12.716059243649253,0.500702098126785,0,Fixed-Wing
1970-01-01 00:00:30.797231251,1238,1532986773186382620,base_link,0,1,40.592315,-79.8960191,369.245418864,0.518400041199,0.0,0.0,0.0,0.518400041199,0.0,0.0,0.0,2.07360016479,1,450.6850153259454,307.3734998705155,369.2220952145494,-0.041585870530934925,-12.688335424809761,-0.32434660103084917,0,Fixed-Wing
1970-01-01 00:00:31.185162880,1240,1532986773579203802,base_link,0,1,40.5922691,-79.8960187,369.105438406,0.518400041199,0.0,0.0,0.0,0.518400041199,0.0,0.0,0.0,2.07360016479,1,450.7191761849467,302.2761864381966,369.08235654304866,0.08540599077284436,-12.743857054364728,-0.34936240005991664,0,Fixed-Wing
1970-01-01 00:00:31.567379807,1242,1532986773961242682,base_link,0,1,40.5922233,-79.8960173,368.925458941,0.518400041199,0.0,0.0,0.0,0.518400041199,0.0,0.0,0.0,2.07360016479,1,450.83799005594307,297.1899817693804,368.9026082846933,0.29704804465287993,-12.716083895815832,-0.4493908684774465,0,Fixed-Wing
1970-01-01 00:00:31.994527734,1244,1532986774388488528,base_link,0,1,40.592177,-79.8960157,368.735479901,0.518400041199,0.0,0.0,0.0,0.518400041199,0.0,0.0,0.0,2.07360016479,1,450.97373803767294,292.04825176139474,368.7128577403554,0.339385226659895,-12.854903490621187,-0.4743977087417082,0,Fixed-Wing
1970-01-01 00:00:32.379584844,1246,1532986774773517222,base_link,0,1,40.592131,-79.8960138,368.485501054,0.518400041199,0.0,0.0,0.0,0.518400041199,0.0,0.0,0.0,2.07360016479,1,451.1348769169072,286.9398366742695,368.4630999345165,0.40286532702539685,-12.771612440372946,-0.6244226136148545,0,Fixed-Wing
1970-01-01 00:00:32.793624171,1248,1532986775187517989,base_link,0,1,40.5920854,-79.8960118,368.375522154,0.518400041199,0.0,0.0,0.0,0.518400041199,0.0,0.0,0.0,2.07360016479,1,451.3044888693631,281.8758497296004,368.35333540526807,0.42404896334312403,-12.660537085841533,-0.27442367218630603,0,Fixed-Wing
1970-01-01 00:00:33.188563075,1250,1532986775578748809,base_link,0,1,40.5920403,-79.8960106,368.175542234,0.518400041199,0.0,0.0,0.0,0.518400041199,0.0,0.0,0.0,2.07360016479,1,451.4063659749664,276.8673812162975,368.15356819108945,0.2547042256982829,-12.52173476132162,-0.49944051026951486,0,Fixed-Wing
1970-01-01 00:00:33.610965961,1252,1532986776005034274,base_link,0,1,40.5919954,-79.8960107,368.025560909,0.518400041199,0.0,0.0,0.0,0.518400041199,0.0,0.0,0.0,2.07360016479,1,451.3981916403365,271.8811190205567,368.00380245806525,-0.02043675622870736,-12.466216469093055,-0.3744311819636793,0,Fixed-Wing
1970-01-01 00:00:33.980366062,1254,1532986776374264232,base_link,0,1,40.5919511,-79.8960115,368.155578624,0.518400041199,0.0,0.0,0.0,0.518400041199,0.0,0.0,0.0,2.07360016479,1,451.33077329019915,266.9614967274012,368.13403324986905,-0.16855346024910892,-12.299609215303434,0.325591631132893,0,Fixed-Wing
1970-01-01 00:00:34.389212540,1256,1532986776783168886,base_link,0,1,40.5919074,-79.8960133,368.395595072,0.518400041199,0.0,0.0,0.0,0.518400041199,0.0,0.0,0.0,2.07360016479,1,451.1787017303832,262.10850515228384,368.37426220448475,-0.38019600836028977,-12.13302492391497,0.6005994135128635,0,Fixed-Wing
1970-01-01 00:00:34.799037896,1258,1532986777192409316,base_link,0,1,40.5918645,-79.896016,368.415610272,0.518400041199,0.0,0.0,0.0,0.518400041199,0.0,0.0,0.0,2.07360016479,1,450.9504178356917,257.3443417126314,368.3944879951344,-0.5707354198225372,-11.910944591637783,0.05056675212796332,0,Fixed-Wing
1970-01-01 00:00:35.167278640,1260,1532986777561213835,base_link,0,1,40.5918217,-79.8960188,368.205625336,0.518400041199,0.0,0.0,0.0,0.518400041199,0.0,0.0,0.0,2.07360016479,1,450.71365105052087,252.59127388927774,368.18471023010204,-0.5919436003891612,-11.883204302577695,-0.524468013641505,0,Fixed-Wing
1970-01-01 00:00:35.591160241,1262,1532986777984688525,base_link,0,1,40.5917786,-79.8960212,367.725640946,0.518400041199,0.0,0.0,0.0,0.518400041199,0.0,0.0,0.0,2.07360016479,1,450.5107297512867,247.80488222005468,367.7049283626795,-0.5073260777589058,-11.966517666352647,-1.199508646445489,0,Fixed-Wing
1970-01-01 00:00:35.979470686,1264,1532986778373109081,base_link,0,1,40.591735,-79.8960223,367.415658107,0.518400041199,0.0,0.0,0.0,0.518400041199,0.0,0.0,0.0,2.07360016479,1,450.41787773725696,242.96297823518267,367.39513880129255,-0.23214048139602553,-12.105304700891551,-0.774508756361375,0,Fixed-Wing
1970-01-01 00:00:36.371617342,1266,1532986778765739096,base_link,0,1,40.5916903,-79.896022,367.475677176,0.518400041199,0.0,0.0,0.0,0.518400041199,0.0,0.0,0.0,2.07360016479,1,450.4435790352315,237.99893808629741,367.45534367072673,0.06425613646247948,-12.410658851861484,0.15051894693808085,0,Fixed-Wing
1970-01-01 00:00:36.771274056,1268,1532986779165242274,base_link,0,1,40.5916453,-79.8960205,367.555697611,0.518400041199,0.0,0.0,0.0,0.518400041199,0.0,0.0,0.0,2.07360016479,1,450.57087239851217,233.00158902249566,367.5355400897137,0.31824772934949874,-12.49393488657427,0.20050006997061462,0,Fixed-Wing
1970-01-01 00:00:37.187728160,1270,1532986779581578586,base_link,0,1,40.5915999,-79.8960184,367.585718841,0.518400041199,0.0,0.0,0.0,0.518400041199,0.0,0.0,0.0,2.07360016479,1,450.74895943173726,227.9598201766699,367.5657313833991,0.4452376187555865,-12.604989339084687,0.07548163088686734,0,Fixed-Wing
1970-01-01 00:00:37.577275944,1272,1532986779970757188,base_link,0,1,40.5915539,-79.8960167,367.215739923,0.5625,0.0,0.0,0.0,0.5625,0.0,0.0,0.0,2.25,1,450.89315958583643,222.85140380860645,367.1959232539801,0.36051660849529943,-12.77161564286254,-0.924561928834366,0,Fixed-Wing
1970-01-01 00:00:38.010872077,1274,1532986780404598856,base_link,0,1,40.5915066,-79.8960157,366.735760845,0.5625,0.0,0.0,0.0,0.5625,0.0,0.0,0.0,2.25,1,450.97810075088603,217.59861258112846,366.7161199840752,0.21236246893510077,-13.132569034301506,-1.199562155059207,0,Fixed-Wing
1970-01-01 00:00:38.367567642,1276,1532986780761562964,base_link,0,1,40.5914578,-79.8960159,366.455781178,0.5625,0.0,0.0,0.0,0.5625,0.0,0.0,0.0,2.25,1,450.9614773530144,212.17924409658985,366.4363245141635,-0.041560364895486215,-13.54903091773782,-0.6995201531860828,0,Fixed-Wing
1970-01-01 00:00:38.782832631,1278,1532986781175867124,base_link,0,1,40.591408,-79.8960162,366.755801842,0.5625,0.0,0.0,0.0,0.5625,0.0,0.0,0.0,2.25,1,450.93643584658867,206.6488420493613,366.73652896457907,-0.06260658336059315,-13.826627316300641,0.7505449005593983,0,Fixed-Wing
1970-01-01 00:00:39.169124715,1280,1532986781563118053,base_link,0,1,40.5913591,-79.8960148,367.165823883,0.5625,0.0,0.0,0.0,0.5625,0.0,0.0,0.0,2.25,1,451.0553138205405,201.2183988938408,367.14671666357026,0.2972083092535152,-13.576718841149084,1.025515395670791,0,Fixed-Wing
1970-01-01 00:00:39.597266432,1282,1532986781991230939,base_link,0,1,40.5913113,-79.8960132,367.585845678,0.5625,0.0,0.0,0.0,0.5625,0.0,0.0,0.0,2.25,1,451.1911168137881,195.91011409548145,367.56689452366203,0.33952276164322437,-13.271309204812598,1.0504919223659293,0,Fixed-Wing
1970-01-01 00:00:39.961154712,1284,1532986782355124146,base_link,0,1,40.591265,-79.8960122,367.915866236,0.5625,0.0,0.0,0.0,0.5625,0.0,0.0,0.0,2.25,1,451.2761089778003,190.76840152675624,367.8970653131834,0.21248997207922357,-12.8548598905081,0.8254641196888596,0,Fixed-Wing
1970-01-01 00:00:40.334958641,1286,1532986782728549644,base_link,0,1,40.5912186,-79.8960122,368.14588582,0.518400041199,0.0,0.0,0.0,0.518400041199,0.0,0.0,0.0,2.07360016479,1,451.2764371550391,185.6155751807128,368.1272372771855,0.0008204800186701412,-12.882645584159887,0.5754558055164178,0,Fixed-Wing
1970-01-01 00:00:40.796117699,1288,1532986783190193021,base_link,0,1,40.5911721,-79.8960138,367.905903816,0.518400041199,0.0,0.0,0.0,0.518400041199,0.0,0.0,0.0,2.07360016479,1,451.1412803598642,180.4516217309419,367.8874133671536,-0.33790719376098804,-12.910464595334043,-0.5995867564837251,0,Fixed-Wing
1970-01-01 00:00:41.178029668,1290,1532986783572032862,base_link,0,1,40.5911245,-79.8960186,367.715919002,0.518400041199,0.0,0.0,0.0,0.518400041199,0.0,0.0,0.0,2.07360016479,1,450.7352292462898,175.16549603470594,367.6976049379893,-1.015173466741984,-13.215908956492932,-0.474542427320019,0,Fixed-Wing
1970-01-01 00:00:41.612981221,1292,1532986784006673920,base_link,0,1,40.5910766,-79.8960279,367.915929707,0.518400041199,0.0,0.0,0.0,0.518400041199,0.0,0.0,0.0,2.07360016479,1,449.94824656061564,169.84604239979126,367.89781534597375,-1.96754525372182,-13.299232552751574,0.5005485446456518,0,Fixed-Wing
1970-01-01 00:00:41.927619761,1294,1532986784321510380,base_link,0,1,40.5910289,-79.8960409,368.005936541,0.518400041199,0.0,0.0,0.0,0.518400041199,0.0,0.0,0.0,2.07360016479,1,448.8480191916332,164.5487773346598,367.98803878391425,-2.7506922036052033,-13.243758631967076,0.2255687454447812,0,Fixed-Wing
1970-01-01 00:00:42.357366018,1296,1532986784751209277,base_link,0,1,40.5909822,-79.8960599,368.015936802,0.518400041199,0.0,0.0,0.0,0.518400041199,0.0,0.0,0.0,2.07360016479,1,447.239829856894,159.36253226689743,367.9982838570456,-4.020654266290039,-12.966196148232598,0.025613835450919588,0,Fixed-Wing
1970-01-01 00:00:42.776720178,1298,1532986785170418765,base_link,0,1,40.5909368,-79.8960858,368.065929439,0.518400041199,0.0,0.0,0.0,0.518400041199,0.0,0.0,0.0,2.07360016479,1,445.0474917349604,154.32062180896258,368.0485538999851,-5.4810919539720055,-12.605343385289455,0.12568076298316028,0,Fixed-Wing
1970-01-01 00:00:43.185799137,1300,1532986785578925758,base_link,0,1,40.5908934,-79.8961177,368.005915079,0.518400041199,0.0,0.0,0.0,0.518400041199,0.0,0.0,0.0,2.07360016479,1,442.3471810272246,149.50078408249794,367.9888421833937,-6.75108056796494,-12.050136572307355,-0.149286009349013,0,Fixed-Wing
1970-01-01 00:00:43.557662625,1302,1532986785951486939,base_link,0,1,40.5908534,-79.8961569,367.965891792,0.739600024605,0.0,0.0,0.0,0.739600024605,0.0,0.0,0.0,2.95840009842,1,439.0288412959585,145.0584897578956,367.94915065867144,-8.296222658184922,-11.10623559210754,-0.0992332773030526,0,Fixed-Wing
1970-01-01 00:00:44.013679010,1304,1532986786407735100,base_link,0,1,40.5908169,-79.8962027,368.075860253,0.518400041199,0.0,0.0,0.0,0.518400041199,0.0,0.0,0.0,2.07360016479,1,435.1517408824633,141.00485118537023,368.0594755455866,-9.693187227163257,-10.134552486175274,0.2758246293962724,0,Fixed-Wing
1970-01-01 00:00:44.407896862,1306,1532986786801984952,base_link,0,1,40.5907864,-79.8962548,368.40581971,0.518400041199,0.0,0.0,0.0,0.518400041199,0.0,0.0,0.0,2.07360016479,1,430.74126534253537,137.61750303407996,368.3898081093051,-11.026685050647067,-8.468751472041912,0.825868573381945,0,Fixed-Wing
1970-01-01 00:00:44.781483160,1308,1532986787175280179,base_link,0,1,40.5907625,-79.8963115,368.985771652,0.518400041199,0.0,0.0,0.0,0.518400041199,0.0,0.0,0.0,2.07360016479,1,425.94133190371895,134.96308631613317,368.9701387859076,-12.000373613853684,-6.636340430186327,1.4508919816454247,0,Fixed-Wing
1970-01-01 00:00:45.140530174,1310,1532986787534427225,base_link,0,1,40.5907431,-79.8963706,369.455719227,0.518400041199,0.0,0.0,0.0,0.518400041199,0.0,0.0,0.0,2.07360016479,1,420.93817868492533,132.80839449400077,369.4404633662158,-12.50844592705075,-5.386971969069624,1.1758643646669487,0,Fixed-Wing
1970-01-01 00:00:45.588591064,1312,1532986787982643890,base_link,0,1,40.590728,-79.8964318,369.685662829,0.518400041199,0.0,0.0,0.0,0.518400041199,0.0,0.0,0.0,2.07360016479,1,415.75719701551833,131.1312164427651,369.67078107765656,-12.953037060185217,-4.193133819111038,0.5758201905104773,0,Fixed-Wing
1970-01-01 00:00:45.984379183,1314,1532986788377837899,base_link,0,1,40.5907172,-79.8964951,369.745602457,0.518400041199,0.0,0.0,0.0,0.518400041199,0.0,0.0,0.0,2.07360016479,1,410.39839283243623,129.9315541982582,369.73109186564204,-13.397613350306013,-2.999290579343312,0.15078375523270063,0,Fixed-Wing
1970-01-01 00:00:46.408426385,1316,1532986788802546603,base_link,0,1,40.59071,-79.8965604,369.685538512,0.518400041199,0.0,0.0,0.0,0.518400041199,0.0,0.0,0.0,2.07360016479,1,404.8702407322963,129.13167300526231,369.6713969933461,-13.821002195448665,-1.9997929731735011,-0.1492438967152262,0,Fixed-Wing
1970-01-01 00:00:46.785978207,1318,1532986789180098969,base_link,0,1,40.5907055,-79.8966273,369.615471788,0.518400041199,0.0,0.0,0.0,0.518400041199,0.0,0.0,0.0,2.07360016479,1,399.20661744451075,128.6316301029862,369.60169687140905,-14.159695405757075,-1.2501635130483542,-0.1742581464592065,0,Fixed-Wing
1970-01-01 00:00:47.203147606,1320,1532986789596486002,base_link,0,1,40.5907025,-79.8966951,369.425403511,0.518400041199,0.0,0.0,0.0,0.518400041199,0.0,0.0,0.0,2.07360016479,1,393.46678478792757,128.298163755568,369.411991472911,-14.350227401691049,-0.8337033851978572,-0.47428483906291535,0,Fixed-Wing
1970-01-01 00:00:47.602571810,1322,1532986789996234333,base_link,0,1,40.5907008,-79.8967636,369.235333973,0.518400041199,0.0,0.0,0.0,0.518400041199,0.0,0.0,0.0,2.07360016479,1,387.66768357933955,128.1090669510489,369.22228032993183,-14.49840544971527,-0.4727632856455939,-0.47429920091191446,0,Fixed-Wing
1970-01-01 00:00:47.942469730,1324,1532986790336317788,base_link,0,1,40.5906992,-79.8968328,369.165263682,0.518400041199,0.0,0.0,0.0,0.518400041199,0.0,0.0,0.0,2.07360016479,1,381.80932815557605,127.93107928921165,369.15256648371866,-14.646547654053178,-0.44498917910618424,-0.17429245869358148,0,Fixed-Wing
1970-01-01 00:00:48.389298111,1326,1532986790783159226,base_link,0,1,40.5906975,-79.896902,369.025193441,0.518400041199,0.0,0.0,0.0,0.518400041199,0.0,0.0,0.0,2.07360016479,1,375.95096902182,127.74198958404813,369.01284753051806,-14.646556929451924,-0.47274553645795303,-0.349313102091093,0,Fixed-Wing
1970-01-01 00:00:48.797290098,1328,1532986791191320428,base_link,0,1,40.5906962,-79.8969716,368.875122628,0.518400041199,0.0,0.0,0.0,0.518400041199,0.0,0.0,0.0,2.07360016479,1,370.05874370662866,127.59732358804425,368.8631236999365,-14.731226193157076,-0.3616812656666552,-0.37432642114279097,0,Fixed-Wing
1970-01-01 00:00:49.199435800,1330,1532986791593389874,base_link,0,1,40.5906947,-79.8970423,368.735050781,0.518400041199,0.0,0.0,0.0,0.518400041199,0.0,0.0,0.0,2.07360016479,1,364.07339586926946,127.43044741947509,368.72339914857025,-14.964042975331889,-0.4172091958367143,-0.34932709813509366,0,Fixed-Wing
1970-01-01 00:00:49.596312621,1332,1532986791990387623,base_link,0,1,40.5906931,-79.897113,368.644978984,0.5625,0.0,0.0,0.0,0.5625,0.0,0.0,0.0,2.25,1,358.088051361863,127.25247182062029,368.6336692570608,-14.964034650075419,-0.4449590202929142,-0.22433482384076775,0,Fixed-Wing
1970-01-01 00:00:49.987287316,1334,1532986792380530833,base_link,0,1,40.5906915,-79.8971842,368.784906683,0.518400041199,0.0,0.0,0.0,0.518400041199,0.0,0.0,0.0,2.07360016479,1,352.06039022013675,127.07450362436609,368.77393558240544,-15.069830996710456,-0.44494051295857956,0.350681594033404,0,Fixed-Wing
1970-01-01 00:00:50.393415982,1336,1532986792787092265,base_link,0,1,40.5906903,-79.8972546,368.97483504,0.577599985504,0.0,0.0,0.0,0.577599985504,0.0,0.0,0.0,2.31039994202,1,346.10045589026447,126.94096541323043,368.9641923146547,-14.900506347466344,-0.3338605515639654,0.47566323546879963,0,Fixed-Wing
1970-01-01 00:00:50.839517967,1338,1532986793227576699,base_link,0,1,40.59069,-79.8973251,369.124762922,0.518400041199,0.0,0.0,0.0,0.518400041199,0.0,0.0,0.0,2.07360016479,1,340.1320484611743,126.90737797975689,369.1144414677806,-14.92169004877764,-0.08397236244016532,0.3756397866050363,0,Fixed-Wing
1970-01-01 00:00:51.174298143,1340,1532986793568429273,base_link,0,1,40.5906908,-79.8973959,369.29469004,0.518400041199,0.0,0.0,0.0,0.518400041199,0.0,0.0,0.0,2.07360016479,1,334.13823875049343,126.99595227634634,369.2846831713831,-14.985198610639639,0.22144570653043508,0.4256234120598629,0,Fixed-Wing
1970-01-01 00:00:51.587139301,1342,1532986793981169311,base_link,0,1,40.5906917,-79.897467,369.224616817,0.518400041199,0.0,0.0,0.0,0.518400041199,0.0,0.0,0.0,2.07360016479,1,328.1190185250061,127.09563073101995,369.2149199925978,-15.048727756467404,0.24920735101481573,-0.17441579567407622,0,Fixed-Wing
1970-01-01 00:00:52.009439406,1344,1532986794403390120,base_link,0,1,40.5906927,-79.8975391,368.964542535,0.577599985504,0.0,0.0,0.0,0.577599985504,0.0,0.0,0.0,2.31039994202,1,322.01513013840616,127.2064118323903,368.955154126866,-15.260407684845617,0.27696521686063297,-0.6494438893045738,0,Fixed-Wing
1970-01-01 00:00:52.387739579,1346,1532986794781481686,base_link,0,1,40.5906934,-79.8976126,368.694466956,0.518400041199,0.0,0.0,0.0,0.518400041199,0.0,0.0,0.0,2.07360016479,1,315.7927216034999,127.28387696841841,368.6853876574991,-15.5567213897282,0.1936715552902625,-0.6744465235107008,0,Fixed-Wing
1970-01-01 00:00:52.784536753,1348,1532986795178476715,base_link,0,1,40.5906937,-79.897687,368.394390634,0.577599985504,0.0,0.0,0.0,0.577599985504,0.0,0.0,0.0,2.31039994202,1,309.4941215685982,127.3169225545717,368.3856189623799,-15.7472087116463,0.08261768317897446,-0.7494554632938788,0,Fixed-Wing
1970-01-01 00:00:53.201272714,1350,1532986795595212228,base_link,0,1,40.5906937,-79.8977629,368.084312911,0.577599985504,0.0,0.0,0.0,0.577599985504,0.0,0.0,0.0,2.31039994202,1,303.06853549154033,127.31665236618817,368.07584934860154,-16.064688103609306,-0.0006755013564073853,-0.7744588850957579,0,Fixed-Wing
1970-01-01 00:00:53.615729579,1352,1532986796009636901,base_link,0,1,40.5906929,-79.8978398,367.974234513,0.518400041199,0.0,0.0,0.0,0.518400041199,0.0,0.0,0.0,2.07360016479,1,296.558304481346,127.22754640789505,367.96607830409823,-16.276309959434002,-0.22277492060422152,-0.27443996105650864,0,Fixed-Wing
1970-01-01 00:00:54.003052701,1354,1532986796396889047,base_link,0,1,40.5906917,-79.8979172,368.194155782,0.518400041199,0.0,0.0,0.0,0.518400041199,0.0,0.0,0.0,2.07360016479,1,290.00576106139624,127.09403011241454,368.1863030998036,-16.38209574418288,-0.33380575996045886,0.5505867656678268,0,Fixed-Wing
1970-01-01 00:00:54.444754123,1356,1532986796838589478,base_link,0,1,40.5906906,-79.8979947,368.454076916,0.518400041199,0.0,0.0,0.0,0.518400041199,0.0,0.0,0.0,2.07360016479,1,283.4447524685306,126.97162528684709,368.44652118801207,-16.403259628847344,-0.30602583508122233,0.6505744963735605,0,Fixed-Wing
1970-01-01 00:00:54.786837030,1358,1532986797180432065,base_link,0,1,40.5906896,-79.8980721,368.73399812,0.518400041199,0.0,0.0,0.0,0.518400041199,0.0,0.0,0.0,2.07360016479,1,276.89220941981677,126.86033218338065,368.72673201678737,-16.382094816051367,-0.2782452797036793,0.7005585970751078,0,Fixed-Wing
1970-01-01 00:00:55.230783821,1360,1532986797624755911,base_link,0,1,40.5906888,-79.8981496,369.033919148,0.518400041199,0.0,0.0,0.0,0.518400041199,0.0,0.0,0.0,2.07360016479,1,270.33119980249023,126.7712554092954,369.0269358614437,-16.403262190114887,-0.2227019568011623,0.7505433860931825,0,Fixed-Wing
1970-01-01 00:00:55.598817817,1362,1532986797992858099,base_link,0,1,40.590688,-79.8982272,369.303840083,0.518400041199,0.0,0.0,0.0,0.518400041199,0.0,0.0,0.0,2.07360016479,1,263.7617223329987,126.68218350357856,369.29713322319554,-16.424432773203584,-0.22268978533246406,0.6755238029507695,0,Fixed-Wing
1970-01-01 00:00:55.974868718,1364,1532986798368884391,base_link,0,1,40.5906878,-79.8983051,369.423760467,0.518400041199,0.0,0.0,0.0,0.518400041199,0.0,0.0,0.0,2.07360016479,1,257.1668382907628,126.65974499074582,369.4173229720221,-16.48795206343258,-0.056098806528132684,0.30048789402156373,0,Fixed-Wing
1970-01-01 00:00:56.376132310,1366,1532986798770177776,base_link,0,1,40.590688,-79.8983835,369.313680182,0.518400041199,0.0,0.0,0.0,0.518400041199,0.0,0.0,0.0,2.07360016479,1,250.5296142446784,126.68172729186753,369.30750601937433,-16.593806836518674,0.05495822592444205,-0.2745547365825155,0,Fixed-Wing
1970-01-01 00:00:56.800032858,1368,1532986799193830964,base_link,0,1,40.5906887,-79.8984635,369.21359806,0.518400041199,0.0,0.0,0.0,0.518400041199,0.0,0.0,0.0,2.07360016479,1,243.75693558769626,126.75923749386504,369.2076843971062,-16.932458603092517,0.19378422528391837,-0.24956528610814843,0,Fixed-Wing
1970-01-01 00:00:57.190594018,1370,1532986799583328896,base_link,0,1,40.5906892,-79.8985446,369.263514908,0.518400041199,0.0,0.0,0.0,0.518400041199,0.0,0.0,0.0,2.07360016479,1,236.89113931531816,126.81454338609396,369.257858460884,-17.165263117785564,0.13827095276516282,0.12544080428062845,0,Fixed-Wing
1970-01-01 00:00:57.560436041,1372,1532986799954297187,base_link,0,1,40.5906886,-79.8986257,369.403432231,0.518400041199,0.0,0.0,0.0,0.518400041199,0.0,0.0,0.0,2.07360016479,1,230.02535004664435,126.74769970014577,369.3980280524018,-17.165245607736868,-0.16711673512354505,0.3504397485831958,0,Fixed-Wing
1970-01-01 00:00:58.027800618,1374,1532986800421809668,base_link,0,1,40.590688,-79.8987064,369.413349974,0.518400041199,0.0,0.0,0.0,0.518400041199,0.0,0.0,0.0,2.07360016479,1,223.19341917442463,126.68086075981049,369.40818950029313,-17.08059580736062,-0.16710487055739406,0.025404762942669353,0,Fixed-Wing
1970-01-01 00:00:58.390228711,1376,1532986800783662051,base_link,0,1,40.5906881,-79.8987871,369.373267433,0.518400041199,0.0,0.0,0.0,0.518400041199,0.0,0.0,0.0,2.07360016479,1,216.3614842079079,126.69176380205815,369.36834180926394,-17.08060604356381,0.027258832266607354,-0.0996237106399656,0,Fixed-Wing
1970-01-01 00:00:58.808062525,1378,1532986801201991608,base_link,0,1,40.5906891,-79.8988678,369.573184524,0.518400041199,0.0,0.0,0.0,0.518400041199,0.0,0.0,0.0,2.07360016479,1,209.52955441029485,126.8026250917589,369.5684844516253,-17.08059312072304,0.2771656967082278,0.5003791229639248,0,Fixed-Wing
1970-01-01 00:00:59.191347836,1380,1532986801584599192,base_link,0,1,40.59069,-79.8989481,369.743102076,0.518400041199,0.0,0.0,0.0,0.518400041199,0.0,0.0,0.0,2.07360016479,1,202.73148710245601,126.9023877277875,369.73861939262684,-16.995933086585982,0.24941781387312575,0.4253564935460835,0,Fixed-Wing
1970-01-01 00:00:59.560287525,1382,1532986801954403935,base_link,0,1,40.5906905,-79.8990277,369.753020524,0.518400041199,0.0,0.0,0.0,0.518400041199,0.0,0.0,0.0,2.07360016479,1,195.99267675758057,126.95773394716187,369.7487470614166,-16.847784012469177,0.13837177516581053,0.02532031138845748,0,Fixed-Wing
1970-01-01 00:00:59.986364931,1384,1532986802379994846,base_link,0,1,40.5906911,-79.8991072,369.762939042,0.518400041199,0.0,0.0,0.0,0.518400041199,0.0,0.0,0.0,2.07360016479,1,189.2623320513234,127.02419171942353,369.7588672181523,-16.826618963496283,0.16615190748997968,0.02530153040810641,0,Fixed-Wing
1970-01-01 00:01:00.361896504,1386,1532986802755877074,base_link,0,1,40.5906918,-79.8991865,369.642857733,0.518400041199,0.0,0.0,0.0,0.518400041199,0.0,0.0,0.0,2.07360016479,1,182.54891513782388,127.10175863214911,369.6389797495026,-16.784297577139757,0.19392600848434852,-0.2997321595714857,0,Fixed-Wing
1970-01-01 00:01:00.748618348,1388,1532986803142596166,base_link,0,1,40.5906919,-79.8992662,369.402776279,0.518400041199,0.0,0.0,0.0,0.518400041199,0.0,0.0,0.0,2.07360016479,1,175.801633525065,127.11269691849583,369.3990873417807,-16.868963135238292,0.027346946479378263,-0.5997580084150488,0,Fixed-Wing
1970-01-01 00:01:01.153206122,1390,1532986803546094504,base_link,0,1,40.5906921,-79.8993464,369.092694283,0.518400041199,0.0,0.0,0.0,0.518400041199,0.0,0.0,0.0,2.07360016479,1,169.01202113595446,127.13474419708842,369.08918816427285,-16.974794838544096,0.05512067691194834,-0.7747828089960873,0,Fixed-Wing
1970-01-01 00:01:01.527865827,1392,1532986803921976956,base_link,0,1,40.5906917,-79.8994268,368.682612346,0.518400041199,0.0,0.0,0.0,0.518400041199,0.0,0.0,0.0,2.07360016479,1,162.20547667871264,127.09016382649662,368.67928358844995,-17.017126913815655,-0.11145594199689592,-1.0248075558972822,0,Fixed-Wing
1970-01-01 00:01:01.978287959,1394,1532986804372338385,base_link,0,1,40.5906906,-79.8995069,368.262531021,0.518400041199,0.0,0.0,0.0,0.518400041199,0.0,0.0,0.0,2.07360016479,1,155.42433190760192,126.96785330369326,368.25937330540864,-16.953624840894634,-0.305790067561441,-1.0498229496359934,0,Fixed-Wing
1970-01-01 00:01:02.357226530,1396,1532986804751314012,base_link,0,1,40.5906899,-79.8995872,368.122449334,0.518400041199,0.0,0.0,0.0,0.518400041199,0.0,0.0,0.0,2.07360016479,1,148.62626175906462,126.88997518083286,368.119454966622,-16.995940188651755,-0.19470406883409133,-0.3498115884880538,0,Fixed-Wing
1970-01-01 00:01:02.765909812,1398,1532986805159895278,base_link,0,1,40.5906904,-79.8996664,368.422368276,0.518400041199,0.0,0.0,0.0,0.518400041199,0.0,0.0,0.0,2.07360016479,1,141.9213232280381,126.94537672369637,368.41952529660057,-16.76310066709634,0.1385100901128222,0.7502095843776789,0,Fixed-Wing
1970-01-01 00:01:03.203544175,1400,1532986805597069450,base_link,0,1,40.5906908,-79.8997441,368.772288801,0.518400041199,0.0,0.0,0.0,0.518400041199,0.0,0.0,0.0,2.07360016479,1,135.34337301579143,126.98968236024402,368.7695877014553,-16.445615583317906,0.11076907597753889,0.8751953959296298,0,Fixed-Wing
1970-01-01 00:01:03.576717772,1402,1532986805970800325,base_link,0,1,40.5906917,-79.8998203,369.102210657,0.518400041199,0.0,0.0,0.0,0.518400041199,0.0,0.0,0.0,2.07360016479,1,128.89240839487172,127.08952182506991,369.0996409942165,-16.128137318478597,0.2496098945099802,0.825170364569387,0,Fixed-Wing
1970-01-01 00:01:04.006306367,1404,1532986806400309881,base_link,0,1,40.5906927,-79.8998947,369.372134318,0.518400041199,0.0,0.0,0.0,0.518400041199,0.0,0.0,0.0,2.07360016479,1,122.59382706415275,127.20047343158737,369.3696864292632,-15.747161949085145,0.2773914989111017,0.6751439690953872,0,Fixed-Wing
1970-01-01 00:01:04.350434643,1406,1532986806744350733,base_link,0,1,40.5906936,-79.8999683,369.472058846,0.518400041199,0.0,0.0,0.0,0.518400041199,0.0,0.0,0.0,2.07360016479,1,116.36296918643288,127.30032277979561,369.469725508417,-15.577845697356057,0.24963460407777874,0.25010895278741696,0,Fixed-Wing
1970-01-01 00:01:04.783500508,1408,1532986807177215575,base_link,0,1,40.5906949,-79.9000416,369.421983522,0.518400041199,0.0,0.0,0.0,0.518400041199,0.0,0.0,0.0,2.07360016479,1,110.15750555665613,127.44459569049675,369.4197573281514,-15.514357220516784,0.3606985081857367,-0.12492607233734737,0,Fixed-Wing
1970-01-01 00:01:05.183881288,1410,1532986807577584803,base_link,0,1,40.5906965,-79.9001157,369.201907265,0.518400041199,0.0,0.0,0.0,0.518400041199,0.0,0.0,0.0,2.07360016479,1,103.88431232039389,127.62218514769336,369.1997826152515,-15.683688856654161,0.44399362270453036,-0.5499615305186181,0,Fixed-Wing
1970-01-01 00:01:05.587548075,1412,1532986807981570821,base_link,0,1,40.5906991,-79.9001912,368.781829169,0.518400041199,0.0,0.0,0.0,0.518400041199,0.0,0.0,0.0,2.07360016479,1,97.49259356934115,127.91082674279656,368.7797994769216,-15.980015978350865,0.7216364613987646,-1.0500050960540297,0,Fixed-Wing
1970-01-01 00:01:05.993092231,1414,1532986808386910754,base_link,0,1,40.5907041,-79.900269,368.401747731,0.518400041199,0.0,0.0,0.0,0.518400041199,0.0,0.0,0.0,2.07360016479,1,90.90615921187762,128.4659980544817,368.39980398627404,-16.466826900869368,1.3879907387961037,-0.9500314780354093,0,Fixed-Wing
1970-01-01 00:01:06.355250023,1416,1532986808749251361,base_link,0,1,40.590714,-79.9003484,368.041662616,0.518400041199,0.0,0.0,0.0,0.518400041199,0.0,0.0,0.0,2.07360016479,1,84.18426736270106,129.56533089290156,368.0397887065899,-16.805485869805537,2.7484557765595823,-0.9000787027519951,0,Fixed-Wing
1970-01-01 00:01:06.795806298,1418,1532986809189864660,base_link,0,1,40.5907311,-79.9004286,367.861573678,0.518400041199,0.0,0.0,0.0,0.518400041199,0.0,0.0,0.0,2.07360016479,1,77.39464546338056,131.46425012956126,367.85974669528,-16.97481861513895,4.747511729677106,-0.45012528391243933,0,Fixed-Wing
1970-01-01 00:01:07.181850898,1420,1532986809575857836,base_link,0,1,40.5907552,-79.9005076,367.741483044,0.518400041199,0.0,0.0,0.0,0.518400041199,0.0,0.0,0.0,2.07360016479,1,70.70661066578742,134.14054463936958,367.73967773532974,-16.720839431757263,6.6910373712024915,-0.30018590824159086,0,Fixed-Wing
1970-01-01 00:01:07.550598909,1422,1532986809944651031,base_link,0,1,40.5907859,-79.900584,367.521392311,0.518400041199,0.0,0.0,0.0,0.518400041199,0.0,0.0,0.0,2.07360016479,1,64.23868509185164,137.5497907799238,367.5195825378894,-16.17054160921188,8.523498908836439,-0.5502627554248536,0,Fixed-Wing
1970-01-01 00:01:07.980303153,1424,1532986810374405835,base_link,0,1,40.5908264,-79.9006543,367.351303709,0.518400041199,0.0,0.0,0.0,0.518400041199,0.0,0.0,0.0,2.07360016479,1,58.287172937128624,142.04736114704548,367.34945219893973,-14.879449962055823,11.244431917240481,-0.42534498789860936,0,Fixed-Wing
1970-01-01 00:01:08.412433086,1426,1532986810806366232,base_link,0,1,40.5908765,-79.9007146,367.341221301,0.518400041199,0.0,0.0,0.0,0.518400041199,0.0,0.0,0.0,2.07360016479,1,53.1822435066391,147.6110489609083,367.3392876944781,-12.762897906629616,13.909845477703566,-0.025412404712245634,0,Fixed-Wing
1970-01-01 00:01:08.792231816,1428,1532986811186295842,base_link,0,1,40.5909337,-79.9007632,367.491147868,0.518400041199,0.0,0.0,0.0,0.518400041199,0.0,0.0,0.0,2.07360016479,1,49.06781724788241,153.96322281190714,367.4890966593843,-10.286528540676048,15.88114927921466,0.3745392665324573,0,Fixed-Wing
1970-01-01 00:01:09.144115206,1430,1532986811537674018,base_link,0,1,40.5909957,-79.9008,367.601084474,0.518400041199,0.0,0.0,0.0,0.518400041199,0.0,0.0,0.0,2.07360016479,1,45.95235862983344,160.84845602627001,367.59888610800203,-7.788997049989671,17.21385765950185,0.2744859734131347,0,Fixed-Wing
1970-01-01 00:01:09.605781498,1432,1532986811999821716,base_link,0,1,40.5910615,-79.9008238,367.75103276,0.518400041199,0.0,0.0,0.0,0.518400041199,0.0,0.0,0.0,2.07360016479,1,43.93745635932906,168.1556975509667,367.7486596543055,-5.037482362967281,18.2689259134078,0.37445071604095387,0,Fixed-Wing
1970-01-01 00:01:09.965206562,1434,1532986812359256636,base_link,0,1,40.5911284,-79.900834,368.160994461,0.518400041199,0.0,0.0,0.0,0.518400041199,0.0,0.0,0.0,2.07360016479,1,43.073905493088226,175.5851114622814,368.1584265559359,-2.158974319446464,18.574370624964864,1.024463354926843,0,Fixed-Wing
1970-01-01 00:01:10.343785648,1436,1532986812736228367,base_link,0,1,40.5911941,-79.9008321,368.870969007,0.518400041199,0.0,0.0,0.0,0.518400041199,0.0,0.0,0.0,2.07360016479,1,43.23471786688545,182.88127807482317,368.8681944925082,0.4020490266992532,18.241237387036872,1.774499693917096,0,Fixed-Wing
1970-01-01 00:01:10.786143710,1438,1532986813180054808,base_link,0,1,40.591258,-79.9008232,369.58095145,0.518400041199,0.0,0.0,0.0,0.518400041199,0.0,0.0,0.0,2.07360016479,1,43.98813494475404,189.9775554354922,369.5779638717058,1.883627457907082,17.741491768802184,1.7745033006424114,0,Fixed-Wing
1970-01-01 00:01:11.235120215,1440,1532986813628923922,base_link,0,1,40.5913197,-79.9008107,370.240938493,0.518400041199,0.0,0.0,0.0,0.518400041199,0.0,0.0,0.0,2.07360016479,1,45.04631930285929,196.82951936775075,370.2377352698492,2.645579946360714,17.130680711278362,1.6495027229811543,0,Fixed-Wing
1970-01-01 00:01:11.545021107,1442,1532986813937549521,base_link,0,1,40.5913791,-79.9007966,370.750928139,0.518400041199,0.0,0.0,0.0,0.518400041199,0.0,0.0,0.0,2.07360016479,1,46.23995451137603,203.42606025776246,370.74750890759367,2.984222311295855,16.492094369275893,1.2744914464762036,0,Fixed-Wing
1970-01-01 00:01:11.953161671,1444,1532986814346863010,base_link,0,1,40.5914368,-79.9007826,370.990918406,0.518400041199,0.0,0.0,0.0,0.518400041199,0.0,0.0,0.0,2.07360016479,1,47.42512124742639,209.83380425862336,370.9872823976145,2.963050177383889,16.020080905793016,0.5994607007835584,0,Fixed-Wing
1970-01-01 00:01:12.390217220,1446,1532986814783937855,base_link,0,1,40.5914939,-79.9007694,371.090908122,0.518400041199,0.0,0.0,0.0,0.518400041199,0.0,0.0,0.0,2.07360016479,1,48.54255947438078,216.17491229861452,371.087051443832,2.793721284843796,15.853483506735692,0.2494338400666669,0,Fixed-Wing
1970-01-01 00:01:12.771965511,1448,1532986815165947841,base_link,0,1,40.5915504,-79.9007583,371.220895965,0.518400041199,0.0,0.0,0.0,0.518400041199,0.0,0.0,0.0,2.07360016479,1,49.48221609577007,222.44938913165538,371.2168158091548,2.349247269600356,15.686897993011847,0.32442551245502327,0,Fixed-Wing
1970-01-01 00:01:13.178645087,1450,1532986815572762425,base_link,0,1,40.5916062,-79.9007511,371.270880143,0.518400041199,0.0,0.0,0.0,0.518400041199,0.0,0.0,0.0,2.07360016479,1,50.091707708638125,228.64612455104964,371.26657557744113,1.5237976030622757,15.492535712592712,0.12440501894165627,0,Fixed-Wing
1970-01-01 00:01:13.596307447,1452,1532986815990041618,base_link,0,1,40.5916619,-79.9007484,371.150859798,0.518400041199,0.0,0.0,0.0,0.518400041199,0.0,0.0,0.0,2.07360016479,1,50.320239642467925,234.83174606849826,371.1463281504463,0.5713555455740497,15.46474970735839,-0.3006320959313379,0,Fixed-Wing
1970-01-01 00:01:13.970179442,1454,1532986816364187756,base_link,0,1,40.5917175,-79.9007501,370.800835031,0.518400041199,0.0,0.0,0.0,0.518400041199,0.0,0.0,0.0,2.07360016479,1,50.17627809311623,241.00625094274437,370.79607364026526,-0.359920069782375,15.436956848673468,-0.8756756808582878,0,Fixed-Wing
1970-01-01 00:01:14.387813257,1456,1532986816781762116,base_link,0,1,40.5917733,-79.9007559,370.370806024,0.518400041199,0.0,0.0,0.0,0.518400041199,0.0,0.0,0.0,2.07360016479,1,49.68522212206976,247.20296026861052,370.3658107398905,-1.227695173899003,15.492470475836793,-1.0757056576915238,0,Fixed-Wing
1970-01-01 00:01:14.787262136,1458,1532986817181324178,base_link,0,1,40.5918301,-79.900765,369.860773263,0.518400041199,0.0,0.0,0.0,0.518400041199,0.0,0.0,0.0,2.07360016479,1,48.91479767830298,253.51071630619964,369.85553573424284,-1.9261477860673186,15.770099748461469,-1.2757449226406603,0,Fixed-Wing
1970-01-01 00:01:15.169465562,1460,1532986817563576884,base_link,0,1,40.5918871,-79.9007777,369.350736773,0.518400041199,0.0,0.0,0.0,0.518400041199,0.0,0.0,0.0,2.07360016479,1,47.83960970848123,259.84068000797834,369.3452520375853,-2.6880908886443766,15.82562140741007,-1.2757666511431822,0,Fixed-Wing
1970-01-01 00:01:15.612536453,1462,1532986818006631359,base_link,0,1,40.5919445,-79.9007925,368.850698,0.518400041199,0.0,0.0,0.0,0.518400041199,0.0,0.0,0.0,2.07360016479,1,46.586644224203596,266.215063202775,368.84495901868576,-3.132554675654482,15.936675137372877,-1.2507888327462897,0,Fixed-Wing
1970-01-01 00:01:15.946359961,1464,1532986818340175283,base_link,0,1,40.5920032,-79.900807,368.430659015,0.518400041199,0.0,0.0,0.0,0.518400041199,0.0,0.0,0.0,2.07360016479,1,45.35907778670653,272.7338174499973,368.42465279194664,-3.0690542011817215,16.297619010911145,-1.050812853426191,0,Fixed-Wing
1970-01-01 00:01:16.324886566,1466,1532986818718852640,base_link,0,1,40.5920627,-79.9008201,368.160621143,0.518400041199,0.0,0.0,0.0,0.518400041199,0.0,0.0,0.0,2.07360016479,1,44.25003348536732,279.341420356083,368.15433604340143,-2.772735526446716,16.519750653993757,-0.6758222833657832,0,Fixed-Wing
1970-01-01 00:01:16.742338942,1468,1532986819135646618,base_link,0,1,40.5921228,-79.9008312,367.950585078,0.518400041199,0.0,0.0,0.0,0.518400041199,0.0,0.0,0.0,2.07360016479,1,43.310304415648474,286.0156580846053,367.9440099061817,-2.3494283985750455,16.686345206840095,-0.5258390058046063,0,Fixed-Wing
1970-01-01 00:01:17.203077684,1470,1532986819597007310,base_link,0,1,40.5921833,-79.900839,367.860552225,0.518400041199,0.0,0.0,0.0,0.518400041199,0.0,0.0,0.0,2.07360016479,1,42.64994408003043,292.7343236563727,367.853675938381,-1.6509751329260924,16.79741981331,-0.22584508253043561,0,Fixed-Wing
1970-01-01 00:01:17.551414492,1472,1532986819945220983,base_link,0,1,40.5922439,-79.9008428,367.910523418,0.518400041199,0.0,0.0,0.0,0.518400041199,0.0,0.0,0.0,2.07360016479,1,42.32821150257645,299.46410291516725,367.90333609614396,-0.804367640178755,16.82520528122407,0.12415598142655826,0,Fixed-Wing
1970-01-01 00:01:17.925242072,1474,1532986820319323282,base_link,0,1,40.5923043,-79.9008425,367.970498881,0.518400041199,0.0,0.0,0.0,0.518400041199,0.0,0.0,0.0,2.07360016479,1,42.353570718038654,306.17167431906887,367.9629921660245,0.06340089169563294,16.76968314549561,0.1491468863112139,0,Fixed-Wing
1970-01-01 00:01:18.383219542,1476,1532986820776477618,base_link,0,1,40.5923646,-79.9008388,368.11047786,0.518400041199,0.0,0.0,0.0,0.518400041199,0.0,0.0,0.0,2.07360016479,1,42.666761810824234,312.8681462475594,368.10264331192,0.7830129675474894,16.74193320822075,0.3491435761997475,0,Fixed-Wing
