time,field.header.seq,field.header.stamp,field.header.frame_id,field.status.status,field.status.service,lat,lon,alt,field.position_covariance0,field.position_covariance1,field.position_covariance2,field.position_covariance3,field.position_covariance4,field.position_covariance5,field.position_covariance6,field.position_covariance7,field.position_covariance8,field.position_covariance_type,x,y,z,vel_x,vel_y,vel_z,track_id,uav_category
1970-01-01 00:00:00.000000000,12320,1536693691514331288,base_link,0,1,40.5918045,-79.8980135,354.023590135,0.489999983311,0.0,0.0,0.0,0.489999983311,0.0,0.0,0.0,1.95999993324,1,85.57955214329122,161.08169455347405,354.02097786528157,-16.743577945238215,4.970168945654925,-0.6002263890809794,0,Fixed-Wing
1970-01-01 00:00:00.414315136,12322,1536693691928713336,base_link,0,1,40.5918224,-79.8980926,353.783501821,0.489999983311,0.0,0.0,0.0,0.489999983311,0.0,0.0,0.0,1.95999993324,1,78.88317581060649,163.06944901109244,353.7809251239117,-16.743577945238215,4.970168945654925,-0.6002263890809794,0,Fixed-Wing
1970-01-01 00:00:00.817058848,12324,1536693692331458232,base_link,0,1,40.591843,-79.8981705,353.433413624,0.489999983311,0.0,0.0,0.0,0.489999983311,0.0,0.0,0.0,1.95999993324,1,72.28838748891219,165.35704839911472,353.430855926656,-16.48956791118175,5.719899354203968,-0.8753108545987588,0,Fixed-Wing
1970-01-01 00:00:01.167767744,12326,1536693692682064696,base_link,0,1,40.5918685,-79.898246,353.023325855,0.489999983311,0.0,0.0,0.0,0.489999983311,0.0,0.0,0.0,1.95999993324,1,65.89677460389736,168.18880931456542,353.02076307300496,-15.981549306552875,7.0805174701282985,-1.0253936336249587,0,Fixed-Wing
1970-01-01 00:00:01.546694784,12328,1536693693061009400,base_link,0,1,40.5919012,-79.8983175,352.593239194,0.489999983311,0.0,0.0,0.0,0.489999983311,0.0,0.0,0.0,1.95999993324,1,59.84378743458649,171.82015324229468,352.59063896329184,-15.134851662413999,9.079789886230236,-1.0754796623296161,0,Fixed-Wing
1970-01-01 00:00:02.023318560,12330,1536693693537651928,base_link,0,1,40.591943,-79.8983817,352.363156224,0.489999983311,0.0,0.0,0.0,0.489999983311,0.0,0.0,0.0,1.95999993324,1,54.40879452440206,176.46208643909557,352.3604775585485,-13.589622641027029,11.606661041116206,-0.575494152187324,0,Fixed-Wing
1970-01-01 00:00:02.416076640,12332,1536693693930520824,base_link,0,1,40.5919934,-79.8984357,352.393080121,0.489999983311,0.0,0.0,0.0,0.489999983311,0.0,0.0,0.0,1.95999993324,1,49.83730113262102,182.05908517193723,352.39028107347576,-11.430533788524293,13.994700997511247,0.07452052430074338,0,Fixed-Wing
1970-01-01 00:00:02.777103776,12334,1536693694291396376,base_link,0,1,40.5920507,-79.8984776,352.593013533,0.489999983311,0.0,0.0,0.0,0.489999983311,0.0,0.0,0.0,1.95999993324,1,46.29015432290924,188.42235818793048,352.5900559241088,-8.869263933348961,15.910688473417709,0.4995158003211709,0,Fixed-Wing
1970-01-01 00:00:03.141402624,12336,1536693694655703096,base_link,0,1,40.5921133,-79.8985054,352.932959167,0.489999983311,0.0,0.0,0.0,0.489999983311,0.0,0.0,0.0,1.95999993324,1,43.93666599902299,195.37422119887054,352.92980851639516,-5.884647641719186,17.38239525460275,0.849515279372364,0,Fixed-Wing
1970-01-01 00:00:03.569128256,12338,1536693695083567352,base_link,0,1,40.5921787,-79.898517,353.452920206,0.489999983311,0.0,0.0,0.0,0.489999983311,0.0,0.0,0.0,1.95999993324,1,42.95461353059406,202.6370454366553,353.44954908093155,-2.4555179151439663,18.159920781985086,1.2995560914253783,0,Fixed-Wing
1970-01-01 00:00:04.021730560,12340,1536693695535964280,base_link,0,1,40.5922444,-79.8985114,354.122898702,0.489999983311,0.0,0.0,0.0,0.489999983311,0.0,0.0,0.0,1.95999993324,1,43.42865093568104,209.93320002724602,354.11928782669435,1.1852801943480642,18.243259789893667,1.6746106155789529,0,Fixed-Wing
1970-01-01 00:00:04.377587104,12342,1536693695891920408,base_link,0,1,40.5923079,-79.8984895,354.862894769,0.489999983311,0.0,0.0,0.0,0.489999983311,0.0,0.0,0.0,1.95999993324,1,45.282584994355936,216.9850520089535,354.8590344464183,4.635565248213831,17.632407058380377,1.8496578704245261,0,Fixed-Wing
1970-01-01 00:00:04.827796256,12344,1536693696342148632,base_link,0,1,40.5923674,-79.8984534,355.492907004,0.489999983311,0.0,0.0,0.0,0.489999983311,0.0,0.0,0.0,1.95999993324,1,48.33863462919153,223.59270102663163,355.48879552138794,7.641327596185388,16.5217247158381,1.5746506949085028,0,Fixed-Wing
1970-01-01 00:00:05.169046496,12346,1536693696683269624,base_link,0,1,40.5924211,-79.8984041,356.062935127,0.489999983311,0.0,0.0,0.0,0.489999983311,0.0,0.0,0.0,1.95999993324,1,52.51214316876957,229.55625522548686,356.0585783400876,10.435414926796064,14.911234016495685,1.4246814340749927,0,Fixed-Wing
1970-01-01 00:00:05.581402624,12348,1536693697095603576,base_link,0,1,40.5924671,-79.898343,356.46297849,0.489999983311,0.0,0.0,0.0,0.489999983311,0.0,0.0,0.0,1.95999993324,1,57.68459144702024,234.6647118488869,356.45839073356376,12.933157667959378,12.773153330149576,0.9996884346188724,0,Fixed-Wing
1970-01-01 00:00:05.986936224,12350,1536693697501128472,base_link,0,1,40.5925049,-79.8982723,356.643035052,0.489999983311,0.0,0.0,0.0,0.489999983311,0.0,0.0,0.0,1.95999993324,1,63.669735866610395,238.8625427840135,356.63823423981285,14.965218070821546,10.496230494119333,0.44967959015816317,0,Fixed-Wing
1970-01-01 00:00:06.421165120,12352,1536693697935406936,base_link,0,1,40.5925341,-79.898194,356.543102936,0.489999983311,0.0,0.0,0.0,0.489999983311,0.0,0.0,0.0,1.95999993324,1,70.298264641357,242.10532466953697,356.5381100501579,16.573932331208663,8.108231760310925,-0.2503499042472553,0,Fixed-Wing
1970-01-01 00:00:06.818840544,12354,1536693698323621016,base_link,0,1,40.5925537,-79.8981097,356.333180922,0.489999983311,0.0,0.0,0.0,0.489999983311,0.0,0.0,0.0,1.95999993324,1,77.43473239128448,244.28201168400733,356.32802231402974,17.843979801637484,5.442574741697718,-0.5253020753973081,0,Fixed-Wing
1970-01-01 00:00:07.246319328,12356,1536693698759820472,base_link,0,1,40.5925623,-79.8980206,355.963268364,0.489999983311,0.0,0.0,0.0,0.489999983311,0.0,0.0,0.0,1.95999993324,1,84.97755538917616,245.23712902726078,355.95797712145287,18.86002794913118,2.3881694948290564,-0.9252587096889449,0,Fixed-Wing
1970-01-01 00:00:07.577216544,12358,1536693699091571672,base_link,0,1,40.592559,-79.8979295,355.473362779,0.489999983311,0.0,0.0,0.0,0.489999983311,0.0,0.0,0.0,1.95999993324,1,92.689701964165,244.87072963816797,355.4679783924792,19.283403573534923,-0.9161427652175355,-1.2251897898260478,0,Fixed-Wing
1970-01-01 00:00:07.979832224,12360,1536693699493939416,base_link,0,1,40.5925435,-79.897839,355.063461639,0.489999983311,0.0,0.0,0.0,0.489999983311,0.0,0.0,0.0,1.95999993324,1,100.35107409617105,243.14950337433476,355.05802749078873,19.15644747049173,-4.303743499184162,-1.0250386978211043,0,Fixed-Wing
1970-01-01 00:00:08.381615136,12362,1536693699895857336,base_link,0,1,40.5925162,-79.8977521,354.73356172,0.489999983311,0.0,0.0,0.0,0.489999983311,0.0,0.0,0.0,1.95999993324,1,107.70770786509615,240.11786750721657,354.72812288724083,18.39448155315739,-7.580283562456545,-0.8248914292698658,0,Fixed-Wing
1970-01-01 00:00:08.825784096,12364,1536693700340123864,base_link,0,1,40.5924776,-79.8976716,354.46365996,0.489999983311,0.0,0.0,0.0,0.489999983311,0.0,0.0,0.0,1.95999993324,1,114.52256922935855,235.83134296853206,354.45826289937924,17.039837185012637,-10.717999431621774,-0.6747562437623769,0,Fixed-Wing
1970-01-01 00:00:09.178135168,12366,1536693700692327064,base_link,0,1,40.5924285,-79.8975995,354.363753988,0.489999983311,0.0,0.0,0.0,0.489999983311,0.0,0.0,0.0,1.95999993324,1,120.62634957285238,230.37877135367356,354.3584443329487,15.261854600834193,-13.6335763254175,-0.24958572582817404,0,Fixed-Wing
1970-01-01 00:00:09.624230048,12368,1536693701120938264,base_link,0,1,40.5923715,-79.8975375,354.533840995,0.489999983311,0.0,0.0,0.0,0.489999983311,0.0,0.0,0.0,1.95999993324,1,125.87513247069529,224.04888743515772,354.528656099747,13.124024278431142,-15.827202580696042,0.4255964484364578,0,Fixed-Wing
1970-01-01 00:00:10.019409728,12370,1536693701531152088,base_link,0,1,40.5923085,-79.897486,354.813919787,0.489999983311,0.0,0.0,0.0,0.489999983311,0.0,0.0,0.0,1.95999993324,1,130.2350487765288,217.05268174494978,354.80888999363515,10.90150775205472,-17.493269415452794,0.7006950941976449,0,Fixed-Wing
1970-01-01 00:00:10.377570912,12372,1536693701891682328,base_link,0,1,40.5922422,-79.8974445,355.323989754,0.489999983311,0.0,0.0,0.0,0.489999983311,0.0,0.0,0.0,1.95999993324,1,133.74842252799095,209.6899980430044,355.31913426072225,8.784817987488415,-18.40960876824443,1.2758116080460242,0,Fixed-Wing
1970-01-01 00:00:10.778097376,12374,1536693702289638456,base_link,0,1,40.5921746,-79.8974112,355.964051906,0.489999983311,0.0,0.0,0.0,0.489999983311,0.0,0.0,0.0,1.95999993324,1,136.5676271459359,202.18293836415603,355.9593797309944,7.049121781542927,-18.770605567497828,1.600865812045733,0,Fixed-Wing
1970-01-01 00:00:11.160202816,12376,1536693702674454168,base_link,0,1,40.5921072,-79.8973836,356.594108174,0.489999983311,0.0,0.0,0.0,0.489999983311,0.0,0.0,0.0,1.95999993324,1,138.90429563309556,194.69807946789012,356.5896190452043,5.842591426048779,-18.71509486810649,1.5758464813456028,0,Fixed-Wing
1970-01-01 00:00:11.590710624,12378,1536693703105061752,base_link,0,1,40.5920403,-79.8973603,356.924159863,0.489999983311,0.0,0.0,0.0,0.489999983311,0.0,0.0,0.0,1.95999993324,1,140.87693849052604,187.2687303235328,356.91985052891863,4.93238399405528,-18.57629862792723,0.8257087584152718,0,Fixed-Wing
1970-01-01 00:00:12.020468032,12380,1536693703534887160,base_link,0,1,40.5919737,-79.8973419,356.91420644,0.489999983311,0.0,0.0,0.0,0.489999983311,0.0,0.0,0.0,1.95999993324,1,142.4347598133646,179.8726791472637,356.91007593783746,3.8951667958667224,-18.493040594566352,-0.02444032705443153,0,Fixed-Wing
1970-01-01 00:00:12.390036960,12382,1536693703904255512,base_link,0,1,40.5919072,-79.8973292,356.604247169,0.489999983311,0.0,0.0,0.0,0.489999983311,0.0,0.0,0.0,1.95999993324,1,143.51003406816127,172.48771619358388,356.6002970804991,2.68860909292384,-18.46531567141783,-0.7745691379851282,0,Fixed-Wing
1970-01-01 00:00:12.796024320,12384,1536693704310244536,base_link,0,1,40.5918404,-79.8973233,356.014281088,0.489999983311,0.0,0.0,0.0,0.489999983311,0.0,0.0,0.0,1.95999993324,1,144.00963859156036,165.0694201181656,356.01051653136574,1.2492080587669698,-18.54866160274814,-1.4746836355060065,0,Fixed-Wing
1970-01-01 00:00:13.164491616,12386,1536693704678811864,base_link,0,1,40.5917728,-79.8973256,355.184306973,0.489999983311,0.0,0.0,0.0,0.489999983311,0.0,0.0,0.0,1.95999993324,1,143.81505415175172,157.56226438800329,355.1807371273394,-0.48653772921394245,-18.77084573360882,-2.0747752871735794,0,Fixed-Wing
1970-01-01 00:00:13.580538784,12388,1536693705094728600,base_link,0,1,40.591705,-79.8973381,354.264322524,0.489999983311,0.0,0.0,0.0,0.489999983311,0.0,0.0,0.0,1.95999993324,1,142.75696717248434,150.03288155823589,354.2609584087453,-2.6456341355448147,-18.826422235920656,-2.29980901640534,0,Fixed-Wing
1970-01-01 00:00:13.942915808,12390,1536693705456890616,base_link,0,1,40.5916376,-79.8973632,353.624325033,0.489999983311,0.0,0.0,0.0,0.489999983311,0.0,0.0,0.0,1.95999993324,1,140.63220554834948,142.54790809447996,353.6211801418935,-5.312740817015836,-18.715381331949583,-1.5996976195045873,0,Fixed-Wing
1970-01-01 00:00:14.376686272,12392,1536693705890808728,base_link,0,1,40.5915725,-79.897401,353.214313599,0.489999983311,0.0,0.0,0.0,0.489999983311,0.0,0.0,0.0,1.95999993324,1,137.43229547282823,135.31834184389652,353.2113962151741,-8.001035351871034,-18.076762716586476,-1.0246211946366528,0,Fixed-Wing
1970-01-01 00:00:14.767712576,12394,1536693706281690616,base_link,0,1,40.5915117,-79.8974512,353.004287689,0.489999983311,0.0,0.0,0.0,0.489999983311,0.0,0.0,0.0,1.95999993324,1,133.1826265600841,128.56628755837218,353.0016003382439,-10.625845852582135,-16.882794753984598,-0.5245723124646449,0,Fixed-Wing
1970-01-01 00:00:15.193569888,12396,1536693706707945208,base_link,0,1,40.5914568,-79.8975126,352.894247858,0.489999983311,0.0,0.0,0.0,0.489999983311,0.0,0.0,0.0,1.95999993324,1,127.98478008936104,122.46942964324101,352.8917870415514,-12.996663151253948,-15.244545803792017,-0.2745764875280197,0,Fixed-Wing
1970-01-01 00:00:15.601439360,12398,1536693707115800664,base_link,0,1,40.59141,-79.8975849,352.914193488,0.489999983311,0.0,0.0,0.0,0.489999983311,0.0,0.0,0.0,1.95999993324,1,121.8641486698941,117.27208549970469,352.9119502889237,-15.30398892692332,-12.995407135464653,0.05041605896002432,0,Fixed-Wing
1970-01-01 00:00:16.006492896,12400,1536693707520825784,base_link,0,1,40.5913728,-79.8976662,353.054125892,0.489999983311,0.0,0.0,0.0,0.489999983311,0.0,0.0,0.0,1.95999993324,1,114.98157837651002,113.1408376394395,353.05208509447027,-17.209136172407383,-10.329746585750232,0.3503922006379802,0,Fixed-Wing
1970-01-01 00:00:16.406773472,12402,1536693707920971416,base_link,0,1,40.5913465,-79.8977542,353.324046879,0.489999983311,0.0,0.0,0.0,0.489999983311,0.0,0.0,0.0,1.95999993324,1,107.5317804803108,110.22005880892335,353.3221871066884,-18.627428560496316,-7.303097314117328,0.6753613999657533,0,Fixed-Wing
1970-01-01 00:00:16.777883968,12404,1536693708292198168,base_link,0,1,40.5913321,-79.897846,353.643958996,0.489999983311,0.0,0.0,0.0,0.489999983311,0.0,0.0,0.0,1.95999993324,1,99.76026109926161,108.62080477211529,353.642252829834,-19.43185897041081,-3.9987648974915113,0.8002903535946998,0,Fixed-Wing
1970-01-01 00:00:17.145431328,12406,1536693708659767448,base_link,0,1,40.5913297,-79.8979388,354.05386507,0.489999983311,0.0,0.0,0.0,0.489999983311,0.0,0.0,0.0,1.95999993324,1,91.90406506454153,108.35418550737188,354.0522813160653,-19.64358395127254,-0.6666531597311867,1.0252326897269823,0,Fixed-Wing
1970-01-01 00:00:17.598031520,12408,1536693709112228856,base_link,0,1,40.5913392,-79.8980293,354.54376852,0.489999983311,0.0,0.0,0.0,0.489999983311,0.0,0.0,0.0,1.95999993324,1,84.24256560258905,109.40909928460445,354.5422723517554,-19.15676584550185,2.637699880812655,1.2251705535873947,0,Fixed-Wing
1970-01-01 00:00:17.952318528,12410,1536693709466632312,base_link,0,1,40.5913592,-79.8981148,354.9736727,0.489999983311,0.0,0.0,0.0,0.489999983311,0.0,0.0,0.0,1.95999993324,1,77.00434127276799,111.63007265708936,354.9722293156623,-18.098411324336247,5.553308077234429,1.075061731989976,0,Fixed-Wing
1970-01-01 00:00:18.384782336,12412,1536693709898833176,base_link,0,1,40.5913881,-79.8981936,355.44358002,0.489999983311,0.0,0.0,0.0,0.489999983311,0.0,0.0,0.0,1.95999993324,1,70.33331562653265,114.83942418500085,355.4421564599295,-16.68019124570954,8.024642701004144,1.1750029236285142,0,Fixed-Wing
1970-01-01 00:00:18.840461696,12414,1536693710354776408,base_link,0,1,40.5914247,-79.8982655,355.82349119,0.489999983311,0.0,0.0,0.0,0.489999983311,0.0,0.0,0.0,1.95999993324,1,64.24642188558654,118.90388767770912,355.8220570963306,-15.219631444317756,10.16275936637088,0.9499012004417928,0,Fixed-Wing
1970-01-01 00:00:19.196078592,12416,1536693710708936856,base_link,0,1,40.5914666,-79.8983296,356.023408138,0.489999983311,0.0,0.0,0.0,0.489999983311,0.0,0.0,0.0,1.95999993324,1,58.819854342430766,123.55693519190358,356.0219376672044,-13.56855590544455,11.634451211551957,0.49978014255695735,0,Fixed-Wing
1970-01-01 00:00:19.544274304,12418,1536693711058586456,base_link,0,1,40.5915137,-79.8983857,356.08333111,0.489999983311,0.0,0.0,0.0,0.489999983311,0.0,0.0,0.0,1.95999993324,1,54.070545425334856,128.78746066814898,356.081798887095,-11.875142627703637,13.078373534445186,0.1496766237947291,0,Fixed-Wing
1970-01-01 00:00:19.954436064,12420,1536693711468505272,base_link,0,1,40.5915649,-79.8984336,355.96326077,0.489999983311,0.0,0.0,0.0,0.489999983311,0.0,0.0,0.0,1.95999993324,1,50.01542707329389,134.47330430574974,355.96164396203045,-10.139392834473838,14.216848247600884,-0.3004346311157151,0,Fixed-Wing
1970-01-01 00:00:20.396886624,12422,1536693711911118008,base_link,0,1,40.5916198,-79.8984722,355.703198411,0.489999983311,0.0,0.0,0.0,0.489999983311,0.0,0.0,0.0,1.95999993324,1,46.747622068454426,140.57004505040356,355.7014745831307,-8.170799413006215,15.244252831455526,-0.6505259050794875,0,Fixed-Wing
1970-01-01 00:00:20.797217888,12424,1536693712311339128,base_link,0,1,40.5916778,-79.8985006,355.363145201,0.489999983311,0.0,0.0,0.0,0.489999983311,0.0,0.0,0.0,1.95999993324,1,44.34332122249505,147.01105193084214,355.36129295816977,-6.011698957484245,16.10505374706161,-0.8505880300169916,0,Fixed-Wing
1970-01-01 00:00:21.151386496,12426,1536693712665753400,base_link,0,1,40.5917386,-79.8985183,354.963101776,0.489999983311,0.0,0.0,0.0,0.489999983311,0.0,0.0,0.0,1.95999993324,1,42.844851352463394,153.76300888461304,354.9611001765754,-3.7467647905336485,16.88255138627059,-1.0006395547157223,0,Fixed-Wing
1970-01-01 00:00:21.582830176,12428,1536693713097116984,base_link,0,1,40.5918011,-79.8985244,354.553069512,0.489999983311,0.0,0.0,0.0,0.489999983311,0.0,0.0,0.0,1.95999993324,1,42.32840220428423,160.70375938420017,354.5508998404582,-1.2913262543329647,17.35460959997981,-1.025662382118218,0,Fixed-Wing
1970-01-01 00:00:21.992452576,12430,1536693713506316632,base_link,0,1,40.591864,-79.8985183,354.213049563,0.489999983311,0.0,0.0,0.0,0.489999983311,0.0,0.0,0.0,1.95999993324,1,42.844766283430516,167.6889376933325,354.2106961927079,1.2911135482495628,17.465696620048465,-0.8506430956632822,0,Fixed-Wing
1970-01-01 00:00:22.395448608,12432,1536693713909539096,base_link,0,1,40.5919258,-79.8984994,353.963043162,0.489999983311,0.0,0.0,0.0,0.489999983311,0.0,0.0,0.0,1.95999993324,1,44.44473564526325,174.5519667921679,353.96049428541824,4.000553491756787,17.160275490478245,-0.6256033007440993,0,Fixed-Wing
1970-01-01 00:00:22.771348096,12434,1536693714285481112,base_link,0,1,40.5919854,-79.8984685,353.823049947,0.489999983311,0.0,0.0,0.0,0.489999983311,0.0,0.0,0.0,1.95999993324,1,47.0605829848191,181.17069039907398,353.82029731988416,6.540648501028534,16.549415550214377,-0.350547625086135,0,Fixed-Wing
1970-01-01 00:00:23.221310816,12436,1536693714735486008,base_link,0,1,40.592041,-79.898426,353.773070255,0.489999983311,0.0,0.0,0.0,0.489999983311,0.0,0.0,0.0,1.95999993324,1,50.65844452698326,187.34521514538517,353.7701113022716,8.99607073655141,15.438743467874172,-0.12548480788871444,0,Fixed-Wing
1970-01-01 00:00:23.554443200,12438,1536693715068533336,base_link,0,1,40.592091,-79.8983728,353.863103827,0.489999983311,0.0,0.0,0.0,0.489999983311,0.0,0.0,0.0,1.95999993324,1,55.162129565362136,192.89786013077799,353.85994165518525,11.26098620127389,13.883799161850034,0.22461125855742203,0,Fixed-Wing
1970-01-01 00:00:23.993737280,12440,1536693715508023480,base_link,0,1,40.5921347,-79.8983104,354.073149422,0.489999983311,0.0,0.0,0.0,0.489999983311,0.0,0.0,0.0,1.95999993324,1,60.44465341289852,197.75088911998483,354.06979046972765,13.208389940256545,12.134483654192657,0.5247046773426743,0,Fixed-Wing
1970-01-01 00:00:24.375186336,12442,1536693715889117784,base_link,0,1,40.5921717,-79.8982408,354.303205159,0.489999983311,0.0,0.0,0.0,0.489999983311,0.0,0.0,0.0,1.95999993324,1,66.33670309978243,201.8598783926712,354.2996587017826,14.732444577230684,10.274091351103694,0.5747611050114613,0,Fixed-Wing
1970-01-01 00:00:24.764765248,12444,1536693716278803320,base_link,0,1,40.5922009,-79.898165,354.543270474,0.489999983311,0.0,0.0,0.0,0.489999983311,0.0,0.0,0.0,1.95999993324,1,72.75362428013358,205.10267074109748,354.5395504502588,16.04483001160471,8.108257921688397,0.5998238434457633,0,Fixed-Wing
1970-01-01 00:00:25.211491936,12446,1536693716725214296,base_link,0,1,40.5922215,-79.8980844,354.723344268,0.489999983311,0.0,0.0,0.0,0.489999983311,0.0,0.0,0.0,1.95999993324,1,79.5768998886894,207.39042209764148,354.71946872692996,17.06087610937677,5.7202793353553005,0.44986654565887574,0,Fixed-Wing
1970-01-01 00:00:25.553912576,12448,1536693717068206136,base_link,0,1,40.5922333,-79.8980003,354.753425298,0.489999983311,0.0,0.0,0.0,0.489999983311,0.0,0.0,0.0,1.95999993324,1,86.6964779076247,208.70091874278313,354.7494142425062,17.80174882277784,3.2767577021922314,0.07487558184471621,0,Fixed-Wing
1970-01-01 00:00:26.018338464,12450,1536693717532686136,base_link,0,1,40.5922359,-79.897914,354.703512403,0.489999983311,0.0,0.0,0.0,0.489999983311,0.0,0.0,0.0,1.95999993324,1,94.00230894163998,208.98974143697566,354.6993885296799,18.267454709154904,0.722170477331511,-0.1250839827930687,0,Fixed-Wing
1970-01-01 00:00:26.402558816,12452,1536693717916825688,base_link,0,1,40.592229,-79.8978269,354.523604281,0.489999983311,0.0,0.0,0.0,0.489999983311,0.0,0.0,0.0,1.95999993324,1,101.37587658198518,208.22357181881802,354.5193927591429,18.436822900469824,-1.9157257722032406,-0.45006031084146947,0,Fixed-Wing
1970-01-01 00:00:26.765282752,12454,1536693718279513656,base_link,0,1,40.5922118,-79.897741,354.233699222,0.489999983311,0.0,0.0,0.0,0.489999983311,0.0,0.0,0.0,1.95999993324,1,108.64787259810723,206.31356663881343,354.2294303642294,18.18285383978488,-4.775765133019923,-0.7250201779616773,0,Fixed-Wing
1970-01-01 00:00:27.199576736,12456,1536693718713881880,base_link,0,1,40.5921833,-79.8976589,354.033794991,0.489999983311,0.0,0.0,0.0,0.489999983311,0.0,0.0,0.0,1.95999993324,1,115.59819882927174,203.1486766241848,354.02950596553967,17.37855269996152,-7.913471408318409,-0.49988972935673726,0,Fixed-Wing
1970-01-01 00:00:27.600201408,12458,1536693719114491672,base_link,0,1,40.5921446,-79.8975825,353.883889192,0.489999983311,0.0,0.0,0.0,0.489999983311,0.0,0.0,0.0,1.95999993324,1,122.06600884212065,198.85105442273232,353.87961560256815,16.17207213348331,-10.745747958934706,-0.3747849360562256,0,Fixed-Wing
1970-01-01 00:00:27.982668736,12460,1536693719496018136,base_link,0,1,40.5920964,-79.8975138,353.763979494,0.489999983311,0.0,0.0,0.0,0.489999983311,0.0,0.0,0.0,1.95999993324,1,127.88199035718624,193.49843181206683,353.7597571419448,14.542244191124071,-13.383664453815205,-0.29969335326147356,0,Fixed-Wing
1970-01-01 00:00:28.366220032,12462,1536693719880272152,base_link,0,1,40.5920388,-79.8974556,353.754062997,0.489999983311,0.0,0.0,0.0,0.489999983311,0.0,0.0,0.0,1.95999993324,1,132.8091078427634,187.1019106205748,353.74993141005734,12.319734072059276,-15.99382200569593,-0.024568199210061526,0,Fixed-Wing
1970-01-01 00:00:28.758668640,12464,1536693720272973560,base_link,0,1,40.591973,-79.897411,353.864136035,0.489999983311,0.0,0.0,0.0,0.489999983311,0.0,0.0,0.0,1.95999993324,1,136.58492371438368,179.7947469076143,353.8601354990662,9.441026640746585,-18.27078693134298,0.27555362221761437,0,Fixed-Wing
1970-01-01 00:00:29.248758848,12466,1536693720762371544,base_link,0,1,40.5919021,-79.8973812,354.014196089,0.489999983311,0.0,0.0,0.0,0.489999983311,0.0,0.0,0.0,1.95999993324,1,139.10783994754712,171.9211962811876,354.0103587197265,6.308284137660288,-19.686977264985966,0.3756172113616311,0,Fixed-Wing
1970-01-01 00:00:29.566723936,12468,1536693721080726904,base_link,0,1,40.5918285,-79.8973664,354.354241952,0.489999983311,0.0,0.0,0.0,0.489999983311,0.0,0.0,0.0,1.95999993324,1,140.36092002900446,163.74778614385565,354.3505927631498,3.1331936816482124,-20.43674413053045,0.8507190968159125,0,Fixed-Wing
1970-01-01 00:00:29.955240384,12470,1536693721469273144,base_link,0,1,40.5917538,-79.8973687,354.604270805,0.489999983311,0.0,0.0,0.0,0.489999983311,0.0,0.0,0.0,1.95999993324,1,140.16637092931174,155.45218845268852,354.6008339688517,-0.4864493650067934,-20.74226113404644,0.6257015622508332,0,Fixed-Wing
1970-01-01 00:00:30.409275904,12472,1536693721923274872,base_link,0,1,40.5916803,-79.8973869,354.74428291,0.489999983311,0.0,0.0,0.0,0.489999983311,0.0,0.0,0.0,1.95999993324,1,138.62577081545905,147.289825184603,354.7410738764985,-3.8521069914828847,-20.409122607024425,0.3506549972790397,0,Fixed-Wing
1970-01-01 00:00:30.797656736,12474,1536693722311923288,base_link,0,1,40.5916103,-79.8974213,354.914276995,0.489999983311,0.0,0.0,0.0,0.489999983311,0.0,0.0,0.0,1.95999993324,1,135.71371654962428,139.51612029988524,354.91130569852373,-7.281282466575408,-19.43732359025983,0.4256465944017275,0,Fixed-Wing
1970-01-01 00:00:31.157306048,12476,1536693722671560472,base_link,0,1,40.5915463,-79.8974707,355.254253235,0.489999983311,0.0,0.0,0.0,0.489999983311,0.0,0.0,0.0,1.95999993324,1,131.53179069426028,132.4087105701494,355.25152129385333,-10.456461531101148,-17.771323307760596,0.8506729693166574,0,Fixed-Wing
1970-01-01 00:00:31.572313760,12478,1536693723085601656,base_link,0,1,40.5914902,-79.8975327,355.714213287,0.489999983311,0.0,0.0,0.0,0.489999983311,0.0,0.0,0.0,1.95999993324,1,126.2831629536615,126.17859932655558,355.7117138666236,-13.12363632421801,-15.577731601711797,1.1506626612948234,0,Fixed-Wing
1970-01-01 00:00:32.000892896,12480,1536693723515045208,base_link,0,1,40.5914421,-79.897604,356.004160481,0.489999983311,0.0,0.0,0.0,0.489999983311,0.0,0.0,0.0,1.95999993324,1,120.24719536799606,120.83689285407837,356.00188122749313,-15.09229600078374,-13.35636980943802,0.725532673569917,0,Fixed-Wing
1970-01-01 00:00:32.372080192,12482,1536693723885988056,base_link,0,1,40.5914028,-79.8976828,356.144096323,0.489999983311,0.0,0.0,0.0,0.489999983311,0.0,0.0,0.0,1.95999993324,1,113.5762709726898,116.47243806505983,356.1420205566204,-16.67993807851301,-10.91285574732655,0.3504035113712757,0,Fixed-Wing
1970-01-01 00:00:32.842446016,12484,1536693724356467672,base_link,0,1,40.5913729,-79.8977673,356.074022401,0.489999983311,0.0,0.0,0.0,0.489999983311,0.0,0.0,0.0,1.95999993324,1,106.42277300958038,113.15186946535331,356.0721297420961,-17.886562041295043,-8.302729179112008,-0.17475456015407978,0,Fixed-Wing
1970-01-01 00:00:33.201517856,12486,1536693724715876120,base_link,0,1,40.5913537,-79.8978566,355.913939092,0.489999983311,0.0,0.0,0.0,0.489999983311,0.0,0.0,0.0,1.95999993324,1,98.86289615300352,111.01955972093796,355.91220547601847,-18.902669311858777,-5.331614090257595,-0.39987364529315844,0,Fixed-Wing
1970-01-01 00:00:33.569510144,12488,1536693725083594072,base_link,0,1,40.591346,-79.8979483,355.723848517,0.489999983311,0.0,0.0,0.0,0.489999983311,0.0,0.0,0.0,1.95999993324,1,91.09982153476402,110.16435535571469,355.722245200397,-19.410743737737445,-2.1383477028213758,-0.47497549769449915,0,Fixed-Wing
1970-01-01 00:00:34.019820352,12490,1536693725533687800,base_link,0,1,40.59135,-79.8980398,355.453753254,0.489999983311,0.0,0.0,0.0,0.489999983311,0.0,0.0,0.0,1.95999993324,1,83.35366150538633,110.60846893057217,355.45224801306256,-19.368450604414424,1.1104588344101254,-0.6750992964753648,0,Fixed-Wing
1970-01-01 00:00:34.365791360,12492,1536693725880203032,base_link,0,1,40.5913655,-79.8981285,355.163656051,0.489999983311,0.0,0.0,0.0,0.489999983311,0.0,0.0,0.0,1.95999993324,1,75.84453047914856,112.32969306512018,355.1622142316195,-18.77578475169281,4.303738175132607,-0.7251986723985812,0,Fixed-Wing
1970-01-01 00:00:34.785726144,12494,1536693726300015000,base_link,0,1,40.5913918,-79.898212,354.943559658,0.489999983311,0.0,0.0,0.0,0.489999983311,0.0,0.0,0.0,1.95999993324,1,68.77561144926204,115.2502938160313,354.9421456303345,-17.675081400036795,7.302652044974884,-0.5502581688740797,0,Fixed-Wing
1970-01-01 00:00:35.169172928,12496,1536693726683552376,base_link,0,1,40.5914282,-79.8982882,354.793466521,0.489999983311,0.0,0.0,0.0,0.489999983311,0.0,0.0,0.0,1.95999993324,1,62.324687967586634,119.29253485606034,354.79204419345933,-16.129849155430506,10.107194483203706,-0.37531270393877336,0,Fixed-Wing
1970-01-01 00:00:35.536219936,12498,1536693727050670360,base_link,0,1,40.5914731,-79.8983551,354.773379357,0.489999983311,0.0,0.0,0.0,0.489999983311,0.0,0.0,0.0,1.95999993324,1,56.66107800133006,124.27873357604777,354.7719143416699,-14.161255313353285,12.467460424985505,-0.050332556851254505,0,Fixed-Wing
1970-01-01 00:00:36.004183328,12500,1536693727517135160,base_link,0,1,40.5915251,-79.8984106,354.8633009,0.489999983311,0.0,0.0,0.0,0.489999983311,0.0,0.0,0.0,1.95999993324,1,51.96256271622978,130.05341622616302,354.8617604231615,-11.748138544571466,14.43898076475858,0.2246505861963276,0,Fixed-Wing
1970-01-01 00:00:36.413163744,12502,1536693727926949048,base_link,0,1,40.5915825,-79.8984539,355.063232678,0.489999983311,0.0,0.0,0.0,0.489999983311,0.0,0.0,0.0,1.95999993324,1,48.296868048769234,136.42779300484517,355.0615874873058,-9.165680263292842,15.938452252935207,0.4996463546616127,0,Fixed-Wing
1970-01-01 00:00:36.799713536,12504,1536693728313582488,base_link,0,1,40.5916436,-79.8984853,355.243175096,0.489999983311,0.0,0.0,0.0,0.489999983311,0.0,0.0,0.0,1.95999993324,1,45.63859526808966,143.2130709260526,355.2414003483757,-6.646728811486746,16.965866927059608,0.4496029651417019,0,Fixed-Wing
1970-01-01 00:00:37.151228384,12506,1536693728665625368,base_link,0,1,40.5917066,-79.8985047,355.343129005,0.489999983311,0.0,0.0,0.0,0.489999983311,0.0,0.0,0.0,1.95999993324,1,43.99620862895961,150.20935352248364,355.34120446410884,-4.106613389433966,17.493461711297105,0.24954959339383442,0,Fixed-Wing
1970-01-01 00:00:37.621066336,12508,1536693729135405048,base_link,0,1,40.5917704,-79.8985122,355.443094759,0.489999983311,0.0,0.0,0.0,0.489999983311,0.0,0.0,0.0,1.95999993324,1,43.36124109114412,157.29448435124908,355.44100335435286,-1.587668902390837,17.715617281635467,0.24953652761314157,0,Fixed-Wing
1970-01-01 00:00:37.997291520,12510,1536693729511124280,base_link,0,1,40.5918338,-79.8985083,355.413072344,0.489999983311,0.0,0.0,0.0,0.489999983311,0.0,0.0,0.0,1.95999993324,1,43.691361353858724,164.33519687870643,355.41080074123687,0.8254306621157862,17.604554035904016,-0.07551842694221628,0,Fixed-Wing
1970-01-01 00:00:38.374123616,12512,1536693729888387256,base_link,0,1,40.591896,-79.8984936,355.303061478,0.489999983311,0.0,0.0,0.0,0.489999983311,0.0,0.0,0.0,1.95999993324,1,44.935773528694824,171.24265005639364,355.300599090989,3.111520501569247,17.27135318234426,-0.2755475243547336,0,Fixed-Wing
1970-01-01 00:00:38.770675040,12514,1536693730285018072,base_link,0,1,40.5919561,-79.8984685,355.123062123,0.489999983311,0.0,0.0,0.0,0.489999983311,0.0,0.0,0.0,1.95999993324,1,47.060613104122545,177.91689714816775,355.1204013095009,5.31293572594614,16.688246128200458,-0.4505654177735953,0,Fixed-Wing
1970-01-01 00:00:39.144338880,12516,1536693730658605720,base_link,0,1,40.5920131,-79.8984337,354.843073979,0.489999983311,0.0,0.0,0.0,0.489999983311,0.0,0.0,0.0,1.95999993324,1,50.006618703311055,184.2468852066179,354.8402106348617,7.366174170403114,15.82746297154337,-0.7005870290550423,0,Fixed-Wing
1970-01-01 00:00:39.574739520,12518,1536693731089074328,base_link,0,1,40.5920662,-79.8983889,354.54309768,0.489999983311,0.0,0.0,0.0,0.489999983311,0.0,0.0,0.0,1.95999993324,1,53.79918665145364,190.1437757400986,354.5400300317885,9.482913429221561,14.744548600106269,-0.750569722414319,0,Fixed-Wing
1970-01-01 00:00:39.981855040,12520,1536693731495459384,base_link,0,1,40.5921143,-79.8983344,354.233133375,0.489999983311,0.0,0.0,0.0,0.489999983311,0.0,0.0,0.0,1.95999993324,1,58.41291957249129,195.4854127104303,354.22986333183667,11.536149246100392,13.35619602670347,-0.7755388972558717,0,Fixed-Wing
1970-01-01 00:00:40.354430816,12522,1536693731868689976,base_link,0,1,40.5921561,-79.8982698,354.00318201,0.489999983311,0.0,0.0,0.0,0.489999983311,0.0,0.0,0.0,1.95999993324,1,63.881681267523604,200.12743292950725,353.9997153024351,13.674057901700301,11.60687863107678,-0.5754607085655038,0,Fixed-Wing
1970-01-01 00:00:40.811632128,12524,1536693732325226456,base_link,0,1,40.5921908,-79.898197,353.793241975,0.489999983311,0.0,0.0,0.0,0.489999983311,0.0,0.0,0.0,1.95999993324,1,70.04462499380786,203.9809933108915,353.7895882885349,15.409786357061874,9.635418531879411,-0.5254002852954475,0,Fixed-Wing
1970-01-01 00:00:41.183853440,12526,1536693732697875416,base_link,0,1,40.5922172,-79.8981172,353.583312543,0.489999983311,0.0,0.0,0.0,0.489999983311,0.0,0.0,0.0,1.95999993324,1,76.80016523354807,206.91283133348296,353.5794865393101,16.891511012334977,7.330749649548428,-0.5253371136574129,0,Fixed-Wing
1970-01-01 00:00:41.601256032,12528,1536693733115514328,base_link,0,1,40.5922344,-79.8980319,353.403392555,0.489999983311,0.0,0.0,0.0,0.489999983311,0.0,0.0,0.0,1.95999993324,1,84.02132089331474,208.823001255456,353.3994132427902,18.05573292735272,4.776177052818445,-0.4502541563293194,0,Fixed-Wing
1970-01-01 00:00:42.004789536,12530,1536693733518884568,base_link,0,1,40.592241,-79.8979431,353.293480551,0.489999983311,0.0,0.0,0.0,0.489999983311,0.0,0.0,0.0,1.95999993324,1,91.5387846699772,209.5560306899929,353.28937383100003,18.79661990929188,1.8328622621485096,-0.2751418643190874,0,Fixed-Wing
1970-01-01 00:00:42.377612704,12532,1536693733891843832,base_link,0,1,40.5922362,-79.8978531,353.313574516,0.489999983311,0.0,0.0,0.0,0.489999983311,0.0,0.0,0.0,1.95999993324,1,99.15785303541774,209.02307823672305,353.30937159552485,19.05067139434596,-1.3325910162596681,0.05000228667219295,0,Fixed-Wing
1970-01-01 00:00:42.794247232,12534,1536693734308460440,base_link,0,1,40.59222,-79.8977645,353.423671796,0.489999983311,0.0,0.0,0.0,0.489999983311,0.0,0.0,0.0,1.95999993324,1,106.65842341220468,207.22413970585183,353.4194068785523,18.75437975677904,-4.498054770804466,0.27513154078631724,0,Fixed-Wing
1970-01-01 00:00:43.225217248,12536,1536693734739227544,base_link,0,1,40.5921923,-79.8976799,353.623769782,0.489999983311,0.0,0.0,0.0,0.489999983311,0.0,0.0,0.0,1.95999993324,1,113.82039363666314,204.14810602821706,353.6194806950147,17.90774603114605,-7.6912955731396915,0.5002633326309063,0,Fixed-Wing
1970-01-01 00:00:43.599475776,12538,1536693735113577144,base_link,0,1,40.5921544,-79.8976019,353.80386528,0.489999983311,0.0,0.0,0.0,0.489999983311,0.0,0.0,0.0,1.95999993324,1,120.4236563234298,199.93933684895615,353.79958875986875,16.510757161169522,-10.523580412067181,0.45034109085690793,0,Fixed-Wing
1970-01-01 00:00:43.968835808,12540,1536693735483193528,base_link,0,1,40.5921068,-79.8975324,353.903956145,0.489999983311,0.0,0.0,0.0,0.489999983311,0.0,0.0,0.0,1.95999993324,1,126.30736411562734,194.65335219547188,353.89972989686754,14.711586555376323,-13.217043318033248,0.25039227928095265,0,Fixed-Wing
1970-01-01 00:00:44.339391904,12542,1536693735853278328,base_link,0,1,40.5920507,-79.8974729,353.984040347,0.489999983311,0.0,0.0,0.0,0.489999983311,0.0,0.0,0.0,1.95999993324,1,131.34453194144714,188.4234127240178,353.97990004615974,12.594903261813254,-15.577302103716557,0.2004569451993706,0,Fixed-Wing
1970-01-01 00:00:44.773591712,12544,1536693736287938840,base_link,0,1,40.5919877,-79.8974256,354.044114972,0.489999983311,0.0,0.0,0.0,0.489999983311,0.0,0.0,0.0,1.95999993324,1,135.3489118434652,181.42719692046126,354.0400944093417,10.012526728004808,-17.493294702807038,0.1505096132189557,0,Fixed-Wing
1970-01-01 00:00:45.196333792,12546,1536693736710639320,base_link,0,1,40.5919196,-79.897392,354.154177739,0.489999983311,0.0,0.0,0.0,0.489999983311,0.0,0.0,0.0,1.95999993324,1,138.1935149149182,173.86459672409958,354.15030741018165,7.112627917529531,-18.909478733804754,0.2755759053049922,0,Fixed-Wing
1970-01-01 00:00:45.586395968,12548,1536693737100829784,base_link,0,1,40.5918478,-79.8973738,354.404226321,0.489999983311,0.0,0.0,0.0,0.489999983311,0.0,0.0,0.0,1.95999993324,1,139.73442087027,165.89108336069717,354.4005353500612,3.8528717156746564,-19.936923473953193,0.6256683924706913,0,Fixed-Wing
1970-01-01 00:00:46.001033120,12550,1536693737515394424,base_link,0,1,40.5917753,-79.8973694,354.664261104,0.489999983311,0.0,0.0,0.0,0.489999983311,0.0,0.0,0.0,1.95999993324,1,140.1070675656194,157.83981143962257,354.6607667884503,0.9317634911233583,-20.13135049038874,0.6506810782425694,0,Fixed-Wing
1970-01-01 00:00:46.406132032,12552,1536693737920399384,base_link,0,1,40.5917032,-79.8973792,354.874281213,0.489999983311,0.0,0.0,0.0,0.489999983311,0.0,0.0,0.0,1.95999993324,1,139.2775847228334,149.83293613186802,354.870998623368,-2.0740337672832934,-20.020341473168376,0.5256623791189428,0,Fixed-Wing
1970-01-01 00:00:46.748477696,12554,1536693738262471800,base_link,0,1,40.5916336,-79.897405,354.914283925,0.489999983311,0.0,0.0,0.0,0.489999983311,0.0,0.0,0.0,1.95999993324,1,137.0935788755198,142.10366220985082,354.91122589910526,-5.460874706050238,-19.326228686061054,0.10058403132809843,0,Fixed-Wing
1970-01-01 00:00:47.194697792,12556,1536693738709065752,base_link,0,1,40.5915679,-79.8974449,354.794270594,0.489999983311,0.0,0.0,0.0,0.489999983311,0.0,0.0,0.0,1.95999993324,1,133.71589212245,134.80746767277623,354.79144293481113,-8.445547056335897,-18.24335967183481,-0.2995045827071051,0,Fixed-Wing
1970-01-01 00:00:47.594581728,12558,1536693739109006552,base_link,0,1,40.5915079,-79.8974987,354.604240666,0.489999983311,0.0,0.0,0.0,0.489999983311,0.0,0.0,0.0,1.95999993324,1,129.16145165518407,128.14425073596365,354.60164440691835,-11.38789476158975,-16.66066639698896,-0.474571064674627,0,Fixed-Wing
1970-01-01 00:00:47.983480320,12560,1536693739497770552,base_link,0,1,40.591456,-79.8975658,354.534193747,0.489999983311,0.0,0.0,0.0,0.489999983311,0.0,0.0,0.0,1.95999993324,1,123.48104934003503,122.38054348221824,354.5318232941174,-14.203242798613378,-14.411537951590898,-0.17458027839629803,0,Fixed-Wing
1970-01-01 00:00:48.379124832,12562,1536693739893557464,base_link,0,1,40.5914135,-79.8976432,354.584132358,0.489999983311,0.0,0.0,0.0,0.489999983311,0.0,0.0,0.0,1.95999993324,1,116.92865395760379,117.66071995638045,354.58197424174426,-16.383568868174844,-11.801417537856704,0.12539711911348367,0,Fixed-Wing
1970-01-01 00:00:48.782316032,12564,1536693740289517144,base_link,0,1,40.5913813,-79.897728,354.634059089,0.489999983311,0.0,0.0,0.0,0.489999983311,0.0,0.0,0.0,1.95999993324,1,109.74976896209456,114.08473064006569,354.6320934737288,-17.950039620013207,-8.941381558382348,0.1253178175175703,0,Fixed-Wing
1970-01-01 00:00:49.185133024,12566,1536693740699414424,base_link,0,1,40.5913598,-79.8978171,354.723976944,0.489999983311,0.0,0.0,0.0,0.489999983311,0.0,0.0,0.0,1.95999993324,1,102.20683459816976,111.69700252812653,354.7221788396475,-18.860306408071274,-5.970260595891738,0.22524889149715188,0,Fixed-Wing
1970-01-01 00:00:49.568207584,12568,1536693741082577368,base_link,0,1,40.5913498,-79.8979082,354.903887942,0.489999983311,0.0,0.0,0.0,0.489999983311,0.0,0.0,0.0,1.95999993324,1,94.49456554806234,110.58638182174292,354.9022279868592,-19.283709809563565,-2.77698914174886,0.4501937735486307,0,Fixed-Wing
1970-01-01 00:00:50.004948800,12570,1536693741519367064,base_link,0,1,40.5913505,-79.8979989,355.053794875,0.489999983311,0.0,0.0,0.0,0.489999983311,0.0,0.0,0.0,1.95999993324,1,86.81614247852228,110.66402760259527,355.05224254548096,-19.199081529190998,0.19414502997309652,0.37509547409157623,0,Fixed-Wing
1970-01-01 00:00:50.392602272,12572,1536693741906926040,base_link,0,1,40.5913612,-79.8980873,355.063699983,0.489999983311,0.0,0.0,0.0,0.489999983311,0.0,0.0,0.0,1.95999993324,1,79.33241762657866,111.8522030773212,355.062224207923,-18.712259310700485,2.9709066046050703,0.024958087003813415,0,Fixed-Wing
1970-01-01 00:00:50.772116832,12574,1536693742285630680,base_link,0,1,40.5913829,-79.8981716,354.983604691,0.489999983311,0.0,0.0,0.0,0.489999983311,0.0,0.0,0.0,1.95999993324,1,72.19577743507244,114.26196217523194,354.98217074841665,-17.84441097349387,6.025346736887902,-0.2001651747809269,0,Fixed-Wing
1970-01-01 00:00:51.209201280,12576,1536693742723630936,base_link,0,1,40.5914139,-79.8982501,354.783511454,0.489999983311,0.0,0.0,0.0,0.489999983311,0.0,0.0,0.0,1.95999993324,1,65.55014411530823,117.70451571476315,354.78208641538424,-16.616700429728223,8.60773956780994,-0.5002896281974595,0,Fixed-Wing
1970-01-01 00:00:51.567882368,12578,1536693743081614424,base_link,0,1,40.5914535,-79.8983203,354.603423123,0.489999983311,0.0,0.0,0.0,0.489999983311,0.0,0.0,0.0,1.95999993324,1,59.60716510955281,122.10212993916166,354.6019734364934,-14.859787930987677,10.995767394360886,-0.4503533778841695,0,Fixed-Wing
1970-01-01 00:00:51.968185280,12580,1536693743482345848,base_link,0,1,40.5915009,-79.8983812,354.493341059,0.489999983311,0.0,0.0,0.0,0.489999983311,0.0,0.0,0.0,1.95999993324,1,54.451499595434946,127.36596300129408,354.49183421387465,-12.891194148373028,13.161655616090584,-0.27539143069715283,0,Fixed-Wing
1970-01-01 00:00:52.425017856,12582,1536693743939412088,base_link,0,1,40.5915543,-79.8984308,354.563268059,0.489999983311,0.0,0.0,0.0,0.489999983311,0.0,0.0,0.0,1.95999993324,1,50.252463933560335,133.2961228880046,354.56167415831203,-10.499242785425231,14.827735085052177,0.17462736490341302,0,Fixed-Wing
1970-01-01 00:00:52.774387296,12584,1536693744287526904,base_link,0,1,40.5916118,-79.8984697,354.713204304,0.489999983311,0.0,0.0,0.0,0.489999983311,0.0,0.0,0.0,1.95999993324,1,46.95926300708453,139.68160680115272,354.71149848932964,-8.234299218316398,15.966224463223297,0.3746198301672818,0,Fixed-Wing
1970-01-01 00:00:53.185424416,12586,1536693744699650200,base_link,0,1,40.591672,-79.898498,354.863150276,0.489999983311,0.0,0.0,0.0,0.489999983311,0.0,0.0,0.0,1.95999993324,1,44.563429707702326,146.36693883086093,354.86131135214305,-5.990526756419646,16.715962838417568,0.3745911551404483,0,Fixed-Wing
1970-01-01 00:00:53.570753536,12588,1536693745083571896,base_link,0,1,40.5917341,-79.8985158,354.943106205,0.489999983311,0.0,0.0,0.0,0.489999983311,0.0,0.0,0.0,1.95999993324,1,43.05649632547855,153.26327463101438,354.9411152397609,-3.7679269040468326,17.243555360352886,0.19954114677525867,0,Fixed-Wing
1970-01-01 00:00:53.994868480,12590,1536693745509040600,base_link,0,1,40.591797,-79.8985224,354.943073262,0.489999983311,0.0,0.0,0.0,0.489999983311,0.0,0.0,0.0,1.95999993324,1,42.49772100323536,160.2484560916521,354.9409139500045,-1.3971583580493572,17.46570450005302,-0.0005033036614085298,0,Fixed-Wing
1970-01-01 00:00:54.382852320,12592,1536693745896720280,base_link,0,1,40.5918598,-79.8985183,354.833051311,0.489999983311,0.0,0.0,0.0,0.489999983311,0.0,0.0,0.0,1.95999993324,1,42.84477312296842,167.22253470715162,354.83071021497733,0.8677669726308317,17.43794301477367,-0.2755527371239512,0,Fixed-Wing
1970-01-01 00:00:54.775230592,12594,1536693746288216792,base_link,0,1,40.5919219,-79.898503,354.663041107,0.489999983311,0.0,0.0,0.0,0.489999983311,0.0,0.0,0.0,1.95999993324,1,44.13997914542324,174.1188805327302,354.6605062121771,3.238525123844057,17.243580427863833,-0.4255770353836553,0,Fixed-Wing
1970-01-01 00:00:55.175534208,12596,1536693746689785752,base_link,0,1,40.5919819,-79.8984758,354.473043946,0.489999983311,0.0,0.0,0.0,0.489999983311,0.0,0.0,0.0,1.95999993324,1,46.442597227964164,180.7820222740341,354.4703068965892,5.757452005043105,16.660478378604353,-0.4755731917474603,0,Fixed-Wing
1970-01-01 00:00:55.576963168,12598,1536693747091269432,base_link,0,1,40.5920382,-79.8984361,354.323061103,0.489999983311,0.0,0.0,0.0,0.489999983311,0.0,0.0,0.0,1.95999993324,1,49.80342032836482,187.03427937558234,354.32011802075147,8.403381283553806,15.633104967903076,-0.3755313357797045,0,Fixed-Wing
1970-01-01 00:00:55.976954496,12600,1536693747491218200,base_link,0,1,40.5920896,-79.898385,354.213091949,0.489999983311,0.0,0.0,0.0,0.489999983311,0.0,0.0,0.0,1.95999993324,1,54.129325217993696,192.74239007052287,354.2099433240611,10.81646581743843,14.272524659985272,-0.2754801298463626,0,Fixed-Wing
1970-01-01 00:00:56.344429376,12602,1536693747857882296,base_link,0,1,40.5921347,-79.8983235,354.143136042,0.489999983311,0.0,0.0,0.0,0.489999983311,0.0,0.0,0.0,1.95999993324,1,59.335655520084536,197.7508823862801,354.13978748782176,13.017876070708239,12.523203193896098,-0.1754172188103053,0,Fixed-Wing
1970-01-01 00:00:56.753496640,12604,1536693748267776440,base_link,0,1,40.5921723,-79.8982527,354.193192755,0.489999983311,0.0,0.0,0.0,0.489999983311,0.0,0.0,0.0,1.95999993324,1,65.32929101948898,201.92649733506585,354.18965456694707,14.986449114246597,10.440681779344622,0.1246873360686963,0,Fixed-Wing
1970-01-01 00:00:57.136250080,12606,1536693748650476952,base_link,0,1,40.5922009,-79.8981743,354.333260974,0.489999983311,0.0,0.0,0.0,0.489999983311,0.0,0.0,0.0,1.95999993324,1,71.96631832524163,205.10265632997022,354.32954986812706,16.595182005547507,7.9416482968676805,0.3497933454018768,0,Fixed-Wing
1970-01-01 00:00:57.596443456,12608,1536693749110884376,base_link,0,1,40.5922201,-79.8980906,354.503338515,0.489999983311,0.0,0.0,0.0,0.489999983311,0.0,0.0,0.0,1.95999993324,1,79.05202989992931,207.23493623217604,354.4994745563014,17.717069375145783,5.331539472981554,0.4248786388214126,0,Fixed-Wing
1970-01-01 00:00:58.022906656,12610,1536693749537187608,base_link,0,1,40.5922297,-79.8980036,354.59342342,0.489999983311,0.0,0.0,0.0,0.489999983311,0.0,0.0,0.0,1.95999993324,1,86.41711471374784,208.30112224752352,354.589429250406,18.415612493514047,2.6658849152428594,0.22492216050182817,0,Fixed-Wing
1970-01-01 00:00:58.420261248,12612,1536693749934582808,base_link,0,1,40.59223,-79.897915,354.543513829,0.489999983311,0.0,0.0,0.0,0.489999983311,0.0,0.0,0.0,1.95999993324,1,93.91765858558958,208.33452700192973,354.53941268834546,18.754313483978084,0.08352504120950535,-0.1250611022749443,0,Fixed-Wing
1970-01-01 00:00:58.797793696,12614,1536693750311780408,base_link,0,1,40.5922205,-79.8978265,354.333608217,0.489999983311,0.0,0.0,0.0,0.489999983311,0.0,0.0,0.0,1.95999993324,1,101.40974891305602,207.27962220374246,354.32942697544297,18.733176293932402,-2.6376774296633374,-0.525046977155137,0,Fixed-Wing
1970-01-01 00:00:59.188849984,12616,1536693750702981176,base_link,0,1,40.5922001,-79.8977398,354.173705307,0.489999983311,0.0,0.0,0.0,0.489999983311,0.0,0.0,0.0,1.95999993324,1,108.74947807008182,205.01425525298586,354.1694767177833,18.352213366169675,-5.6643095056386406,-0.39993863448407924,0,Fixed-Wing
1970-01-01 00:00:59.645900608,12618,1536693751160190488,base_link,0,1,40.5921699,-79.8976573,354.043802194,0.489999983311,0.0,0.0,0.0,0.489999983311,0.0,0.0,0.0,1.95999993324,1,115.73367221779446,201.66057939598312,354.039558054101,17.463235828924663,-8.385510360388615,-0.32484782273784063,0,Fixed-Wing
1970-01-01 00:00:59.966937216,12620,1536693751481289592,base_link,0,1,40.5921291,-79.8975815,353.823896659,0.489999983311,0.0,0.0,0.0,0.489999983311,0.0,0.0,0.0,1.95999993324,1,122.15069226188834,197.12974471055838,353.8196750114387,16.045077209895243,-11.328871010746033,-0.54979419924221,0,Fixed-Wing
1970-01-01 00:01:00.398916832,12622,1536693751913025528,base_link,0,1,40.592079,-79.8975151,353.653985405,0.489999983311,0.0,0.0,0.0,0.489999983311,0.0,0.0,0.0,1.95999993324,1,127.77196792802815,191.56611822702226,353.6498237251741,14.055402891304903,-13.911257231854332,-0.42469510514053077,0,Fixed-Wing
1970-01-01 00:01:00.759122304,12624,1536693752273413272,base_link,0,1,40.5920224,-79.8974578,353.794067577,0.489999983311,0.0,0.0,0.0,0.489999983311,0.0,0.0,0.0,1.95999993324,1,132.62289678921167,185.280652311254,353.7899931530101,12.129232507078662,-15.71614008148351,0.3504787699962382,0,Fixed-Wing
1970-01-01 00:01:01.183197056,12626,1536693752697309912,base_link,0,1,40.5919663,-79.8974031,353.81414691,0.489999983311,0.0,0.0,0.0,0.489999983311,0.0,0.0,0.0,1.95999993324,1,137.25372331002927,179.05070800691274,353.81015302008166,11.578889977215429,-15.577314187837699,0.0504076068770429,0,Fixed-Wing
1970-01-01 00:01:01.592517408,12628,1536693753106736664,base_link,0,1,40.5919124,-79.8973467,352.844227092,0.489999983311,0.0,0.0,0.0,0.489999983311,0.0,0.0,0.0,1.95999993324,1,142.02844724989927,173.0650572618909,352.8402944410357,11.93869019338046,-14.966484083797805,-2.4250283895861933,0,Fixed-Wing
1970-01-01 00:01:01.990485728,12630,1536693753503880728,base_link,0,1,40.5918579,-79.897289,351.304308883,0.489999983311,0.0,0.0,0.0,0.489999983311,0.0,0.0,0.0,1.95999993324,1,146.91321931645382,167.0127673608048,351.30042748977456,12.213853848367485,-15.1331082172595,-3.8502737962758147,0,Fixed-Wing
1970-01-01 00:01:02.413901440,12632,1536693753928286808,base_link,0,1,40.5918027,-79.8972294,349.744392939,0.489999983311,0.0,0.0,0.0,0.489999983311,0.0,0.0,0.0,1.95999993324,1,151.95884586895662,160.88274992883123,349.74055145143757,12.616053409669012,-15.327457654514477,-3.9003043937845088,0,Fixed-Wing
1970-01-01 00:01:02.796298784,12634,1536693754310617560,base_link,0,1,40.5917469,-79.8971663,348.214480857,0.489999983311,0.0,0.0,0.0,0.489999983311,0.0,0.0,0.0,1.95999993324,1,157.30077915724326,154.68611468759013,348.2106637156558,13.35693693828438,-15.494028412577723,-3.825321827642244,0,Fixed-Wing
1970-01-01 00:01:03.222688352,12636,1536693754736918072,base_link,0,1,40.5916893,-79.8970994,346.95457345,0.489999983311,0.0,0.0,0.0,0.489999983311,0.0,0.0,0.0,1.95999993324,1,162.96442601252554,148.28960589899546,346.950766610522,14.161347550444896,-15.99379099356817,-3.1502389254652674,0,Fixed-Wing
1970-01-01 00:01:03.588456832,12638,1536693755102670136,base_link,0,1,40.5916308,-79.8970292,346.144669833,0.489999983311,0.0,0.0,0.0,0.489999983311,0.0,0.0,0.0,1.95999993324,1,168.90746228797514,141.79317351140998,346.14085669293604,14.859931127776626,-16.243639342160105,-2.0250937462299543,0,Fixed-Wing
1970-01-01 00:01:03.974651840,12640,1536693755488834552,base_link,0,1,40.5915728,-79.8969553,345.844769832,0.489999983311,0.0,0.0,0.0,0.489999983311,0.0,0.0,0.0,1.95999993324,1,175.16375088754444,135.35229180900288,345.84092846461766,15.643185300608103,-16.10474075268629,-0.749938686139014,0,Fixed-Wing
1970-01-01 00:01:04.361750976,12642,1536693755876061656,base_link,0,1,40.5915153,-79.8968786,345.604872524,0.489999983311,0.0,0.0,0.0,0.489999983311,0.0,0.0,0.0,1.95999993324,1,181.6570897928494,128.9669490420823,345.600982417925,16.235904418208285,-15.965871542069344,-0.599959610370226,0,Fixed-Wing
1970-01-01 00:01:04.798966304,12644,1536693756312284952,base_link,0,1,40.5914583,-79.8968003,345.504976684,0.489999983311,0.0,0.0,0.0,0.489999983311,0.0,0.0,0.0,1.95999993324,1,188.28589344302384,122.63714461988026,345.5010197697003,16.5746196280275,-15.827003808604934,-0.24994598705479168,0,Fixed-Wing
1970-01-01 00:01:05.214229248,12646,1536693756728399640,base_link,0,1,40.5914024,-79.8967206,345.545081852,0.489999983311,0.0,0.0,0.0,0.489999983311,0.0,0.0,0.0,1.95999993324,1,195.03322928193063,116.42950926541545,345.5410391001177,16.870996779259716,-15.521533027613883,0.10006408613708691,0,Fixed-Wing
1970-01-01 00:01:05.619752544,12648,1536693757133905944,base_link,0,1,40.5913464,-79.8966404,345.845187612,0.489999983311,0.0,0.0,0.0,0.489999983311,0.0,0.0,0.0,1.95999993324,1,201.8229135885425,110.21078044349078,345.84104469338604,16.976884625858226,-15.549271065004417,0.7501321289811598,0,Fixed-Wing
1970-01-01 00:01:05.957140128,12650,1536693757471478328,base_link,0,1,40.5912905,-79.8965615,346.365292033,0.489999983311,0.0,0.0,0.0,0.489999983311,0.0,0.0,0.0,1.95999993324,1,208.50256219127854,104.00316300254607,346.3610390651095,16.701752032785294,-15.521488236759046,1.3001907093453267,0,Fixed-Wing
1970-01-01 00:01:06.419817248,12652,1536693757933979320,base_link,0,1,40.5912351,-79.8964838,347.07539505,0.489999983311,0.0,0.0,0.0,0.489999983311,0.0,0.0,0.0,1.95999993324,1,215.08063890268977,97.85107661680334,347.07102155686,16.447782304240988,-15.382638729956804,1.7752358290193428,0,Fixed-Wing
1970-01-01 00:01:06.758480960,12654,1536693758271938392,base_link,0,1,40.5911799,-79.8964072,348.03549689,0.489999983311,0.0,0.0,0.0,0.489999983311,0.0,0.0,0.0,1.95999993324,1,221.565612695573,91.72120597400547,348.0309930605572,16.214988342872097,-15.327090623767916,2.4003068075652023,0,Fixed-Wing
1970-01-01 00:01:07.181559616,12656,1536693758695784920,base_link,0,1,40.5911246,-79.8963326,349.105596755,0.489999983311,0.0,0.0,0.0,0.489999983311,0.0,0.0,0.0,1.95999993324,1,227.88128819989998,85.58023027273947,349.1009562912651,15.79167594977953,-15.354857643243813,2.675329441156764,0,Fixed-Wing
1970-01-01 00:01:07.594742912,12658,1536693759108938040,base_link,0,1,40.5910697,-79.8962593,350.245695152,0.489999983311,0.0,0.0,0.0,0.489999983311,0.0,0.0,0.0,1.95999993324,1,234.08692242371242,79.48367618379169,350.24090936131097,15.51652941291363,-15.243786118683152,2.8503316023420258,0,Fixed-Wing
1970-01-01 00:01:08.046443392,12660,1536693759560866488,base_link,0,1,40.5910149,-79.8961875,351.335792,0.489999983311,0.0,0.0,0.0,0.489999983311,0.0,0.0,0.0,1.95999993324,1,240.16558014470323,73.39822567652035,351.33085366048067,15.199038150985793,-15.216022791768035,2.7252899810962763,0,Fixed-Wing
1970-01-01 00:01:08.384640672,12662,1536693759898835768,base_link,0,1,40.5909609,-79.8961171,352.355887106,0.489999983311,0.0,0.0,0.0,0.489999983311,0.0,0.0,0.0,1.95999993324,1,246.12572326055542,67.40161517380724,352.3507882382162,14.902704965662569,-14.99388779411035,2.5502381068406073,0,Fixed-Wing
1970-01-01 00:01:08.768640960,12664,1536693760282822904,base_link,0,1,40.5909074,-79.8960475,353.12598121,0.489999983311,0.0,0.0,0.0,0.489999983311,0.0,0.0,0.0,1.95999993324,1,252.01813979536357,61.460528952223086,353.12071273756646,14.73336184151041,-14.855055225158356,1.9251144539021938,0,Fixed-Wing
1970-01-01 00:01:09.189135904,12666,1536693760703482424,base_link,0,1,40.590854,-79.8959794,353.766073763,0.489999983311,0.0,0.0,0.0,0.489999983311,0.0,0.0,0.0,1.95999993324,1,257.7835745260058,55.53054569646417,353.76062973386297,14.415857324134118,-14.827293438113784,1.6000444977496608,0,Fixed-Wing
