time,field.header.seq,field.header.stamp,field.header.frame_id,field.status.status,field.status.service,lat,lon,alt,field.position_covariance0,field.position_covariance1,field.position_covariance2,field.position_covariance3,field.position_covariance4,field.position_covariance5,field.position_covariance6,field.position_covariance7,field.position_covariance8,field.position_covariance_type,x,y,z,vel_x,vel_y,vel_z,track_id,uav_category
1970-01-01 00:00:00.000000000,9241,1536690450461055262,base_link,0,1,40.5915637,-79.8985348,398.763157874,0.547600014114,0.0,0.0,0.0,0.547600014114,0.0,0.0,0.0,2.19040005646,1,254.32863139608193,142.29650750076718,398.7565035650614,-19.83506609494513,1.054579472799448,1.275768744182085,0,Fixed-Wing
1970-01-01 00:00:00.406803511,9243,1536690450868078284,base_link,0,1,40.5915675,-79.8986285,399.273060568,0.547600014114,0.0,0.0,0.0,0.547600014114,0.0,0.0,0.0,2.19040005646,1,246.39621159845757,142.71825386894966,399.26670772546595,-19.83506609494513,1.054579472799448,1.275768744182085,0,Fixed-Wing
1970-01-01 00:00:00.823370950,9245,1536690451284533759,base_link,0,1,40.5915733,-79.89872,399.71296469,0.547600014114,0.0,0.0,0.0,0.547600014114,0.0,0.0,0.0,2.19040005646,1,238.65002863327348,143.36211912601055,399.70689147927965,-19.369379712351975,1.609989165458243,1.1006822726944676,0,Fixed-Wing
1970-01-01 00:00:01.197623051,9247,1536690451658602284,base_link,0,1,40.591578,-79.8988096,399.942871227,0.547600014114,0.0,0.0,0.0,0.547600014114,0.0,0.0,0.0,2.19040005646,1,231.06469173635338,143.8838344527298,399.93706513524154,-18.96718309687736,1.304552488677036,0.5755506889192352,0,Fixed-Wing
1970-01-01 00:00:01.648427661,9249,1536690452109221588,base_link,0,1,40.5915798,-79.8988975,399.372780724,0.547600014114,0.0,0.0,0.0,0.547600014114,0.0,0.0,0.0,2.19040005646,1,223.6232550721568,144.08349001553088,399.3672349670375,-18.607359650820722,0.49924000310337363,-1.4248639554610332,0,Fixed-Wing
1970-01-01 00:00:01.990497940,9251,1536690452449269734,base_link,0,1,40.5915789,-79.8989838,397.812692993,0.547600014114,0.0,0.0,0.0,0.547600014114,0.0,0.0,0.0,2.19040005646,1,216.31724757850728,143.98329144557334,397.8074011015008,-18.26871814954911,-0.250547160693894,-3.900374489676023,0,Fixed-Wing
1970-01-01 00:00:02.393546517,9253,1536690452854703631,base_link,0,1,40.5915728,-79.8990693,395.422608259,0.547600014114,0.0,0.0,0.0,0.547600014114,0.0,0.0,0.0,2.19040005646,1,209.0789585963591,143.30560801522344,395.4175726882663,-18.0993875813557,-1.69455172259858,-5.9757811287647105,0,Fixed-Wing
1970-01-01 00:00:02.789663221,9255,1536690453250720403,base_link,0,1,40.5915585,-79.8991548,392.692526954,0.547600014114,0.0,0.0,0.0,0.547600014114,0.0,0.0,0.0,2.19040005646,1,201.84068762587884,141.71729092063936,392.68775977774044,-18.09934254306558,-3.971596984849643,-6.8259145240058094,0,Fixed-Wing
1970-01-01 00:00:03.209501996,9257,1536690453670730659,base_link,0,1,40.5915338,-79.8992402,389.872450097,0.547600014114,0.0,0.0,0.0,0.547600014114,0.0,0.0,0.0,2.19040005646,1,194.61091292803417,138.97403107499022,389.8679677893625,-18.07809755936746,-6.859538670703654,-7.05090777977019,0,Fixed-Wing
1970-01-01 00:00:03.601659262,9259,1536690454062640190,base_link,0,1,40.5915,-79.8993235,386.782379187,0.547600014114,0.0,0.0,0.0,0.547600014114,0.0,0.0,0.0,2.19040005646,1,187.55893775722137,135.22019915631208,386.7781887176536,-17.633508712546277,-9.386480559008561,-7.726012196742099,0,Fixed-Wing
1970-01-01 00:00:04.011350090,9261,1536690454470224184,base_link,0,1,40.5914576,-79.8994042,383.552314527,0.547600014114,0.0,0.0,0.0,0.547600014114,0.0,0.0,0.0,2.19040005646,1,180.727091292939,130.51132667575212,383.5484193355452,-17.083075483491317,-11.774565550923963,-8.076058857189654,0,Fixed-Wing
1970-01-01 00:00:04.402637948,9263,1536690454860905248,base_link,0,1,40.5914082,-79.8994831,380.332254636,0.547600014114,0.0,0.0,0.0,0.547600014114,0.0,0.0,0.0,2.19040005646,1,174.0476452700189,125.02510042818693,380.32865510067427,-16.701997211735634,-13.718343583488616,-8.051040922964205,0,Fixed-Wing
1970-01-01 00:00:04.805705852,9265,1536690455266879957,base_link,0,1,40.5913542,-79.8995596,377.092199127,0.547600014114,0.0,0.0,0.0,0.547600014114,0.0,0.0,0.0,2.19040005646,1,167.5713854928006,119.02804799811952,377.0888877817203,-16.193928713610262,-14.995667697877352,-8.101058761784175,0,Fixed-Wing
1970-01-01 00:00:05.232581103,9267,1536690455693742409,base_link,0,1,40.5912962,-79.8996353,373.92214612,0.547600014114,0.0,0.0,0.0,0.547600014114,0.0,0.0,0.0,2.19040005646,1,161.16285938922218,112.58679989396748,373.91911691374526,-16.02456023239312,-16.10638180269514,-7.926032191456385,0,Fixed-Wing
1970-01-01 00:00:05.635899974,9269,1536690456097082111,base_link,0,1,40.591236,-79.8997115,371.092093537,0.547600014114,0.0,0.0,0.0,0.547600014114,0.0,0.0,0.0,2.19040005646,1,154.71201301365895,105.90125309224862,371.0893386151208,-16.130382341332194,-16.717252247877337,-7.0758786119800074,0,Fixed-Wing
1970-01-01 00:00:06.024482972,9271,1536690456484888658,base_link,0,1,40.5911761,-79.8997906,368.832037889,0.547600014114,0.0,0.0,0.0,0.547600014114,0.0,0.0,0.0,2.19040005646,1,148.01566578282007,99.24903763386826,368.82954888954225,-16.744258789502076,-16.633907012120876,-5.650618564205679,0,Fixed-Wing
1970-01-01 00:00:06.386686494,9273,1536690456847834456,base_link,0,1,40.5911185,-79.8998733,366.901977624,0.547600014114,0.0,0.0,0.0,0.547600014114,0.0,0.0,0.0,2.19040005646,1,141.01454561553618,92.8522525759349,366.89974358189573,-17.50634545316398,-15.99520167317221,-4.825490430928558,0,Fixed-Wing
1970-01-01 00:00:06.780555249,9275,1536690457240488184,base_link,0,1,40.5910657,-79.8999608,364.961910473,0.547600014114,0.0,0.0,0.0,0.547600014114,0.0,0.0,0.0,2.19040005646,1,133.60705009454009,86.98852203970009,364.95991853465057,-18.522489606635578,-14.66229545541675,-4.850544853445735,0,Fixed-Wing
1970-01-01 00:00:07.224606475,9277,1536690457685761317,base_link,0,1,40.5910197,-79.9000542,363.181834476,0.547600014114,0.0,0.0,0.0,0.547600014114,0.0,0.0,0.0,2.19040005646,1,125.70005616477096,81.87995207093871,363.1800708224189,-19.771488550854368,-12.774011659264431,-4.450520510982687,0,Fixed-Wing
1970-01-01 00:00:07.616242001,9279,1536690458077296686,base_link,0,1,40.5909821,-79.900153,361.481749473,0.547600014114,0.0,0.0,0.0,0.547600014114,0.0,0.0,0.0,2.19040005646,1,117.33588972272197,77.70422663013471,361.4801973044076,-20.914651322015164,-10.441427991178216,-4.250544530295532,0,Fixed-Wing
1970-01-01 00:00:07.987961939,9281,1536690458449017361,base_link,0,1,40.5909553,-79.9002578,360.121653846,0.547600014114,0.0,0.0,0.0,0.547600014114,0.0,0.0,0.0,2.19040005646,1,108.46375896105283,74.72787413799114,360.1202941440903,-22.184819330087194,-7.442388313992523,-3.4004464912078305,0,Fixed-Wing
1970-01-01 00:00:08.394697517,9283,1536690458855502291,base_link,0,1,40.5909412,-79.9003676,359.251547823,0.547600014114,0.0,0.0,0.0,0.547600014114,0.0,0.0,0.0,2.19040005646,1,99.16832393850024,73.16189732717436,359.25035739715423,-23.243294323481994,-3.915734963372028,-2.175282362018429,0,Fixed-Wing
1970-01-01 00:00:08.789090636,9285,1536690459249763256,base_link,0,1,40.5909421,-79.9004798,358.911433095,0.547600014114,0.0,0.0,0.0,0.547600014114,0.0,0.0,0.0,2.19040005646,1,89.66969584712103,73.26172016048358,358.91038192488963,-23.75137988287429,0.2496076288178821,-0.850110828104186,0,Fixed-Wing
1970-01-01 00:00:09.197956343,9287,1536690459659134032,base_link,0,1,40.5909572,-79.9005909,359.221313571,0.547600014114,0.0,0.0,0.0,0.547600014114,0.0,0.0,0.0,2.19040005646,1,80.2641839447918,74.9385059496314,359.2203679861611,-23.51854226063087,4.192813517606886,0.7751221154069827,0,Fixed-Wing
1970-01-01 00:00:09.610319873,9289,1536690460071432156,base_link,0,1,40.5909856,-79.9006973,359.851193301,0.547600014114,0.0,0.0,0.0,0.547600014114,0.0,0.0,0.0,2.19040005646,1,71.25655701605392,78.09230688913931,359.8503166273455,-22.5236283565869,7.886099283874741,1.5751905790532548,0,Fixed-Wing
1970-01-01 00:00:09.990911037,9291,1536690460452028856,base_link,0,1,40.5910281,-79.9007939,360.461077154,0.547600014114,0.0,0.0,0.0,0.547600014114,0.0,0.0,0.0,2.19040005646,1,63.078569667287084,82.81196353573802,360.4602267982836,-20.449109316553685,11.801531426610657,1.5250842569073277,0,Fixed-Wing
1970-01-01 00:00:10.408436072,9293,1536690460869591650,base_link,0,1,40.5910823,-79.9008778,361.440969091,0.547600014114,0.0,0.0,0.0,0.547600014114,0.0,0.0,0.0,2.19040005646,1,55.97573881014293,88.83095532707327,361.44010374512345,-17.760673679280444,15.050527210098176,2.4501885302770106,0,Fixed-Wing
1970-01-01 00:00:10.787303620,9295,1536690461248170792,base_link,0,1,40.5911458,-79.900946,362.780873172,0.547600014114,0.0,0.0,0.0,0.547600014114,0.0,0.0,0.0,2.19040005646,1,50.202039743413366,95.88275680669909,362.7799534567222,-14.43717119399069,17.633074396629873,3.3503027152966753,0,Fixed-Wing
1970-01-01 00:00:11.217297636,9297,1536690461678153545,base_link,0,1,40.591216,-79.9009957,363.970793332,0.547600014114,0.0,0.0,0.0,0.547600014114,0.0,0.0,0.0,2.19040005646,1,45.99451054246313,103.67862373983886,363.9697830448937,-10.520953495458413,19.49361478984435,2.9751764436586052,0,Fixed-Wing
1970-01-01 00:00:11.608313024,9299,1536690462069550423,base_link,0,1,40.5912904,-79.901027,365.270730508,0.547600014114,0.0,0.0,0.0,0.547600014114,0.0,0.0,0.0,2.19040005646,1,43.34468634187345,111.94092692237552,365.2695987584652,-6.625902246679162,20.65994159451456,3.2501974489121306,0,Fixed-Wing
1970-01-01 00:00:12.000581231,9301,1536690462461654891,base_link,0,1,40.591367,-79.901039,366.510686445,0.547600014114,0.0,0.0,0.0,0.547600014114,0.0,0.0,0.0,2.19040005646,1,42.32875517189628,120.44755780755133,366.50940616551605,-2.5403423442676263,21.270884567064353,3.1001462972523823,0,Fixed-Wing
1970-01-01 00:00:12.433566785,9303,1536690462893725279,base_link,0,1,40.5914414,-79.9010308,367.810663882,0.547600014114,0.0,0.0,0.0,0.547600014114,0.0,0.0,0.0,2.19040005646,1,43.02290782938051,128.70988778427147,367.8092171956929,1.7357331296693186,20.66000859354054,3.2501857380540575,0,Fixed-Wing
1970-01-01 00:00:12.840733194,9305,1536690463301833670,base_link,0,1,40.591512,-79.9010071,369.120658693,0.547600014114,0.0,0.0,0.0,0.547600014114,0.0,0.0,0.0,2.19040005646,1,45.02925088571134,136.5502299738182,369.1190347510366,5.0168735577225245,19.60482545102066,3.2752071178006723,0,Fixed-Wing
1970-01-01 00:00:13.209729617,9307,1536690463670645172,base_link,0,1,40.5915787,-79.900975,370.25066369,0.547600014114,0.0,0.0,0.0,0.547600014114,0.0,0.0,0.0,2.19040005646,1,47.7467132123454,143.9574717761929,370.24885673780966,6.795031810526772,18.521855181611024,2.8251270551612655,0,Fixed-Wing
1970-01-01 00:00:13.623726527,9309,1536690464084937430,base_link,0,1,40.5916415,-79.9009393,370.970673985,0.547600014114,0.0,0.0,0.0,0.547600014114,0.0,0.0,0.0,2.19040005646,1,50.7689367963177,150.93160485981898,370.96868211821004,7.557089270508041,17.438864079041185,1.799927936408072,0,Fixed-Wing
1970-01-01 00:00:14.014337866,9311,1536690464475078003,base_link,0,1,40.5917022,-79.9009037,371.390685064,0.547600014114,0.0,0.0,0.0,0.547600014114,0.0,0.0,0.0,2.19040005646,1,53.78268884931414,157.67252305415235,371.3885050613285,7.535906153487175,16.855708766858726,1.0497699362082002,0,Fixed-Wing
1970-01-01 00:00:14.392024529,9313,1536690464852959987,base_link,0,1,40.5917615,-79.9008708,371.510693991,0.656100003862,0.0,0.0,0.0,0.656100003862,0.0,0.0,0.0,2.62440001545,1,56.567860249905245,164.2579604237029,371.5083233333087,6.964338780080724,16.466927976791702,0.2996063502364065,0,Fixed-Wing
1970-01-01 00:00:14.801638048,9315,1536690465262643199,base_link,0,1,40.5918199,-79.9008411,371.36070005,0.656100003862,0.0,0.0,0.0,0.656100003862,0.0,0.0,0.0,2.62440001545,1,59.08212271172856,170.743442490709,371.35813590435265,6.286929257732976,16.216989107809518,-0.3755446201756619,0,Fixed-Wing
1970-01-01 00:00:15.223177624,9317,1536690465684246133,base_link,0,1,40.5918781,-79.9008162,370.770701322,0.656100003862,0.0,0.0,0.0,0.656100003862,0.0,0.0,0.0,2.62440001545,1,61.1900233930823,177.20669906424325,370.76794060940136,5.27081904424081,16.161414120195005,-1.4757870842627783,0,Fixed-Wing
1970-01-01 00:00:15.606429266,9319,1536690466066910084,base_link,0,1,40.5919368,-79.9007959,369.810697722,0.656100003862,0.0,0.0,0.0,0.656100003862,0.0,0.0,0.0,2.62440001545,1,62.90849444726773,183.72546736435635,369.80773542730543,4.297047787640569,16.30022154514563,-2.4009991575692404,0,Fixed-Wing
1970-01-01 00:00:16.001378141,9321,1536690466462083783,base_link,0,1,40.5919966,-79.9007806,368.620688596,0.656100003862,0.0,0.0,0.0,0.656100003862,0.0,0.0,0.0,2.62440001545,1,64.20367487338427,190.36638133664843,368.6175181922498,3.238606883185207,16.605647574364014,-2.9761457571548915,0,Fixed-Wing
1970-01-01 00:00:16.444514425,9323,1536690466905543256,base_link,0,1,40.5920576,-79.9007703,367.240673905,0.656100003862,0.0,0.0,0.0,0.656100003862,0.0,0.0,0.0,2.62440001545,1,65.07556614488395,197.1405464568974,367.23728839850276,2.180169663105973,16.938842916312968,-3.4512733672244837,0,Fixed-Wing
1970-01-01 00:00:16.808934633,9325,1536690467269998694,base_link,0,1,40.5921206,-79.9007656,366.070652711,0.656100003862,0.0,0.0,0.0,0.656100003862,0.0,0.0,0.0,2.62440001545,1,65.47337895433654,204.13681620559765,366.0670425265702,0.9947334571565456,17.494216950683157,-2.926207236796792,0,Fixed-Wing
1970-01-01 00:00:17.187946367,9327,1536690467648741798,base_link,0,1,40.5921848,-79.9007673,365.240624532,0.547600014114,0.0,0.0,0.0,0.547600014114,0.0,0.0,0.0,2.19040005646,1,65.32939184169214,211.26635288273292,365.23678309161954,-0.36004068985068505,17.8274517518179,-2.076068991347438,0,Fixed-Wing
1970-01-01 00:00:17.616541683,9329,1536690468075393122,base_link,0,1,40.5922495,-79.9007734,364.790591693,0.547600014114,0.0,0.0,0.0,0.547600014114,0.0,0.0,0.0,2.19040005646,1,64.81292038512288,218.45142377917915,364.78651288905655,-1.2914401580551647,17.96631541998813,-1.1259035018666033,0,Fixed-Wing
1970-01-01 00:00:18.004823380,9331,1536690468466035724,base_link,0,1,40.5923139,-79.9007817,364.530556763,0.547600014114,0.0,0.0,0.0,0.547600014114,0.0,0.0,0.0,2.19040005646,1,64.1102083609237,225.60318318770646,364.52623549496894,-1.7571358805137351,17.883019832834428,-0.6508252773376836,0,Fixed-Wing
1970-01-01 00:00:18.414716025,9333,1536690468875706393,base_link,0,1,40.5923775,-79.9007914,364.320520759,0.547600014114,0.0,0.0,0.0,0.547600014114,0.0,0.0,0.0,2.19040005646,1,63.28898030235189,232.6661010641888,364.3159533340688,-2.053485977339959,17.660871017586924,-0.5258118791558672,0,Fixed-Wing
1970-01-01 00:00:18.844126863,9335,1536690469304990835,base_link,0,1,40.5924407,-79.9008001,364.190485958,0.547600014114,0.0,0.0,0.0,0.547600014114,0.0,0.0,0.0,2.19040005646,1,62.552411135324924,239.68460140753606,364.1856652756975,-1.84179588123336,17.549804693818636,-0.32578611761711845,0,Fixed-Wing
1970-01-01 00:00:19.212167673,9337,1536690469672619117,base_link,0,1,40.5925028,-79.9008071,364.220453359,0.547600014114,0.0,0.0,0.0,0.547600014114,0.0,0.0,0.0,2.19040005646,1,61.959761226506345,246.58095137624042,364.2153749345986,-1.4819248618309688,17.244366906059366,0.07428919081384844,0,Fixed-Wing
1970-01-01 00:00:19.592005713,9339,1536690470052963026,base_link,0,1,40.5925643,-79.9008116,364.070423567,0.547600014114,0.0,0.0,0.0,0.547600014114,0.0,0.0,0.0,2.19040005646,1,61.57875114757477,253.41066466896976,364.0650804881782,-0.9527181227487916,17.077741474471924,-0.3758122180251232,0,Fixed-Wing
1970-01-01 00:00:19.988226957,9341,1536690470449283499,base_link,0,1,40.5926254,-79.9008124,363.91039772,0.547600014114,0.0,0.0,0.0,0.547600014114,0.0,0.0,0.0,2.19040005646,1,61.51096884194885,260.19595894391216,363.90478143862117,-0.1694900858071724,16.966671438322262,-0.4008287917228517,0,Fixed-Wing
1970-01-01 00:00:20.406456863,9343,1536690470865327469,base_link,0,1,40.5926861,-79.900809,363.650376324,0.547600014114,0.0,0.0,0.0,0.547600014114,0.0,0.0,0.0,2.19040005646,1,61.79874046626084,266.93683073605007,363.6444780400052,0.7195747746718368,16.855592737874193,-0.6508903018260558,0,Fixed-Wing
1970-01-01 00:00:20.809186668,9345,1536690471269342794,base_link,0,1,40.5927465,-79.9007999,363.370360863,0.547600014114,0.0,0.0,0.0,0.547600014114,0.0,0.0,0.0,2.19040005646,1,62.569049283391365,273.6443895169917,363.36417014565717,1.9261620906496735,16.77229334175573,-0.700911670483341,0,Fixed-Wing
1970-01-01 00:00:21.220241286,9347,1536690471681025581,base_link,0,1,40.592806,-79.9007828,363.250353918,0.547600014114,0.0,0.0,0.0,0.547600014114,0.0,0.0,0.0,2.19040005646,1,64.01660430130826,280.2520135477288,363.24386125361696,3.619620517947128,16.522405864030215,-0.3008331488131691,0,Fixed-Wing
1970-01-01 00:00:21.640255286,9349,1536690472099295645,base_link,0,1,40.5928632,-79.9007586,363.350355145,0.547600014114,0.0,0.0,0.0,0.547600014114,0.0,0.0,0.0,2.19040005646,1,66.06521582523987,286.60423240381476,363.3435586647978,5.122566129470248,15.883763602344432,0.24929400998912604,0,Fixed-Wing
1970-01-01 00:00:21.991648645,9351,1536690472452856573,base_link,0,1,40.5929181,-79.9007267,363.41036515,0.547600014114,0.0,0.0,0.0,0.547600014114,0.0,0.0,0.0,2.19040005646,1,68.76567327902967,292.70103573200976,363.403262627242,6.752511017955624,15.245095452316578,0.14929013736328875,0,Fixed-Wing
1970-01-01 00:00:22.390559391,9353,1536690472851094607,base_link,0,1,40.5929704,-79.900686,363.340385173,0.547600014114,0.0,0.0,0.0,0.547600014114,0.0,0.0,0.0,2.19040005646,1,72.21109560839787,298.50910507068573,363.33297479745073,8.615300421755903,14.523114277331103,-0.17575516489902906,0,Fixed-Wing
1970-01-01 00:00:22.788279428,9355,1536690473248823860,base_link,0,1,40.5930192,-79.9006351,363.290417002,0.547600014114,0.0,0.0,0.0,0.547600014114,0.0,0.0,0.0,2.19040005646,1,76.52000158939207,303.92850233233384,363.28269990441316,10.774446777958028,13.551237279669383,-0.12571268941352468,0,Fixed-Wing
1970-01-01 00:00:23.207480882,9357,1536690473667275582,base_link,0,1,40.5930633,-79.900575,363.140460108,0.547600014114,0.0,0.0,0.0,0.547600014114,0.0,0.0,0.0,2.19040005646,1,81.60773463614247,308.82595944232435,363.1324442177547,12.721908803408692,12.246122614805778,-0.3757152989941816,0,Fixed-Wing
1970-01-01 00:00:23.594258282,9359,1536690474055386885,base_link,0,1,40.593101,-79.9005049,362.960515997,0.547600014114,0.0,0.0,0.0,0.547600014114,0.0,0.0,0.0,2.19040005646,1,87.54202138099278,313.0126929742634,362.9522169496091,14.83872170327069,10.468953792990753,-0.4506594288983171,0,Fixed-Wing
1970-01-01 00:00:24.005695606,9361,1536690474466809873,base_link,0,1,40.5931306,-79.9004259,362.950584243,0.547600014114,0.0,0.0,0.0,0.547600014114,0.0,0.0,0.0,2.19040005646,1,94.22974652127611,316.2999246517727,362.94202747678867,16.722699197295785,8.21974369187081,-0.02547884151654963,0,Fixed-Wing
1970-01-01 00:00:24.412855999,9363,1536690474873871870,base_link,0,1,40.5931514,-79.9003403,363.080662795,0.547600014114,0.0,0.0,0.0,0.547600014114,0.0,0.0,0.0,2.19040005646,1,101.47620560036673,318.60991592632877,363.07187976880743,18.119816960661066,5.776147856331078,0.32469648108433935,0,Fixed-Wing
1970-01-01 00:00:24.793365694,9365,1536690475253833714,base_link,0,1,40.5931622,-79.9002508,363.480749397,0.547600014114,0.0,0.0,0.0,0.547600014114,0.0,0.0,0.0,2.19040005646,1,109.05283657936968,319.80940882487374,363.4717813335081,18.945413893820888,2.9993396126339946,0.9999564029232315,0,Fixed-Wing
1970-01-01 00:00:25.232077342,9367,1536690475693328468,base_link,0,1,40.593163,-79.9001603,364.250841105,0.547600014114,0.0,0.0,0.0,0.547600014114,0.0,0.0,0.0,2.19040005646,1,116.7141454159757,319.8984054691998,364.2417331772963,19.1571514146765,0.22253667449176767,1.925269476539479,0,Fixed-Wing
1970-01-01 00:00:25.620482234,9369,1536690476081730672,base_link,0,1,40.5931575,-79.9000726,365.230932547,0.547600014114,0.0,0.0,0.0,0.547600014114,0.0,0.0,0.0,2.19040005646,1,124.13843701940742,319.28778633212323,365.2217153163206,18.5644883174636,-1.526857031240283,2.4504515640025697,0,Fixed-Wing
1970-01-01 00:00:26.036698582,9371,1536690476497850928,base_link,0,1,40.5931489,-79.8999873,366.131022826,0.547600014114,0.0,0.0,0.0,0.547600014114,0.0,0.0,0.0,2.19040005646,1,131.35956392744745,318.3329042393286,366.12170902115116,18.056473706025553,-2.3876887389561516,2.2504399761715135,0,Fixed-Wing
1970-01-01 00:00:26.414870923,9373,1536690476870391476,base_link,0,1,40.5931394,-79.8999046,366.921110842,0.547600014114,0.0,0.0,0.0,0.547600014114,0.0,0.0,0.0,2.19040005646,1,138.36059046332045,317.2780720868793,366.9117019131038,17.50611132722625,-2.637614498059126,1.975382244786159,0,Fixed-Wing
1970-01-01 00:00:26.809799063,9375,1536690477270742681,base_link,0,1,40.5931305,-79.899824,367.471196489,0.547600014114,0.0,0.0,0.0,0.547600014114,0.0,0.0,0.0,2.19040005646,1,145.18383782423768,316.2898623373721,367.46168531874343,17.061573370900696,-2.4710247562812326,1.3752369995915088,0,Fixed-Wing
1970-01-01 00:00:27.194432478,9377,1536690477655692660,base_link,0,1,40.593123,-79.8997457,367.781279237,0.547600014114,0.0,0.0,0.0,0.547600014114,0.0,0.0,0.0,2.19040005646,1,151.81237206745118,315.4571162613119,367.77165530649637,16.574691983160324,-2.0822868532382186,0.7750819234718431,0,Fixed-Wing
1970-01-01 00:00:27.610195147,9379,1536690478071244808,base_link,0,1,40.5931177,-79.8996683,367.681360182,0.547600014114,0.0,0.0,0.0,0.547600014114,0.0,0.0,0.0,2.19040005646,1,158.36470328591736,314.8686695372336,367.671606309929,16.384145835697176,-1.471414771687076,-0.25017315148155583,0,Fixed-Wing
1970-01-01 00:00:28.032664800,9381,1536690478493638049,base_link,0,1,40.5931145,-79.8995916,367.141439568,0.547600014114,0.0,0.0,0.0,0.547600014114,0.0,0.0,0.0,2.19040005646,1,164.85776009594613,314.51341571224964,367.13153898447,16.235929800856614,-0.8883144461352103,-1.3504417781075817,0,Fixed-Wing
1970-01-01 00:00:28.477167786,9383,1536690478938379938,base_link,0,1,40.5931132,-79.8995148,366.39151829,0.547600014114,0.0,0.0,0.0,0.547600014114,0.0,0.0,0.0,2.19040005646,1,171.35927147075563,314.3691570762668,366.38145372687035,16.257070493798732,-0.36071963568335347,-1.8755929515718548,0,Fixed-Wing
1970-01-01 00:00:28.876948163,9385,1536690479338141372,base_link,0,1,40.5931138,-79.8994375,365.601596754,0.547600014114,0.0,0.0,0.0,0.547600014114,0.0,0.0,0.0,2.19040005646,1,177.90310307212135,314.4359028010089,365.59134998790194,16.362892489143363,0.16689810872235106,-1.9756594184532668,0,Fixed-Wing
1970-01-01 00:00:29.180790155,9387,1536690479641909030,base_link,0,1,40.5931165,-79.8993594,364.851675185,0.547600014114,0.0,0.0,0.0,0.547600014114,0.0,0.0,0.0,2.19040005646,1,184.51465254849276,314.7358679878498,364.84122602440976,16.53222146577534,0.7500648552354182,-1.8756897359019493,0,Fixed-Wing
1970-01-01 00:00:29.601457475,9389,1536690480062348998,base_link,0,1,40.5931204,-79.8992804,364.231754052,0.547600014114,0.0,0.0,0.0,0.547600014114,0.0,0.0,0.0,2.19040005646,1,191.2023901535933,315.1691102472782,364.22108675942997,16.72273036565042,1.0833250218878534,-1.550662171539232,0,Fixed-Wing
1970-01-01 00:00:29.987430393,9391,1536690480448487382,base_link,0,1,40.593125,-79.8992004,363.871833661,0.547600014114,0.0,0.0,0.0,0.547600014114,0.0,0.0,0.0,2.19040005646,1,197.97478693277085,315.680110249667,363.8609347214705,16.93442116823042,1.2777587521193339,-0.9005624587965003,0,Fixed-Wing
1970-01-01 00:00:30.382918160,9393,1536690480842359785,base_link,0,1,40.5931312,-79.8991195,363.851913542,0.547600014114,0.0,0.0,0.0,0.547600014114,0.0,0.0,0.0,2.19040005646,1,204.82337776375414,316.36881917803794,363.8407644610091,17.124944878796164,1.7221210504400712,-0.050435864416147023,0,Fixed-Wing
1970-01-01 00:00:30.851848918,9395,1536690481312706811,base_link,0,1,40.5931383,-79.8990381,363.691993575,0.547600014114,0.0,0.0,0.0,0.547600014114,0.0,0.0,0.0,2.19040005646,1,211.71428742752394,317.1574757794146,363.6805805505312,17.230763389010786,1.9720408417120923,-0.40054088572406726,0,Fixed-Wing
1970-01-01 00:00:31.182566783,9397,1536690481643640764,base_link,0,1,40.5931451,-79.8989555,363.342074964,0.547600014114,0.0,0.0,0.0,0.547600014114,0.0,0.0,0.0,2.19040005646,1,218.70677603458554,317.91281648094605,363.3303886533393,17.48476218199586,1.8887342225086878,-0.8756570635351292,0,Fixed-Wing
1970-01-01 00:00:31.611472008,9399,1536690482072644193,base_link,0,1,40.5931509,-79.8988722,362.822157486,0.547600014114,0.0,0.0,0.0,0.547600014114,0.0,0.0,0.0,2.19040005646,1,225.75851846108068,318.5571045534707,362.8101936104629,17.63292673390146,1.6110464182113367,-1.300751009270436,0,Fixed-Wing
1970-01-01 00:00:32.014020827,9401,1536690482475180277,base_link,0,1,40.593155,-79.898788,362.432241632,0.547600014114,0.0,0.0,0.0,0.547600014114,0.0,0.0,0.0,2.19040005646,1,232.88645883757647,319.0126190519072,362.4199990294329,17.82346019192833,1.1390168970129306,-0.975684028590688,0,Fixed-Wing
1970-01-01 00:00:32.438435721,9403,1536690482899406057,base_link,0,1,40.5931568,-79.8987031,362.352327444,0.547600014114,0.0,0.0,0.0,0.547600014114,0.0,0.0,0.0,2.19040005646,1,240.07367598207793,319.21273731648165,362.3398087207227,17.971682126884343,0.5003969918269148,-0.20051637634171043,0,Fixed-Wing
1970-01-01 00:00:32.818449562,9405,1536690483279685937,base_link,0,1,40.593156,-79.8986184,362.602414129,0.547600014114,0.0,0.0,0.0,0.547600014114,0.0,0.0,0.0,2.19040005646,1,247.24398387254286,319.1241423202914,362.5896263328711,17.92940042974934,-0.22153235077662817,0.6246705261524874,0,Fixed-Wing
1970-01-01 00:00:33.200208619,9407,1536690483661035249,base_link,0,1,40.5931538,-79.8985345,362.952500584,0.547600014114,0.0,0.0,0.0,0.547600014114,0.0,0.0,0.0,2.19040005646,1,254.34657761691284,318.8800835760798,362.93944615471105,17.760080777282358,-0.6102704402931588,0.8747266867539626,0,Fixed-Wing
1970-01-01 00:00:33.581147355,9409,1536690484042235191,base_link,0,1,40.5931511,-79.8984517,363.282586134,0.547600014114,0.0,0.0,0.0,0.547600014114,0.0,0.0,0.0,2.19040005646,1,261.3560529942543,318.5805011082266,363.2692637554315,17.52723770898972,-0.7491078639754877,0.8247110057797855,0,Fixed-Wing
1970-01-01 00:00:34.027297096,9411,1536690484488376708,base_link,0,1,40.5931488,-79.8983694,363.612671022,0.547600014114,0.0,0.0,0.0,0.547600014114,0.0,0.0,0.0,2.19040005646,1,268.3232004465231,318.3253446355742,363.59907254421364,17.421396463455896,-0.6380203807581086,0.8246889714720862,0,Fixed-Wing
1970-01-01 00:00:34.410775450,9413,1536690484869836993,base_link,0,1,40.5931468,-79.8982875,363.772755391,0.547600014114,0.0,0.0,0.0,0.547600014114,0.0,0.0,0.0,2.19040005646,1,275.2564784489053,318.103500620605,363.75887299689197,17.33670568885741,-0.554722368702609,0.39958204706034384,0,Fixed-Wing
1970-01-01 00:00:34.811326071,9415,1536690485272317782,base_link,0,1,40.5931454,-79.8982058,363.782839322,0.547600014114,0.0,0.0,0.0,0.547600014114,0.0,0.0,0.0,2.19040005646,1,282.17281701518897,317.94828634651606,363.7686628998737,17.29434852128477,-0.38811427836377405,0.024479714596477197,0,Fixed-Wing
1970-01-01 00:00:35.254719049,9417,1536690485705650908,base_link,0,1,40.5931449,-79.8981243,363.822922691,0.547600014114,0.0,0.0,0.0,0.547600014114,0.0,0.0,0.0,2.19040005646,1,289.0722223257679,317.89302649515264,363.808440518591,17.252006807825868,-0.13817760937443982,0.09946418829143788,0,Fixed-Wing
1970-01-01 00:00:35.659036859,9419,1536690486118530418,base_link,0,1,40.5931459,-79.898043,363.583005252,0.547600014114,0.0,0.0,0.0,0.547600014114,0.0,0.0,0.0,2.19040005646,1,295.95467719302866,318.00433696543723,363.56820234086337,17.209622116630555,0.27833253805043784,-0.6007170895297128,0,Fixed-Wing
1970-01-01 00:00:35.986205447,9421,1536690486447326595,base_link,0,1,40.5931478,-79.8979611,363.383088067,0.547600014114,0.0,0.0,0.0,0.547600014114,0.0,0.0,0.0,2.19040005646,1,302.88792230609147,318.21560499824295,363.36794959329757,17.336623448905428,0.5282770581185677,-0.5007332674011449,0,Fixed-Wing
1970-01-01 00:00:36.451682381,9423,1536690486912773577,base_link,0,1,40.5931506,-79.8978792,363.313170524,0.547600014114,0.0,0.0,0.0,0.547600014114,0.0,0.0,0.0,2.19040005646,1,309.8211687435812,318.5268331272463,363.297683949025,17.336626760643387,0.7782279136608292,-0.17569968986865112,0,Fixed-Wing
1970-01-01 00:00:36.822237115,9425,1536690487282871048,base_link,0,1,40.5931538,-79.8977969,362.933253236,0.547600014114,0.0,0.0,0.0,0.547600014114,0.0,0.0,0.0,2.19040005646,1,316.78825927406564,318.88247455677225,362.9174071183175,17.421254130172425,0.8892836537548209,-0.9508846309064762,0,Fixed-Wing
1970-01-01 00:00:37.178556917,9427,1536690487639566516,base_link,0,1,40.5931564,-79.8977137,362.553337125,0.547600014114,0.0,0.0,0.0,0.547600014114,0.0,0.0,0.0,2.19040005646,1,323.83154088620466,319.17149433669925,362.53712332223785,17.61177041385637,0.7226957957161392,-0.9509020478638233,0,Fixed-Wing
1970-01-01 00:00:37.605245167,9429,1536690488065730785,base_link,0,1,40.5931581,-79.8976298,362.413422109,0.547600014114,0.0,0.0,0.0,0.547600014114,0.0,0.0,0.0,2.19040005646,1,330.9340966203822,319.3605882775163,362.3968347882728,17.759985732554696,0.4728306002391262,-0.35079237036754873,0,Fixed-Wing
1970-01-01 00:00:37.994846559,9431,1536690488455395375,base_link,0,1,40.5931586,-79.8975456,362.303507904,0.547600014114,0.0,0.0,0.0,0.547600014114,0.0,0.0,0.0,2.19040005646,1,338.0620558715306,319.4164287843153,362.2865445101096,17.82350738811712,0.13962954197982416,-0.2757815411701714,0,Fixed-Wing
1970-01-01 00:00:38.429943779,9433,1536690488891044095,base_link,0,1,40.5931587,-79.897461,362.123594283,0.547600014114,0.0,0.0,0.0,0.547600014114,0.0,0.0,0.0,2.19040005646,1,345.22387512204506,319.42785320931364,362.10624726038066,17.908174531628756,0.02856684728238571,-0.45083441829204773,0,Fixed-Wing
1970-01-01 00:00:38.790662140,9435,1536690489251826389,base_link,0,1,40.5931578,-79.897376,362.113681495,0.547600014114,0.0,0.0,0.0,0.547600014114,0.0,0.0,0.0,2.19040005646,1,352.4195706530874,319.32824227690924,362.09594651792867,17.992882386289125,-0.24907776925928193,-0.025757071937039133,0,Fixed-Wing
1970-01-01 00:00:39.195619030,9437,1536690489656787088,base_link,0,1,40.5931565,-79.897291,362.163768883,0.547600014114,0.0,0.0,0.0,0.547600014114,0.0,0.0,0.0,2.19040005646,1,359.61527187499627,319.1842203540595,362.1456400719424,17.992896616336928,-0.36012773299025863,0.12425904749147419,0,Fixed-Wing
1970-01-01 00:00:39.584518048,9439,1536690490045009907,base_link,0,1,40.5931552,-79.8972059,362.133856386,0.547600014114,0.0,0.0,0.0,0.547600014114,0.0,0.0,0.0,2.19040005646,1,366.8194344118504,319.04020177663364,362.11532514612327,18.014054188108446,-0.3601193677366366,-0.07580266458743165,0,Fixed-Wing
1970-01-01 00:00:39.984571024,9441,1536690490445801959,base_link,0,1,40.5931536,-79.8971213,362.093943514,0.547600014114,0.0,0.0,0.0,0.547600014114,0.0,0.0,0.0,2.19040005646,1,373.98127064731324,318.8628718283096,362.075005863274,17.908217002600097,-0.44341466227918497,-0.10081862289434107,0,Fixed-Wing
1970-01-01 00:00:40.439384190,9443,1536690490897046552,base_link,0,1,40.5931518,-79.8970369,362.154030533,0.547600014114,0.0,0.0,0.0,0.547600014114,0.0,0.0,0.0,2.19040005646,1,381.1261831956427,318.66334243031594,362.13468055978365,17.86589921541473,-0.49892452720093783,0.14921695770808577,0,Fixed-Wing
1970-01-01 00:00:40.783735089,9445,1536690491244763791,base_link,0,1,40.59315,-79.8969528,362.124117256,0.547600014114,0.0,0.0,0.0,0.547600014114,0.0,0.0,0.0,2.19040005646,1,388.2456942304596,318.4638140492111,362.10434850453134,17.802382569512634,-0.4989219844638852,-0.07584549684386556,0,Fixed-Wing
1970-01-01 00:00:41.205683321,9447,1536690491666832211,base_link,0,1,40.593148,-79.8968692,362.194203564,0.547600014114,0.0,0.0,0.0,0.547600014114,0.0,0.0,0.0,2.19040005646,1,395.3228853425663,318.2420847521298,362.17401182294367,17.69656133393681,-0.554435515895245,0.1741935702287821,0,Fixed-Wing
1970-01-01 00:00:41.630067720,9449,1536690492085254462,base_link,0,1,40.593146,-79.8967856,362.174289883,0.547600014114,0.0,0.0,0.0,0.547600014114,0.0,0.0,0.0,2.19040005646,1,402.4000713612544,318.02035767048045,362.15366730493815,17.69654859781133,-0.5544299761935851,-0.05087159651208247,0,Fixed-Wing
1970-01-01 00:00:42.009090078,9451,1536690492470298838,base_link,0,1,40.5931434,-79.8967022,362.104376258,0.547600014114,0.0,0.0,0.0,0.547600014114,0.0,0.0,0.0,2.19040005646,1,409.4603271694344,317.73200245912994,362.08331940489995,17.654214498885995,-0.7210340377689135,-0.1759053709331148,0,Fixed-Wing
1970-01-01 00:00:42.414463082,9453,1536690492875632515,base_link,0,1,40.5931395,-79.8966194,362.124462566,0.547600014114,0.0,0.0,0.0,0.547600014114,0.0,0.0,0.0,2.19040005646,1,416.4698041741143,317.2992875098516,362.10297413314555,17.527241778159883,-1.0820064795080084,0.04914677283549446,0,Fixed-Wing
1970-01-01 00:00:42.795372666,9455,1536690493256560723,base_link,0,1,40.5931336,-79.8965372,362.184549096,0.547600014114,0.0,0.0,0.0,0.547600014114,0.0,0.0,0.0,2.19040005646,1,423.4285041732146,316.6444735085465,362.16263578411497,17.400273553145272,-1.6373665699930626,0.14918433725183655,0,Fixed-Wing
1970-01-01 00:00:43.229880852,9457,1536690493690947505,base_link,0,1,40.5931244,-79.8964558,362.224636181,0.547600014114,0.0,0.0,0.0,0.547600014114,0.0,0.0,0.0,2.19040005646,1,430.3195011459468,315.62318825678443,362.2023130931462,17.230981705625844,-2.553730259782842,0.09921336328411369,0,Fixed-Wing
1970-01-01 00:00:43.615922247,9459,1536690494076711951,base_link,0,1,40.5931108,-79.8963753,362.134724172,0.547600014114,0.0,0.0,0.0,0.547600014114,0.0,0.0,0.0,2.19040005646,1,437.13433012729797,314.11326803200075,362.11201306249717,17.04052315931772,-3.775565113894774,-0.22579580027210128,0,Fixed-Wing
1970-01-01 00:00:43.992300607,9461,1536690494451104815,base_link,0,1,40.5930918,-79.8962959,361.894813279,0.547600014114,0.0,0.0,0.0,0.547600014114,0.0,0.0,0.0,2.19040005646,1,443.8560661660208,312.0036583877769,361.87174242285437,16.807743664899238,-5.275092316753737,-0.6007982607548068,0,Fixed-Wing
1970-01-01 00:00:44.413630046,9463,1536690494874010421,base_link,0,1,40.5930663,-79.896218,361.514903549,0.547600014114,0.0,0.0,0.0,0.547600014114,0.0,0.0,0.0,2.19040005646,1,450.4508563084344,309.17220013607596,361.491509243626,16.4903146447496,-7.080079345319805,-0.9507754801056096,0,Fixed-Wing
1970-01-01 00:00:44.870723896,9465,1536690495331443618,base_link,0,1,40.593033,-79.8961424,360.954994702,0.547600014114,0.0,0.0,0.0,0.547600014114,0.0,0.0,0.0,2.19040005646,1,456.85098363639634,305.4745191420353,360.93132444753394,16.0035590406105,-9.246074815251683,-1.4007456412225314,0,Fixed-Wing
1970-01-01 00:00:45.215537466,9467,1536690495676472572,base_link,0,1,40.5929908,-79.8960711,360.30508515,0.547600014114,0.0,0.0,0.0,0.547600014114,0.0,0.0,0.0,2.19040005646,1,462.8871529531774,300.7884516314625,360.28120357063983,15.093479721596298,-11.717541578601661,-1.6256313825902418,0,Fixed-Wing
1970-01-01 00:00:45.644643867,9469,1536690496105829332,base_link,0,1,40.5929388,-79.8960075,359.765171789,0.547600014114,0.0,0.0,0.0,0.547600014114,0.0,0.0,0.0,2.19040005646,1,468.27155829177667,295.0140413377056,359.7411680980431,13.463739753798306,-14.438949621690751,-1.3503621298231436,0,Fixed-Wing
1970-01-01 00:00:46.002839088,9471,1536690496463665078,base_link,0,1,40.5928773,-79.8959542,359.485251836,0.547600014114,0.0,0.0,0.0,0.547600014114,0.0,0.0,0.0,2.19040005646,1,472.7841055988683,288.18459538389385,359.46122871946693,11.28365320750354,-17.077072991810162,-0.6999901944547757,0,Fixed-Wing
1970-01-01 00:00:46.376977530,9473,1536690496838101045,base_link,0,1,40.5928081,-79.8959135,359.425322194,0.547600014114,0.0,0.0,0.0,0.547600014114,0.0,0.0,0.0,2.19040005646,1,476.23007142658565,280.4999914951137,359.4013864999428,8.616659442830604,-19.21540084062059,-0.14963585006992458,0,Fixed-Wing
1970-01-01 00:00:46.820126198,9475,1536690497281066648,base_link,0,1,40.5927332,-79.8958881,359.70537927,0.547600014114,0.0,0.0,0.0,0.547600014114,0.0,0.0,0.0,2.19040005646,1,478.3808783968156,272.18232254659665,359.6816441010015,5.378106492139535,-20.798384044061553,0.7007859117938358,0,Fixed-Wing
1970-01-01 00:00:47.191565635,9477,1536690497652106356,base_link,0,1,40.5926554,-79.8958794,360.235420469,0.547600014114,0.0,0.0,0.0,0.547600014114,0.0,0.0,0.0,2.19040005646,1,479.1179780259203,263.54252120922564,360.2119937732528,1.8431223050285306,-21.603878128748597,1.3261427245299786,0,Fixed-Wing
1970-01-01 00:00:47.600820928,9479,1536690498062003544,base_link,0,1,40.5925773,-79.8958852,361.115446963,0.547600014114,0.0,0.0,0.0,0.547600014114,0.0,0.0,0.0,2.19040005646,1,478.62759719599677,254.86933802889882,361.09241036016226,-1.226200380385873,-21.68734963911896,2.2014872684455145,0,Fixed-Wing
1970-01-01 00:00:47.979066866,9481,1536690498440114704,base_link,0,1,40.5925009,-79.8959,362.075463554,0.547600014114,0.0,0.0,0.0,0.547600014114,0.0,0.0,0.0,2.19040005646,1,477.37530477586836,246.38489587371828,362.0528548623181,-3.131365151764264,-21.21540150675648,2.401597578899321,0,Fixed-Wing
1970-01-01 00:00:48.404235716,9483,1536690498865511834,base_link,0,1,40.5924268,-79.8959201,363.245473781,0.547600014114,0.0,0.0,0.0,0.547600014114,0.0,0.0,0.0,2.19040005646,1,475.67433097576674,238.15585115838817,363.2233053168506,-4.253295792652066,-20.576778585988922,2.9267187968876183,0,Fixed-Wing
1970-01-01 00:00:48.817105211,9485,1536690499277819397,base_link,0,1,40.5923545,-79.8959417,364.525481747,0.547600014114,0.0,0.0,0.0,0.547600014114,0.0,0.0,0.0,2.19040005646,1,473.84636389042333,230.1266941321327,364.5037446125003,-4.570843309128605,-20.07695814966396,3.2017465928093642,0,Fixed-Wing
1970-01-01 00:00:49.209394473,9487,1536690499670221966,base_link,0,1,40.5922844,-79.8959613,365.545490868,0.547600014114,0.0,0.0,0.0,0.547600014114,0.0,0.0,0.0,2.19040005646,1,472.1876701295053,222.34185138302038,365.52415336301726,-4.147574286087999,-19.46604874765222,2.551538562851316,0,Fixed-Wing
1970-01-01 00:00:49.616513011,9489,1536690500077590064,base_link,0,1,40.5922155,-79.8959779,366.355502587,0.547600014114,0.0,0.0,0.0,0.547600014114,0.0,0.0,0.0,2.19040005646,1,470.78291780446233,214.6902784712728,366.3345315470468,-3.512592112510227,-19.132806672720207,2.0263557971228163,0,Fixed-Wing
1970-01-01 00:00:49.993978403,9491,1536690500453875723,base_link,0,1,40.592148,-79.895991,366.795517331,0.547600014114,0.0,0.0,0.0,0.547600014114,0.0,0.0,0.0,2.19040005646,1,469.6744231120603,207.19418399411245,366.7748764088068,-2.7717980201041175,-18.74403185935237,1.1010851241375574,0,Fixed-Wing
1970-01-01 00:00:50.427114927,9493,1536690500887862616,base_link,0,1,40.5920814,-79.896001,366.705534898,0.547600014114,0.0,0.0,0.0,0.547600014114,0.0,0.0,0.0,2.19040005646,1,468.8283163700708,199.7980357899097,366.68519267515387,-2.115695283268616,-18.494115568909567,-0.22425474571830498,0,Fixed-Wing
1970-01-01 00:00:50.826242049,9495,1536690501287146660,base_link,0,1,40.5920157,-79.8960077,366.295555494,0.547600014114,0.0,0.0,0.0,0.547600014114,0.0,0.0,0.0,2.19040005646,1,468.2615453254997,192.50184302086456,366.2754797671335,-1.4172145973837509,-18.24417636832746,-1.0244897292210853,0,Fixed-Wing
1970-01-01 00:00:51.223444665,9497,1536690501684208673,base_link,0,1,40.5919505,-79.8960113,365.76557908,0.547600014114,0.0,0.0,0.0,0.547600014114,0.0,0.0,0.0,2.19040005646,1,467.95719694266376,185.26119050363354,365.7457405959,-0.7610250646654445,-18.105297615844737,-1.3246161628568027,0,Fixed-Wing
1970-01-01 00:00:51.602337044,9499,1536690502063504013,base_link,0,1,40.5918858,-79.8960126,364.915604836,0.547600014114,0.0,0.0,0.0,0.547600014114,0.0,0.0,0.0,2.19040005646,1,467.84753182499225,178.0760687461276,364.8959795290653,-0.2742183233892646,-17.96644259839106,-2.1248329457582003,0,Fixed-Wing
1970-01-01 00:00:51.985892451,9501,1536690502446712649,base_link,0,1,40.5918219,-79.8960127,363.805631509,0.547600014114,0.0,0.0,0.0,0.547600014114,0.0,0.0,0.0,2.19040005646,1,467.8394301931833,170.97979028379052,363.7862014379361,-0.020258181804132507,-17.744289374440992,-2.7750071667743086,0,Fixed-Wing
1970-01-01 00:00:52.434860584,9503,1536690502896054176,base_link,0,1,40.5917582,-79.8960116,362.635659348,0.547600014114,0.0,0.0,0.0,0.547600014114,0.0,0.0,0.0,2.19040005646,1,467.9329111164452,163.90572967789308,362.6164085844267,0.23374964245733051,-17.68873348327397,-2.925074461351833,0,Fixed-Wing
1970-01-01 00:00:52.798789194,9505,1536690503259973635,base_link,0,1,40.5916948,-79.8960094,361.625688211,0.547600014114,0.0,0.0,0.0,0.547600014114,0.0,0.0,0.0,2.19040005646,1,468.1195245474445,156.864997243885,361.6066012442402,0.4666280696822933,-17.605396177746186,-2.5250296689742475,0,Fixed-Wing
1970-01-01 00:00:53.196068159,9507,1536690503656944035,base_link,0,1,40.5916318,-79.8960068,361.095717336,0.547600014114,0.0,0.0,0.0,0.547600014114,0.0,0.0,0.0,2.19040005646,1,468.3400335147252,149.86870148596245,361.076782839297,0.5513840734766127,-17.49428198690873,-1.3248142872512383,0,Fixed-Wing
1970-01-01 00:00:53.623146507,9509,1536690504083759417,base_link,0,1,40.5915699,-79.8960045,360.905745712,0.547600014114,0.0,0.0,0.0,0.547600014114,0.0,0.0,0.0,2.19040005646,1,468.53516296490034,142.99457056823985,360.88695510414806,0.4879224297299179,-17.188808027932144,-0.4746654576274799,0,Fixed-Wing
1970-01-01 00:00:54.010251031,9511,1536690504470813991,base_link,0,1,40.5915096,-79.8960025,360.765773125,0.547600014114,0.0,0.0,0.0,0.547600014114,0.0,0.0,0.0,2.19040005646,1,468.70488808438404,136.29812331875047,360.7471170320197,0.4243987394539915,-16.744508886773023,-0.3496659876834666,0,Fixed-Wing
1970-01-01 00:00:54.379763724,9513,1536690504840762411,base_link,0,1,40.5914509,-79.8960005,360.525799884,0.547600014114,0.0,0.0,0.0,0.547600014114,0.0,0.0,0.0,2.19040005646,1,468.8745949829043,129.77935809930523,360.5072676348934,0.4243531778191242,-16.300213841916094,-0.5997449411662102,0,Fixed-Wing
1970-01-01 00:00:54.771305204,9515,1536690505232344850,base_link,0,1,40.591394,-79.8959995,360.175824876,0.547600014114,0.0,0.0,0.0,0.547600014114,0.0,0.0,0.0,2.19040005646,1,468.9596241182668,123.46048013347142,360.1574121280868,0.21261589312461746,-15.800394494469645,-0.8748159172398611,0,Fixed-Wing
1970-01-01 00:00:55.195433805,9517,1536690505656414413,base_link,0,1,40.5913385,-79.8960006,359.995847139,0.547600014114,0.0,0.0,0.0,0.547600014114,0.0,0.0,0.0,2.19040005646,1,468.8668754240159,117.29706809213789,359.97755780574647,-0.2319186991637611,-15.411650962653761,-0.44972687554305846,0,Fixed-Wing
1970-01-01 00:00:55.609951495,9519,1536690506071136064,base_link,0,1,40.5912848,-79.8960042,359.745866092,0.547600014114,0.0,0.0,0.0,0.547600014114,0.0,0.0,0.0,2.19040005646,1,468.562465062508,111.33353606331664,359.72770623715235,-0.7611800427284156,-14.91184972162175,-0.624755434460789,0,Fixed-Wing
1970-01-01 00:00:56.002744802,9521,1536690506463550856,base_link,0,1,40.5912326,-79.8960107,359.275881449,0.547600014114,0.0,0.0,0.0,0.547600014114,0.0,0.0,0.0,2.19040005646,1,468.0125206519279,105.53656393875531,359.25786070188474,-1.3751394921974458,-14.495365622941984,-1.1748517456475165,0,Fixed-Wing
1970-01-01 00:00:56.394429381,9523,1536690506855356295,base_link,0,1,40.591182,-79.8960207,358.545892552,0.547600014114,0.0,0.0,0.0,0.547600014114,0.0,0.0,0.0,2.19040005646,1,467.1662435664312,99.91725375044851,358.52802447529194,-2.116121228290466,-14.051120822733598,-1.8249601209064708,0,Fixed-Wing
1970-01-01 00:00:56.790320110,9525,1536690507251191154,base_link,0,1,40.5911326,-79.8960363,357.895897412,0.547600014114,0.0,0.0,0.0,0.547600014114,0.0,0.0,0.0,2.19040005646,1,465.84587982713083,94.43117925313959,357.8782095489265,-3.30157791777929,-13.717964131008827,-1.624866351349705,0,Fixed-Wing
1970-01-01 00:00:57.207419273,9527,1536690507668308109,base_link,0,1,40.5910853,-79.8960582,357.375894929,0.547600014114,0.0,0.0,0.0,0.547600014114,0.0,0.0,0.0,2.19040005646,1,463.99216554894934,89.17828448422401,357.358417778756,-4.635224328380209,-13.134896738878576,-1.299742623307504,0,Fixed-Wing
1970-01-01 00:00:57.589141372,9529,1536690508049812935,base_link,0,1,40.5910412,-79.8960863,356.885884737,0.547600014114,0.0,0.0,0.0,0.547600014114,0.0,0.0,0.0,2.19040005646,1,461.6135507805336,84.28072612381257,356.86864668078726,-5.947741338660403,-12.246375792126498,-1.2246757417595606,0,Fixed-Wing
1970-01-01 00:00:57.998298171,9531,1536690508459119010,base_link,0,1,40.5910014,-79.8961209,356.385866064,0.547600014114,0.0,0.0,0.0,0.547600014114,0.0,0.0,0.0,2.19040005646,1,458.68462717460454,79.86065990394309,356.3688960143473,-7.323792082719429,-11.052403661415143,-1.249629716117462,0,Fixed-Wing
1970-01-01 00:00:58.405512835,9533,1536690508866186062,base_link,0,1,40.5909658,-79.8961603,355.805840692,0.547600014114,0.0,0.0,0.0,0.547600014114,0.0,0.0,0.0,2.19040005646,1,455.3493085348873,75.90698910238484,355.7891576710122,-8.339985446345958,-9.88617895513403,-1.4496394103182544,0,Fixed-Wing
1970-01-01 00:00:58.804607381,9535,1536690509265631092,base_link,0,1,40.5909342,-79.896203,355.145810246,0.547600014114,0.0,0.0,0.0,0.547600014114,0.0,0.0,0.0,2.19040005646,1,451.7345832807247,72.3975115318579,355.1294247827985,-9.038643460707382,-8.775470959186585,-1.6496662779556335,0,Fixed-Wing
1970-01-01 00:00:59.197315731,9537,1536690509658527915,base_link,0,1,40.5909063,-79.8962478,354.245776083,0.547600014114,0.0,0.0,0.0,0.547600014114,0.0,0.0,0.0,2.19040005646,1,447.942032184114,69.29891628578625,354.22969220885113,-9.483298109393852,-7.748057096741223,-2.249787016739256,0,Fixed-Wing
1970-01-01 00:00:59.626067873,9539,1536690510087296216,base_link,0,1,40.5908817,-79.8962947,353.025738371,0.547600014114,0.0,0.0,0.0,0.547600014114,0.0,0.0,0.0,2.19040005646,1,443.9716532360659,66.56678210221102,353.009960860844,-9.927957781571036,-6.831718882011673,-3.0499459840796366,0,Fixed-Wing
1970-01-01 00:01:00.006565985,9541,1536690510467754169,base_link,0,1,40.5908601,-79.8963437,351.575697237,0.547600014114,0.0,0.0,0.0,0.547600014114,0.0,0.0,0.0,2.19040005646,1,439.82345569010425,64.16779472756465,351.56023134454773,-10.372594315252929,-5.998683169957834,-3.6250578649583005,0,Fixed-Wing
1970-01-01 00:01:00.383834167,9543,1536690510845024080,base_link,0,1,40.5908408,-79.8963947,349.985653081,0.547600014114,0.0,0.0,0.0,0.547600014114,0.0,0.0,0.0,2.19040005646,1,435.5059169723006,62.024219376730684,349.9705042725898,-10.796032991189822,-5.36002378190076,-3.975122642229932,0,Fixed-Wing
1970-01-01 00:01:00.777293594,9545,1536690511237986788,base_link,0,1,40.5908233,-79.896448,348.295605807,0.547600014114,0.0,0.0,0.0,0.547600014114,0.0,0.0,0.0,2.19040005646,1,430.99364631370594,60.08052915963165,348.28078170017534,-11.282961446179533,-4.860209735218962,-4.225162026346433,0,Fixed-Wing
1970-01-01 00:01:01.204583197,9547,1536690511664561603,base_link,0,1,40.5908076,-79.8965034,346.615555619,0.547600014114,0.0,0.0,0.0,0.547600014114,0.0,0.0,0.0,2.19040005646,1,426.3035832234198,58.336726335806304,346.60106247024845,-11.72753255105688,-4.360390038546176,-4.200148604909716,0,Fixed-Wing
1970-01-01 00:01:01.585081469,9549,1536690512046217208,base_link,0,1,40.5907936,-79.8965613,344.965502151,0.547600014114,0.0,0.0,0.0,0.547600014114,0.0,0.0,0.0,2.19040005646,1,421.40186683908195,56.781704136553344,344.9513483251467,-12.25677295736855,-3.888342887567132,-4.125120699696109,0,Fixed-Wing
1970-01-01 00:01:01.987571890,9551,1536690512447850669,base_link,0,1,40.5907824,-79.8966203,343.465446373,0.547600014114,0.0,0.0,0.0,0.547600014114,0.0,0.0,0.0,2.19040005646,1,416.40701961540384,55.53762767242824,343.45163109478517,-12.48964721275585,-3.110821101585823,-3.750052461527238,0,Fixed-Wing
