time,field.header.seq,field.header.stamp,field.header.frame_id,field.status.status,field.status.service,lat,lon,alt,field.position_covariance0,field.position_covariance1,field.position_covariance2,field.position_covariance3,field.position_covariance4,field.position_covariance5,field.position_covariance6,field.position_covariance7,field.position_covariance8,field.position_covariance_type,x,y,z,vel_x,vel_y,vel_z,track_id,uav_category
1970-01-01 00:00:00.000000000,1336,1539875278981579560,base_link,0,1,40.5913044,-79.8966865,393.495158034,0.50409996953,0.0,0.0,0.0,0.50409996953,0.0,0.0,0.0,2.01639987812,1,387.7333965348671,112.72875080940543,393.48239153047246,-16.256564370073306,3.608888672908636,1.6759256309143595,0,Fixed-Wing
1970-01-01 00:00:00.357543744,1338,1539875279339916456,base_link,0,1,40.5913174,-79.8967633,394.165073843,0.50409996953,0.0,0.0,0.0,0.50409996953,0.0,0.0,0.0,2.01639987812,1,381.2316323847494,114.17211500746922,394.15267295877976,-16.256564370073306,3.608888672908636,1.6759256309143595,0,Fixed-Wing
1970-01-01 00:00:00.787210400,1340,1539875279769316648,base_link,0,1,40.5913347,-79.8968378,394.504990214,0.50409996953,0.0,0.0,0.0,0.50409996953,0.0,0.0,0.0,2.01639987812,1,374.924539246362,116.09301645735721,394.4929278851105,-15.769822347429573,4.802890007645994,0.8507500402071152,0,Fixed-Wing
1970-01-01 00:00:01.168484288,1342,1539875280151157704,base_link,0,1,40.5913586,-79.8969091,394.594907102,0.50409996953,0.0,0.0,0.0,0.50409996953,0.0,0.0,0.0,2.01639987812,1,368.8883032733359,118.74688138696766,394.58314725074706,-15.09258970070051,6.635541533279284,0.2255783032166394,0,Fixed-Wing
1970-01-01 00:00:01.544542528,1344,1539875280527204296,base_link,0,1,40.5913864,-79.8969767,394.014826158,0.50409996953,0.0,0.0,0.0,0.50409996953,0.0,0.0,0.0,2.01639987812,1,363.165246335111,121.83386004982339,394.00333589320917,-14.309538359394836,7.718469354328768,-1.4497204818085698,0,Fixed-Wing
1970-01-01 00:00:01.980751552,1346,1539875280963471720,base_link,0,1,40.5914154,-79.8970412,392.5047479,0.50409996953,0.0,0.0,0.0,0.50409996953,0.0,0.0,0.0,2.01639987812,1,357.70457590199265,125.0541003315777,392.49350328861397,-13.653485169580886,8.051667550336205,-3.7750817098145593,0,Fixed-Wing
1970-01-01 00:00:02.383871968,1348,1539875281360343752,base_link,0,1,40.5914469,-79.8971026,390.364671784,0.50409996953,0.0,0.0,0.0,0.50409996953,0.0,0.0,0.0,2.01639987812,1,352.50630385935335,128.5519748836341,390.35364645061975,-12.997402262398026,8.745845204630617,-5.350351016495226,0,Fixed-Wing
1970-01-01 00:00:02.744044032,1350,1539875281726571400,base_link,0,1,40.5914821,-79.8971613,387.834596896,0.50409996953,0.0,0.0,0.0,0.50409996953,0.0,0.0,0.0,2.01639987812,1,347.5365754775065,132.460748605633,387.8237637110519,-12.425967395296965,9.773229257873913,-6.325544983629892,0,Fixed-Wing
1970-01-01 00:00:03.190847776,1352,1539875282173605992,base_link,0,1,40.5915217,-79.8972182,385.174522023,0.50409996953,0.0,0.0,0.0,0.50409996953,0.0,0.0,0.0,2.01639987812,1,342.71921042893223,136.8581588435552,385.1638560568422,-12.045008585073242,10.994982429977476,-6.650650346695303,0,Fixed-Wing
1970-01-01 00:00:03.541410976,1354,1539875282523410056,base_link,0,1,40.5915645,-79.8972744,382.414446544,0.50409996953,0.0,0.0,0.0,0.50409996953,0.0,0.0,0.0,2.01639987812,1,337.9610939085921,141.61093764011414,382.4039300910673,-11.896867635812091,11.883521558003793,-6.900729261064264,0,Fixed-Wing
1970-01-01 00:00:03.958679392,1356,1539875282939182888,base_link,0,1,40.5916098,-79.8973304,379.534370244,0.50409996953,0.0,0.0,0.0,0.50409996953,0.0,0.0,0.0,2.01639987812,1,333.2199003732947,146.64134499872392,379.52398893506745,-11.854554566723552,12.577684939778967,-7.20080699692674,0,Fixed-Wing
1970-01-01 00:00:04.325359680,1358,1539875283308091016,base_link,0,1,40.5916554,-79.8973877,376.504292508,0.50409996953,0.0,0.0,0.0,0.50409996953,0.0,0.0,0.0,2.01639987812,1,328.36865386641614,151.70505821162638,376.49404371033165,-12.129723455554279,12.660960609536906,-7.575866864199001,0,Fixed-Wing
1970-01-01 00:00:04.764498880,1360,1539875283747058984,base_link,0,1,40.5917019,-79.8974463,373.444213089,0.50409996953,0.0,0.0,0.0,0.50409996953,0.0,0.0,0.0,2.01639987812,1,323.40735836117034,156.86871157088478,373.4340921988007,-12.404882410033832,12.910844084987271,-7.650892522086491,0,Fixed-Wing
1970-01-01 00:00:05.148251488,1362,1539875284128893672,base_link,0,1,40.5917492,-79.8975048,370.15413346,0.50409996953,0.0,0.0,0.0,0.50409996953,0.0,0.0,0.0,2.01639987812,1,318.45452492905883,162.12119980193313,370.1441297482826,-12.383724423764908,13.132960694912942,-8.225996070774745,0,Fixed-Wing
1970-01-01 00:00:05.587799744,1364,1539875284570574312,base_link,0,1,40.5917968,-79.8975643,366.934052706,0.50409996953,0.0,0.0,0.0,0.50409996953,0.0,0.0,0.0,2.01639987812,1,313.41704863670776,167.40699994360563,366.9241612729611,-12.595359616026807,13.216251507505985,-8.050987944206307,0,Fixed-Wing
1970-01-01 00:00:05.965656352,1366,1539875284948240072,base_link,0,1,40.5918442,-79.897626,364.00396981,0.50409996953,0.0,0.0,0.0,0.50409996953,0.0,0.0,0.0,2.01639987812,1,308.1933543600693,172.67058787534108,363.99419188366767,-13.060966269626897,13.16071362389381,-7.325894154209015,0,Fixed-Wing
1970-01-01 00:00:06.395862656,1368,1539875285378248488,base_link,0,1,40.5918917,-79.8976903,361.713884237,0.50409996953,0.0,0.0,0.0,0.50409996953,0.0,0.0,0.0,2.01639987812,1,302.74959451688846,177.9452888522354,361.7042213170032,-13.611203092361809,13.18849991847497,-5.725685069932928,0,Fixed-Wing
1970-01-01 00:00:06.781799008,1370,1539875285764304456,base_link,0,1,40.5919385,-79.8977555,359.683798061,0.50409996953,0.0,0.0,0.0,0.50409996953,0.0,0.0,0.0,2.01639987812,1,297.22967045140877,183.1422578835672,359.6742469169262,-13.801638880850962,12.994144302449584,-5.075608518321129,0,Fixed-Wing
1970-01-01 00:00:07.228611808,1372,1539875286211070280,base_link,0,1,40.5919849,-79.8978204,357.883712384,0.50409996953,0.0,0.0,0.0,0.50409996953,0.0,0.0,0.0,2.01639987812,1,291.73516681909194,188.29481462126387,357.87426415398767,-13.738079376309413,12.883098854839943,-4.500553230649449,0,Fixed-Wing
1970-01-01 00:00:07.561634912,1374,1539875286544003944,base_link,0,1,40.5920297,-79.8978875,356.733625148,0.50409996953,0.0,0.0,0.0,0.50409996953,0.0,0.0,0.0,2.01639987812,1,286.0544654299314,193.2697015352142,356.72428467594733,-14.203635454599135,12.438865434545933,-2.875329676282948,0,Fixed-Wing
1970-01-01 00:00:07.957771488,1376,1539875286939953512,base_link,0,1,40.5920733,-79.8979562,355.993536801,0.50409996953,0.0,0.0,0.0,0.50409996953,0.0,0.0,0.0,2.01639987812,1,280.2383463081617,198.11133600593496,355.9843052369965,-14.542224649190274,12.105690180750821,-1.8501937480487523,0,Fixed-Wing
1970-01-01 00:00:08.399277280,1378,1539875287381957928,base_link,0,1,40.5921171,-79.8980241,355.653449212,0.50409996953,0.0,0.0,0.0,0.50409996953,0.0,0.0,0.0,2.01639987812,1,274.48997759196254,202.97519962525985,355.64431395857315,-14.372826189968016,12.161270416642427,-0.8500908330937013,0,Fixed-Wing
1970-01-01 00:00:08.780319424,1380,1539875287762582696,base_link,0,1,40.5921614,-79.8980894,356.373364096,0.50409996953,0.0,0.0,0.0,0.50409996953,0.0,0.0,0.0,2.01639987812,1,268.96176615590474,207.89463588213215,356.36430518021706,-13.822360052851508,12.300220421386589,1.800216582806994,0,Fixed-Wing
1970-01-01 00:00:09.160642880,1382,1539875288143260936,base_link,0,1,40.5922052,-79.8981528,358.053281153,0.50409996953,0.0,0.0,0.0,0.50409996953,0.0,0.0,0.0,2.01639987812,1,263.5944493728758,212.7585890417095,358.0442852069258,-13.420070116862906,12.161494296937752,4.200506633900826,0,Fixed-Wing
1970-01-01 00:00:09.567288672,1384,1539875288546526760,base_link,0,1,40.5922487,-79.8982128,359.913201829,0.50409996953,0.0,0.0,0.0,0.50409996953,0.0,0.0,0.0,2.01639987812,1,258.51497665857187,217.58924910981807,359.90425011978925,-12.700364584067149,12.07825053846774,4.650528477181879,0,Fixed-Wing
1970-01-01 00:00:09.962825792,1386,1539875288945170824,base_link,0,1,40.5922921,-79.8982687,361.833126756,0.50409996953,0.0,0.0,0.0,0.50409996953,0.0,0.0,0.0,2.01639987812,1,253.78260108173797,222.40882416853827,361.82419818339076,-11.83250674922903,12.050534342600905,4.8005062260787295,0,Fixed-Wing
1970-01-01 00:00:10.375562272,1388,1539875289357822760,base_link,0,1,40.5923347,-79.8983224,363.21305428,0.50409996953,0.0,0.0,0.0,0.50409996953,0.0,0.0,0.0,2.01639987812,1,249.2364544330981,227.13955021596598,363.20413759469466,-11.366872732236713,11.82838237923452,3.4503056937641596,0,Fixed-Wing
1970-01-01 00:00:10.764200928,1390,1539875289746642504,base_link,0,1,40.5923764,-79.8983745,364.05298383,0.50409996953,0.0,0.0,0.0,0.50409996953,0.0,0.0,0.0,2.01639987812,1,244.82574411256823,231.77031873926694,364.04407073006803,-11.028237042732808,11.578455453599997,2.1001111031545965,0,Fixed-Wing
1970-01-01 00:00:11.164624128,1392,1539875290143262984,base_link,0,1,40.5924174,-79.8984256,364.562914708,0.50409996953,0.0,0.0,0.0,0.50409996953,0.0,0.0,0.0,2.01639987812,1,240.49968435831613,236.3233449168228,364.553998480033,-10.816582582822473,11.384073833672621,1.2749883108635864,0,Fixed-Wing
1970-01-01 00:00:11.561776416,1394,1539875290543674888,base_link,0,1,40.5924573,-79.8984771,364.93284565,0.50409996953,0.0,0.0,0.0,0.50409996953,0.0,0.0,0.0,2.01639987812,1,236.13976544547958,240.75421034758438,364.92392598235494,-10.901241696616172,11.078631495577092,0.9249413105285377,0,Fixed-Wing
1970-01-01 00:00:11.959695584,1396,1539875290941982824,base_link,0,1,40.5924972,-79.8985284,364.862776813,0.50409996953,0.0,0.0,0.0,0.50409996953,0.0,0.0,0.0,2.01639987812,1,231.7967664564516,245.18506244373287,364.85384702695205,-10.85893628162729,11.078598154626736,-0.17522060523742283,0,Fixed-Wing
1970-01-01 00:00:12.402715904,1398,1539875291385361960,base_link,0,1,40.5925386,-79.8985781,364.702709008,0.50409996953,0.0,0.0,0.0,0.50409996953,0.0,0.0,0.0,2.01639987812,1,227.58921405325503,249.7824962152299,364.6937517055203,-10.520274944421532,11.495107530490383,-0.4002913421822247,0,Fixed-Wing
1970-01-01 00:00:12.780128416,1400,1539875291762683496,base_link,0,1,40.5925815,-79.898626,364.322642438,0.50409996953,0.0,0.0,0.0,0.50409996953,0.0,0.0,0.0,2.01639987812,1,223.53403507325882,254.5465065356727,364.31363953160155,-10.139290906035583,11.911604088648728,-0.9504063636400486,0,Fixed-Wing
1970-01-01 00:00:13.144285440,1402,1539875292126578408,base_link,0,1,40.592627,-79.898671,364.112577772,0.50409996953,0.0,0.0,0.0,0.50409996953,0.0,0.0,0.0,2.01639987812,1,219.72436117828832,259.5992689191823,364.103502906407,-9.525446859135089,12.633579908111795,-0.5254111799676869,0,Fixed-Wing
1970-01-01 00:00:13.553871296,1404,1539875292536367208,base_link,0,1,40.5926754,-79.8987123,363.792515706,0.50409996953,0.0,0.0,0.0,0.50409996953,0.0,0.0,0.0,2.01639987812,1,216.2279061997868,264.97408939817984,363.7833385984742,-8.74229580044739,13.438831842713032,-0.800516838313146,0,Fixed-Wing
1970-01-01 00:00:13.960583904,1406,1539875292943150024,base_link,0,1,40.5927283,-79.8987463,363.302459253,0.50409996953,0.0,0.0,0.0,0.50409996953,0.0,0.0,0.0,2.01639987812,1,213.34942367436977,270.8486571901536,363.293131583561,-7.197159937234216,14.688365688388041,-1.2256799398750586,0,Fixed-Wing
1970-01-01 00:00:14.363410272,1408,1539875293346032232,base_link,0,1,40.5927864,-79.8987681,362.812413123,0.50409996953,0.0,0.0,0.0,0.50409996953,0.0,0.0,0.0,2.01639987812,1,211.50372901027168,277.3007268355485,362.80286891644823,-4.614848127622135,16.13231164478029,-1.22581908881113,0,Fixed-Wing
1970-01-01 00:00:14.783688640,1410,1539875293764691272,base_link,0,1,40.5928491,-79.8987744,362.62238093,0.50409996953,0.0,0.0,0.0,0.50409996953,0.0,0.0,0.0,2.01639987812,1,210.97019494331718,284.2636873337528,362.6125471013804,-1.3340119239661803,17.409708031824888,-0.47586759012523794,0,Fixed-Wing
1970-01-01 00:00:15.203938912,1412,1539875294186404616,base_link,0,1,40.5929133,-79.8987648,362.502364355,0.50409996953,0.0,0.0,0.0,0.50409996953,0.0,0.0,0.0,2.01639987812,1,211.7826820688505,291.3932674125572,362.4921811267777,2.0314869858589346,17.826312183375283,-0.3009548130194538,0,Fixed-Wing
1970-01-01 00:00:15.577446528,1414,1539875294560064616,base_link,0,1,40.5929766,-79.8987395,362.212364176,0.50409996953,0.0,0.0,0.0,0.50409996953,0.0,0.0,0.0,2.01639987812,1,213.92425494811593,298.42293030383894,362.2017837677341,5.354641688187248,17.57648611261432,-0.7260896044815821,0,Fixed-Wing
1970-01-01 00:00:15.942074560,1416,1539875294923846280,base_link,0,1,40.593038,-79.8986993,362.132379986,0.50409996953,0.0,0.0,0.0,0.50409996953,0.0,0.0,0.0,2.01639987812,1,217.32720145237272,305.24164049075966,362.1213612461331,8.50849363604875,17.049034464368344,-0.2010829474930632,0,Fixed-Wing
1970-01-01 00:00:16.385767776,1418,1539875295366485192,base_link,0,1,40.5930957,-79.8986456,362.302411093,0.50409996953,0.0,0.0,0.0,0.50409996953,0.0,0.0,0.0,2.01639987812,1,221.87300865632102,311.6495045322663,362.2909254429912,11.366024008051816,16.021782990012746,0.42396666772862823,0,Fixed-Wing
1970-01-01 00:00:16.786650400,1420,1539875295768806600,base_link,0,1,40.5931478,-79.898578,362.712458682,0.50409996953,0.0,0.0,0.0,0.50409996953,0.0,0.0,0.0,2.01639987812,1,227.59554315667276,317.43552624234417,362.70048566831963,14.308232091631496,14.466971148871915,1.024036248123997,0,Fixed-Wing
1970-01-01 00:00:17.187910592,1422,1539875296167773672,base_link,0,1,40.5931947,-79.8985015,362.762517489,0.50409996953,0.0,0.0,0.0,0.50409996953,0.0,0.0,0.0,2.01639987812,1,234.07150531976214,322.64408607549484,362.75004846465583,16.19205085446166,13.023125146958655,0.12392341069242668,0,Fixed-Wing
1970-01-01 00:00:17.553696000,1424,1539875296526149896,base_link,0,1,40.5932356,-79.8984162,362.492587739,0.50409996953,0.0,0.0,0.0,0.50409996953,0.0,0.0,0.0,2.01639987812,1,241.29243286798896,327.18634496334084,362.4796180739383,18.054711119790436,11.357152042260608,-0.6761655687316965,0,Fixed-Wing
1970-01-01 00:00:17.925064384,1426,1539875296907320968,base_link,0,1,40.5932681,-79.8983224,362.022670109,0.50409996953,0.0,0.0,0.0,0.50409996953,0.0,0.0,0.0,2.01639987812,1,249.23294227559575,330.7957841561653,362.0092089252169,19.853904161318333,9.024793767235364,-1.1761787154832697,0,Fixed-Wing
1970-01-01 00:00:18.375330816,1428,1539875297358046472,base_link,0,1,40.5932908,-79.89822,361.472765275,0.50409996953,0.0,0.0,0.0,0.50409996953,0.0,0.0,0.0,2.01639987812,1,257.90151030020695,333.3169390763521,361.4588284018359,21.67429190520545,6.303722543704047,-1.3761336461606728,0,Fixed-Wing
1970-01-01 00:00:18.787147168,1430,1539875297763713000,base_link,0,1,40.5933004,-79.89811,361.042873573,0.50409996953,0.0,0.0,0.0,0.50409996953,0.0,0.0,0.0,2.01639987812,1,267.21350599709604,334.3833471510182,361.02849798020486,23.28307424956078,2.6663734811514317,-1.075968619919706,0,Fixed-Wing
1970-01-01 00:00:19.229299072,1432,1539875298211790056,base_link,0,1,40.5932956,-79.8979953,360.852992582,0.50409996953,0.0,0.0,0.0,0.50409996953,0.0,0.0,0.0,2.01639987812,1,276.92344600195815,333.85064025336163,360.838231381739,24.27806685601372,-1.3319437266852032,-0.4757295303274745,0,Fixed-Wing
1970-01-01 00:00:19.573199712,1434,1539875298554962056,base_link,0,1,40.5932781,-79.8978812,360.863116204,0.50409996953,0.0,0.0,0.0,0.50409996953,0.0,0.0,0.0,2.01639987812,1,286.5826570098239,331.9075896781737,360.84803059209867,24.151227557315682,-4.8582701587659205,0.02450127231780212,0,Fixed-Wing
1970-01-01 00:00:20.004360416,1436,1539875298987082472,base_link,0,1,40.5932518,-79.8977704,361.393240094,0.50409996953,0.0,0.0,0.0,0.50409996953,0.0,0.0,0.0,2.01639987812,1,295.9625743228091,328.98730670595995,361.37787842125505,23.45290079181788,-7.301674902458893,1.324795108242795,0,Fixed-Wing
1970-01-01 00:00:20.343215776,1438,1539875299325911368,base_link,0,1,40.5932215,-79.897664,362.353361162,0.50409996953,0.0,0.0,0.0,0.50409996953,0.0,0.0,0.0,2.01639987812,1,304.9700567793693,325.622832340124,362.33774885525344,22.52169026536076,-8.412300544412071,2.3999940842121323,0,Fixed-Wing
1970-01-01 00:00:20.761912768,1440,1539875299744660040,base_link,0,1,40.5931921,-79.8975614,363.63347801,0.50409996953,0.0,0.0,0.0,0.50409996953,0.0,0.0,0.0,2.01639987812,1,313.6558719471196,322.35831768592163,363.6176113282222,21.71741547692635,-8.16236814928564,3.2000801930475116,0,Fixed-Wing
1970-01-01 00:00:21.196155808,1442,1539875300178697256,base_link,0,1,40.5931648,-79.8974599,364.563592901,0.50409996953,0.0,0.0,0.0,0.50409996953,0.0,0.0,0.0,2.01639987812,1,322.2485497186795,319.3270003455933,364.5474513590073,21.484541130599606,-7.579297607753814,2.3249081272896186,0,Fixed-Wing
1970-01-01 00:00:21.570181344,1444,1539875300552808840,base_link,0,1,40.5931399,-79.8973595,364.71370571,0.50409996953,0.0,0.0,0.0,0.50409996953,0.0,0.0,0.0,2.01639987812,1,330.7480639763517,316.56217493355547,364.69726787245565,21.251601481376827,-6.912979499878362,0.3745909169173488,0,Fixed-Wing
1970-01-01 00:00:21.979453504,1446,1539875300961901896,base_link,0,1,40.5931173,-79.8972606,363.793816066,0.50409996953,0.0,0.0,0.0,0.50409996953,0.0,0.0,0.0,2.01639987812,1,339.12053358466875,314.052721070173,363.7770635672864,20.93394776887196,-6.274466025204529,-2.3008156209929065,0,Fixed-Wing
1970-01-01 00:00:22.367120672,1448,1539875301347537640,base_link,0,1,40.5930995,-79.8971609,362.713925289,0.50409996953,0.0,0.0,0.0,0.50409996953,0.0,0.0,0.0,2.01639987812,1,347.5606970845482,312.0763240983844,362.6968163599928,21.103204924351164,-4.941647197725135,-2.7009758975404488,0,Fixed-Wing
1970-01-01 00:00:22.780811488,1450,1539875301763390248,base_link,0,1,40.5930906,-79.8970601,361.934031996,0.50409996953,0.0,0.0,0.0,0.50409996953,0.0,0.0,0.0,2.01639987812,1,356.09395252716536,311.0883225000977,361.9165014337391,21.335965621987746,-2.4703313146159385,-1.9510458292066424,0,Fixed-Wing
1970-01-01 00:00:23.203590368,1452,1539875302180124776,base_link,0,1,40.5930915,-79.8969589,361.764135096,0.50409996953,0.0,0.0,0.0,0.50409996953,0.0,0.0,0.0,2.01639987812,1,364.6610518433247,311.18867547468517,361.74611628223204,21.42058651811197,0.2509156827965996,-0.42601932632835915,0,Fixed-Wing
1970-01-01 00:00:23.578881600,1454,1539875302561652488,base_link,0,1,40.593098,-79.8968582,362.304235396,0.50409996953,0.0,0.0,0.0,0.50409996953,0.0,0.0,0.0,2.01639987812,1,373.18583318609967,311.9109642013594,362.28568885484157,21.314777564964825,1.8059611065321348,1.349110188623816,0,Fixed-Wing
1970-01-01 00:00:23.957374336,1456,1539875302940047528,base_link,0,1,40.5931053,-79.8967585,363.22433436,0.50409996953,0.0,0.0,0.0,0.50409996953,0.0,0.0,0.0,2.01639987812,1,381.6259772004579,312.7221190495825,363.2052493235788,21.103156204092606,2.0281558512080635,2.299205816613814,0,Fixed-Wing
1970-01-01 00:00:24.348097312,1458,1539875303330759368,base_link,0,1,40.5931109,-79.8966591,363.774433732,0.50409996953,0.0,0.0,0.0,0.50409996953,0.0,0.0,0.0,2.01639987812,1,390.04071251401035,313.344475047573,363.7548097969319,21.039626034330688,1.5560961777197884,1.3740832494132893,0,Fixed-Wing
1970-01-01 00:00:24.806197920,1460,1539875303788903976,base_link,0,1,40.5931131,-79.8965601,363.554534112,0.50409996953,0.0,0.0,0.0,0.50409996953,0.0,0.0,0.0,2.01639987812,1,398.42155791278657,313.5892226979176,363.5343808637084,20.954890019868174,0.6119502092642447,-0.5511453598189313,0,Fixed-Wing
1970-01-01 00:00:25.170405216,1462,1539875304152936200,base_link,0,1,40.5931097,-79.8964604,362.774637533,0.50409996953,0.0,0.0,0.0,0.50409996953,0.0,0.0,0.0,2.01639987812,1,406.86165914306775,313.2120620236119,362.75397083587404,21.103049229725904,-0.9430266367935877,-1.9512836146648531,0,Fixed-Wing
1970-01-01 00:00:25.534810080,1464,1539875304516909992,base_link,0,1,40.5930989,-79.8963598,361.654744943,0.50409996953,0.0,0.0,0.0,0.50409996953,0.0,0.0,0.0,2.01639987812,1,415.3779725783917,312.01311104020624,361.63358901536185,21.29360499097111,-2.9977746636571,-2.801325726939303,0,Fixed-Wing
1970-01-01 00:00:25.968687232,1466,1539875304951370120,base_link,0,1,40.5930783,-79.8962592,360.314856418,0.50409996953,0.0,0.0,0.0,0.50409996953,0.0,0.0,0.0,2.01639987812,1,423.8943330560154,309.7258465374269,360.293252746301,21.293722612305434,-5.718919013717695,-3.3512847178772587,0,Fixed-Wing
1970-01-01 00:00:26.376164256,1468,1539875305358836680,base_link,0,1,40.5930456,-79.8961594,359.044972092,0.50409996953,0.0,0.0,0.0,0.50409996953,0.0,0.0,0.0,2.01639987812,1,432.343053637898,306.0948591592966,359.02297786026224,21.124600464267974,-9.078671369282109,-3.1761080494134193,0,Fixed-Wing
1970-01-01 00:00:26.787126432,1470,1539875305768937416,base_link,0,1,40.5929974,-79.8960652,358.295088466,0.50409996953,0.0,0.0,0.0,0.50409996953,0.0,0.0,0.0,2.01639987812,1,440.3178468275758,300.74256883911755,358.27280470838446,19.939624974503687,-13.38249898156272,-1.8756814074809631,0,Fixed-Wing
1970-01-01 00:00:27.186078784,1472,1539875306168147112,base_link,0,1,40.592936,-79.8959805,358.325200604,0.50409996953,0.0,0.0,0.0,0.50409996953,0.0,0.0,0.0,2.01639987812,1,447.4885659789979,293.9243858624541,358.3027371283142,17.92917349404315,-17.047716264063688,0.07484096625243936,0,Fixed-Wing
1970-01-01 00:00:27.560602304,1474,1539875306543052712,base_link,0,1,40.5928663,-79.895907,358.635304747,0.50409996953,0.0,0.0,0.0,0.50409996953,0.0,0.0,0.0,2.01639987812,1,453.7112326961268,286.18443051936777,358.6127551365835,15.558728324325228,-19.352452557679662,0.7751477277470594,0,Fixed-Wing
1970-01-01 00:00:27.971650304,1476,1539875306954387976,base_link,0,1,40.5927896,-79.8958493,359.215395646,0.50409996953,0.0,0.0,0.0,0.50409996953,0.0,0.0,0.0,2.01639987812,1,458.5964215579516,277.66704292088866,359.19287456276686,12.214590587814923,-21.29629075472276,1.4504907554835693,0,Fixed-Wing
1970-01-01 00:00:28.368821664,1478,1539875307351494088,base_link,0,1,40.5927093,-79.8958045,359.635474862,0.50409996953,0.0,0.0,0.0,0.50409996953,0.0,0.0,0.0,2.01639987812,1,462.3895768507038,268.74979414574153,359.6130632129629,9.48414488107725,-22.296076167960077,1.0506108314252964,0,Fixed-Wing
1970-01-01 00:00:28.803127616,1480,1539875307784123624,base_link,0,1,40.5926275,-79.8957753,360.005538754,0.50409996953,0.0,0.0,0.0,0.50409996953,0.0,0.0,0.0,2.01639987812,1,464.86211746995554,259.66588324694897,359.9833248399717,6.18217068574519,-22.712786691218003,0.9257767329391182,0,Fixed-Wing
1970-01-01 00:00:29.182347360,1482,1539875308165101192,base_link,0,1,40.5925456,-79.8957667,360.785581609,0.50409996953,0.0,0.0,0.0,0.50409996953,0.0,0.0,0.0,2.01639987812,1,465.5907825683376,250.57077403222124,360.76367929573064,1.8219041482548097,-22.740786190989628,1.9511446660655658,0,Fixed-Wing
1970-01-01 00:00:29.589867616,1484,1539875308572482536,base_link,0,1,40.5924665,-79.8957733,361.67560775,0.50409996953,0.0,0.0,0.0,0.50409996953,0.0,0.0,0.0,2.01639987812,1,465.03266609802466,241.7865331651364,361.65408596097114,-1.3954760763624652,-21.96351233309622,2.226311649394807,0,Fixed-Wing
1970-01-01 00:00:29.965584096,1486,1539875308948015432,base_link,0,1,40.592391,-79.8957906,362.665621451,0.50409996953,0.0,0.0,0.0,0.50409996953,0.0,0.0,0.0,2.01639987812,1,463.56870952209994,233.4020258035892,362.64451916273447,-3.6603764396900744,-20.964046139981566,2.4764111288828863,0,Fixed-Wing
1970-01-01 00:00:30.407447200,1488,1539875309389837224,base_link,0,1,40.5923192,-79.8958135,363.615627893,0.50409996953,0.0,0.0,0.0,0.50409996953,0.0,0.0,0.0,2.01639987812,1,461.63064571480254,225.42837925622155,363.59495346020293,-4.845801586953763,-19.936757988852648,2.3764006167528744,0,Fixed-Wing
1970-01-01 00:00:30.786194080,1490,1539875309768937896,base_link,0,1,40.5922506,-79.8958382,364.435631177,0.50409996953,0.0,0.0,0.0,0.50409996953,0.0,0.0,0.0,2.01639987812,1,459.5401644501189,217.81008475912836,364.4153728312873,-5.226895725392765,-19.04826013720115,2.0513202276410865,0,Fixed-Wing
1970-01-01 00:00:31.173157152,1492,1539875310155823240,base_link,0,1,40.5921836,-79.8958632,364.915633505,0.50409996953,0.0,0.0,0.0,0.50409996953,0.0,0.0,0.0,2.01639987812,1,457.4242461851635,210.36946002781667,364.89577739019296,-5.290496653195005,-18.60402686183841,1.2011705523623415,0,Fixed-Wing
1970-01-01 00:00:31.576606304,1494,1539875310559208456,base_link,0,1,40.5921173,-79.8958865,364.625637305,0.50409996953,0.0,0.0,0.0,0.50409996953,0.0,0.0,0.0,2.01639987812,1,455.452179856588,203.0065557717595,364.60616128190946,-4.93081915497684,-18.409699925383023,-0.7241362187577266,0,Fixed-Wing
1970-01-01 00:00:31.977369568,1496,1539875310960122568,base_link,0,1,40.5920517,-79.8959087,363.765641959,0.50409996953,0.0,0.0,0.0,0.50409996953,0.0,0.0,0.0,2.01639987812,1,453.57318688552425,195.7213775974227,363.7465278981147,-4.698104926562079,-18.215358970905662,-2.1493682507800886,0,Fixed-Wing
1970-01-01 00:00:32.362215200,1498,1539875311344853800,base_link,0,1,40.5919854,-79.895929,362.585648874,0.50409996953,0.0,0.0,0.0,0.50409996953,0.0,0.0,0.0,2.01639987812,1,451.85502051769885,188.35846557021748,362.5668788071423,-4.295985137594241,-18.40971935582771,-2.949513537974828,0,Fixed-Wing
1970-01-01 00:00:32.780183328,1500,1539875311762607272,base_link,0,1,40.5919177,-79.8959464,361.465659369,0.50409996953,0.0,0.0,0.0,0.50409996953,0.0,0.0,0.0,2.01639987812,1,450.38236957692783,180.84010001776448,361.44721142680993,-3.6821152321958115,-18.79840466975122,-2.7995393898000818,0,Fixed-Wing
1970-01-01 00:00:33.181858144,1502,1539875312164186792,base_link,0,1,40.5918474,-79.895962,360.86567282,0.50409996953,0.0,0.0,0.0,0.50409996953,0.0,0.0,0.0,2.01639987812,1,449.0621524046547,173.03302478594895,360.847534926471,-3.300980310574017,-19.520274515912188,-1.499389920011762,0,Fixed-Wing
1970-01-01 00:00:33.585268640,1504,1539875312567931688,base_link,0,1,40.5917757,-79.895974,360.325690574,0.50409996953,0.0,0.0,0.0,0.50409996953,0.0,0.0,0.0,2.01639987812,1,448.0467111439746,165.0704979845052,360.3078355412149,-2.5389395611920165,-19.908954940138926,-1.349427262252462,0,Fixed-Wing
1970-01-01 00:00:33.990311072,1506,1539875312972517320,base_link,0,1,40.591703,-79.8959819,360.015712977,0.50409996953,0.0,0.0,0.0,0.50409996953,0.0,0.0,0.0,2.01639987812,1,447.3783843409737,156.9969469658775,359.9981091152807,-1.67103842009297,-20.186552264744357,-0.7744186753099105,0,Fixed-Wing
1970-01-01 00:00:34.390402848,1508,1539875313372772680,base_link,0,1,40.59163,-79.8959859,359.655739533,0.50409996953,0.0,0.0,0.0,0.50409996953,0.0,0.0,0.0,2.01639987812,1,447.0402172941321,148.89009982518007,359.6383542107811,-0.8455296497825724,-20.26980360072066,-0.8995064458532072,0,Fixed-Wing
1970-01-01 00:00:34.809248672,1510,1539875313791441448,base_link,0,1,40.5915567,-79.8959869,359.535769318,0.50409996953,0.0,0.0,0.0,0.50409996953,0.0,0.0,0.0,2.01639987812,1,446.956039863369,140.7499585637136,359.51857515968857,-0.21047146437672282,-20.353049932782298,-0.299487309799817,0,Fixed-Wing
1970-01-01 00:00:35.191282720,1512,1539875314173904008,base_link,0,1,40.5914837,-79.8959864,360.025800543,0.50409996953,0.0,0.0,0.0,0.50409996953,0.0,0.0,0.0,2.01639987812,1,446.9988888445625,132.64315373102474,360.0087775497534,0.10713664858958376,-20.26969781668284,1.2256683762219427,0,Fixed-Wing
1970-01-01 00:00:35.587933184,1514,1539875314570477288,base_link,0,1,40.5914118,-79.8959862,360.725831024,0.50409996953,0.0,0.0,0.0,0.50409996953,0.0,0.0,0.0,2.01639987812,1,447.01634808253436,124.65850788525239,360.70896825411535,0.043653879068670166,-19.964259878864823,1.75070872981156,0,Fixed-Wing
1970-01-01 00:00:35.982241728,1516,1539875314964559240,base_link,0,1,40.5913406,-79.895986,361.255861236,0.50409996953,0.0,0.0,0.0,0.50409996953,0.0,0.0,0.0,2.01639987812,1,447.0337908000332,116.75159389104559,361.2391472420355,0.04361257241297544,-19.769904497862974,1.3256231148630286,0,Fixed-Wing
1970-01-01 00:00:36.390891008,1518,1539875315371255112,base_link,0,1,40.5912701,-79.8959869,361.135890048,0.50409996953,0.0,0.0,0.0,0.50409996953,0.0,0.0,0.0,2.01639987812,1,446.9580600843621,108.92239859653742,361.11932019607366,-0.18935187830165887,-19.575582000885536,-0.2996073128734881,0,Fixed-Wing
1970-01-01 00:00:36.768285888,1520,1539875315750607784,base_link,0,1,40.5912002,-79.8959916,360.355914732,0.50409996953,0.0,0.0,0.0,0.50409996953,0.0,0.0,0.0,2.01639987812,1,446.56058001499184,101.15980531391892,360.339500828199,-0.9938318561465906,-19.40905490632133,-1.9498067690835676,0,Fixed-Wing
1970-01-01 00:00:37.203964896,1522,1539875316186699464,base_link,0,1,40.5911311,-79.8960034,359.335931814,0.50409996953,0.0,0.0,0.0,0.50409996953,0.0,0.0,0.0,2.01639987812,1,445.5620073739051,93.48601640577394,359.319705014826,-2.4967624237380273,-19.18701454979031,-2.5498273855610365,0,Fixed-Wing
1970-01-01 00:00:37.625673760,1524,1539875316607601896,base_link,0,1,40.5910633,-79.8960268,358.585936461,0.50409996953,0.0,0.0,0.0,0.50409996953,0.0,0.0,0.0,2.01639987812,1,443.58141283623155,85.9565432792798,358.5699536788003,-4.952142503065505,-18.826177284725574,-1.8746267281057851,0,Fixed-Wing
1970-01-01 00:00:37.980459520,1526,1539875316962859880,base_link,0,1,40.5909988,-79.8960649,357.955924643,0.50409996953,0.0,0.0,0.0,0.50409996953,0.0,0.0,0.0,2.01639987812,1,440.3563307912483,78.79347285868803,357.94025774760826,-8.063773562455157,-17.910049132989535,-1.5744484423986973,0,Fixed-Wing
1970-01-01 00:00:38.380113472,1528,1539875317359814024,base_link,0,1,40.5909409,-79.8961188,357.655893829,0.50409996953,0.0,0.0,0.0,0.50409996953,0.0,0.0,0.0,2.01639987812,1,435.7936274938343,72.36327559693447,357.6406162314396,-11.408269839288645,-16.07762343948964,-0.749203059827084,0,Fixed-Wing
1970-01-01 00:00:38.784636736,1530,1539875317767197256,base_link,0,1,40.5908918,-79.8961852,357.725846472,0.50409996953,0.0,0.0,0.0,0.50409996953,0.0,0.0,0.0,2.01639987812,1,430.17266028863014,66.91028431074264,357.7110095754217,-14.054280205137633,-13.634284758210043,0.1760066808405076,0,Fixed-Wing
1970-01-01 00:00:39.203000736,1532,1539875318185315880,base_link,0,1,40.5908531,-79.8962605,358.125785585,0.50409996953,0.0,0.0,0.0,0.50409996953,0.0,0.0,0.0,2.01639987812,1,423.7981842789554,62.61220099235527,358.11141854556604,-15.938301849181931,-10.746632224738203,1.0011550784087049,0,Fixed-Wing
1970-01-01 00:00:39.587343488,1534,1539875318569802280,base_link,0,1,40.5908278,-79.8963427,359.095711949,0.50409996953,0.0,0.0,0.0,0.50409996953,0.0,0.0,0.0,2.01639987812,1,416.83951321130644,59.80219563116722,359.0818298429827,-17.398983034374396,-7.025944340595246,2.4263497348815233,0,Fixed-Wing
1970-01-01 00:00:39.982784992,1536,1539875318965260200,base_link,0,1,40.5908121,-79.8964268,360.135632304,0.50409996953,0.0,0.0,0.0,0.50409996953,0.0,0.0,0.0,2.01639987812,1,409.7199302220201,58.05828971515351,360.12222699455805,-17.80131614760545,-4.360342535420234,2.6013375561645624,0,Fixed-Wing
1970-01-01 00:00:40.354943776,1538,1539875319337409672,base_link,0,1,40.5908025,-79.8965107,361.115550291,0.50409996953,0.0,0.0,0.0,0.50409996953,0.0,0.0,0.0,2.01639987812,1,402.61723284835523,56.991809502914776,361.1026062684093,-17.759096514450295,-2.666553848981815,2.451272978297799,0,Fixed-Wing
1970-01-01 00:00:40.788262272,1540,1539875319770878792,base_link,0,1,40.5907966,-79.8965932,361.685468156,0.50409996953,0.0,0.0,0.0,0.50409996953,0.0,0.0,0.0,2.01639987812,1,395.6330055065668,56.33623199812669,361.67296638013124,-17.46288218636076,-1.6391609507961913,1.4260892361285995,0,Fixed-Wing
1970-01-01 00:00:41.217743136,1542,1539875320200386312,base_link,0,1,40.5907923,-79.8966749,361.885386175,0.50409996953,0.0,0.0,0.0,0.50409996953,0.0,0.0,0.0,2.01639987812,1,388.7164704546825,55.858344927881035,361.87331326421315,-17.293629035557952,-1.1948759966837037,0.5009335839046414,0,Fixed-Wing
1970-01-01 00:00:41.576558464,1544,1539875320559082408,base_link,0,1,40.5907894,-79.8967555,361.39530474,0.50409996953,0.0,0.0,0.0,0.50409996953,0.0,0.0,0.0,2.01639987812,1,381.89300886345444,55.53593625167818,361.38364625036326,-17.060914549247943,-0.8061285025337228,-1.2243297583177175,0,Fixed-Wing
1970-01-01 00:00:41.961531424,1546,1539875320943554344,base_link,0,1,40.5907895,-79.8968352,360.565222968,0.50409996953,0.0,0.0,0.0,0.50409996953,0.0,0.0,0.0,2.01639987812,1,375.14570334685584,55.54669165111878,360.55396422134123,-16.870499132631576,0.02689206179968235,-2.0744799411472616,0,Fixed-Wing
1970-01-01 00:00:42.391310752,1548,1539875321373851944,base_link,0,1,40.5907922,-79.8969147,359.945140311,0.50409996953,0.0,0.0,0.0,0.50409996953,0.0,0.0,0.0,2.01639987812,1,368.41532907687395,55.84619177707583,359.93427067438074,-16.828165406871147,0.7488495374563452,-1.5494391680909994,0,Fixed-Wing
1970-01-01 00:00:42.766282048,1550,1539875321748375208,base_link,0,1,40.5907963,-79.8969941,359.495057175,0.50409996953,0.0,0.0,0.0,0.50409996953,0.0,0.0,0.0,2.01639987812,1,361.6934245507342,56.30117302436716,359.484567691234,-16.806988241291283,1.1376038507385449,-1.124406441720332,0,Fixed-Wing
1970-01-01 00:00:43.194377888,1552,1539875322176787400,base_link,0,1,40.5908013,-79.8970732,359.424973978,0.50409996953,0.0,0.0,0.0,0.50409996953,0.0,0.0,0.0,2.01639987812,1,354.99693559014224,56.856111919071736,359.41485523601426,-16.743440907400174,1.387531084630156,-0.17430423336031495,0,Fixed-Wing
1970-01-01 00:00:43.586069408,1554,1539875322568741704,base_link,0,1,40.5908072,-79.8971515,359.504891231,0.50409996953,0.0,0.0,0.0,0.50409996953,0.0,0.0,0.0,2.01639987812,1,348.36817777896164,57.5110083891241,359.4951315670699,-16.574090594955347,1.6374581383342395,0.20071742269761472,0,Fixed-Wing
1970-01-01 00:00:43.997913984,1556,1539875322980038632,base_link,0,1,40.5908121,-79.8972286,359.674810149,0.608399955368,0.0,0.0,0.0,0.608399955368,0.0,0.0,0.0,2.43359982147,1,341.8410206178113,58.054863967059305,359.6653981932286,-16.320055310204456,1.3598191208715262,0.4257229736907813,0,Fixed-Wing
1970-01-01 00:00:44.374987584,1558,1539875323357306568,base_link,0,1,40.5908161,-79.8973043,360.064730892,0.50409996953,0.0,0.0,0.0,0.50409996953,0.0,0.0,0.0,2.01639987812,1,335.43240147390446,58.498785583420954,360.05565462394816,-16.023670996174076,1.109951109426122,0.9757703663724098,0,Fixed-Wing
1970-01-01 00:00:44.771376672,1560,1539875323753855496,base_link,0,1,40.5908175,-79.8973793,360.814653462,0.50409996953,0.0,0.0,0.0,0.50409996953,0.0,0.0,0.0,2.01639987812,1,329.0830742860674,58.65398272331626,360.8059060353291,-15.875421462936458,0.38804426560346034,1.8758770821657114,0,Fixed-Wing
1970-01-01 00:00:45.197179552,1562,1539875324179141480,base_link,0,1,40.590818,-79.8974535,360.864577241,0.50409996953,0.0,0.0,0.0,0.50409996953,0.0,0.0,0.0,2.01639987812,1,322.80144133332897,58.70923469411338,360.85614984393214,-15.706163448503048,0.1381482316334808,0.12562616697476553,0,Fixed-Wing
1970-01-01 00:00:45.578322688,1564,1539875324560869192,base_link,0,1,40.5908185,-79.8975263,360.174502464,0.50409996953,0.0,0.0,0.0,0.50409996953,0.0,0.0,0.0,2.01639987812,1,316.6382930718175,58.764490157940344,360.16638304231833,-15.409912467180602,0.13815696536532812,-1.7246455195658776,0,Fixed-Wing
1970-01-01 00:00:45.982401504,1566,1539875324965020104,base_link,0,1,40.590819,-79.8975986,359.024428207,0.50409996953,0.0,0.0,0.0,0.50409996953,0.0,0.0,0.0,2.01639987812,1,310.51745292510867,58.81974821561414,359.01660875741527,-15.304128163753735,0.13816345084172818,-2.874816625460524,0,Fixed-Wing
1970-01-01 00:00:46.358375552,1568,1539875325340885320,base_link,0,1,40.5908214,-79.8976715,357.914352543,0.50409996953,0.0,0.0,0.0,0.50409996953,0.0,0.0,0.0,2.01639987812,1,304.3458135124191,59.086008857778154,357.90682766588014,-15.431143158192356,0.6657398159356451,-2.7748203925398265,0,Fixed-Wing
1970-01-01 00:00:46.788603392,1570,1539875325769916360,base_link,0,1,40.5908246,-79.8977452,357.034275732,0.50409996953,0.0,0.0,0.0,0.50409996953,0.0,0.0,0.0,2.01639987812,1,298.1064574151315,59.44111574341002,357.02704178287183,-15.600457303811785,0.8878848588234675,-2.199756175213991,0,Fixed-Wing
1970-01-01 00:00:47.165028704,1572,1539875326147626664,base_link,0,1,40.5908271,-79.8978196,356.464198509,0.50409996953,0.0,0.0,0.0,0.50409996953,0.0,0.0,0.0,2.01639987812,1,291.8078601983191,59.718491786212695,356.4572528117808,-15.748579728845135,0.6935319999966794,-1.4246611953359898,0,Fixed-Wing
1970-01-01 00:00:47.586816992,1574,1539875326568987144,base_link,0,1,40.5908271,-79.8978946,356.414121736,0.50409996953,0.0,0.0,0.0,0.50409996953,0.0,0.0,0.0,2.01639987812,1,285.45850361686985,59.718245488587456,356.4074629483829,-15.875494956704834,-0.0006158256599971174,-0.1244911535726104,0,Fixed-Wing
1970-01-01 00:00:48.006934304,1576,1539875326988133288,base_link,0,1,40.5908253,-79.8979694,356.694045938,0.50409996953,0.0,0.0,0.0,0.50409996953,0.0,0.0,0.0,2.01639987812,1,279.12610065040906,59.518114312514626,356.68766888151464,-15.833105302604572,-0.5003942424191954,0.7006076633447774,0,Fixed-Wing
1970-01-01 00:00:48.433849984,1578,1539875327416551784,base_link,0,1,40.5908229,-79.8980432,356.903971424,0.50409996953,0.0,0.0,0.0,0.50409996953,0.0,0.0,0.0,2.01639987812,1,272.87835430493885,59.25135960081852,356.89786681946134,-15.621435703906279,-0.6669751534481041,0.5255644821606426,0,Fixed-Wing
1970-01-01 00:00:48.785700544,1580,1539875327763004040,base_link,0,1,40.5908204,-79.8981158,357.03389819,0.50409996953,0.0,0.0,0.0,0.50409996953,0.0,0.0,0.0,2.01639987812,1,266.73219385034196,58.97350777624652,357.02805577323653,-15.367437321937395,-0.6947216120435871,0.32551551524374234,0,Fixed-Wing
1970-01-01 00:00:49.158222432,1582,1539875328140729640,base_link,0,1,40.5908184,-79.8981875,357.043825674,0.50409996953,0.0,0.0,0.0,0.50409996953,0.0,0.0,0.0,2.01639987812,1,260.66221811809163,58.751188682745095,357.03823590227273,-15.17695027653746,-0.5558713867123041,0.02545369520511585,0,Fixed-Wing
1970-01-01 00:00:49.585825152,1584,1539875328568502952,base_link,0,1,40.5908164,-79.8982583,357.073754087,0.50409996953,0.0,0.0,0.0,0.50409996953,0.0,0.0,0.0,2.01639987812,1,254.66843507667107,58.528877317930636,357.06840814428585,-14.986443307289607,-0.5558520624344201,0.07544060091242775,0,Fixed-Wing
1970-01-01 00:00:50.003551424,1586,1539875328986272840,base_link,0,1,40.5908148,-79.8983289,356.963682545,0.50409996953,0.0,0.0,0.0,0.50409996953,0.0,0.0,0.0,2.01639987812,1,248.69157630271,58.35099094645358,356.9585737357544,-14.944127031734414,-0.4447748613617754,-0.274622408797839,0,Fixed-Wing
1970-01-01 00:00:50.359841472,1588,1539875329342558152,base_link,0,1,40.590814,-79.8983988,357.123611389,0.50409996953,0.0,0.0,0.0,0.50409996953,0.0,0.0,0.0,2.01639987812,1,242.77398547585938,58.261955563909225,357.11873104765135,-14.795937528849107,-0.2226179532396858,0.4004463388823189,0,Fixed-Wing
1970-01-01 00:00:50.790516416,1590,1539875329773112360,base_link,0,1,40.5908128,-79.8984686,357.473540512,0.50409996953,0.0,0.0,0.0,0.50409996953,0.0,0.0,0.0,2.01639987812,1,236.86486847637536,58.128505982093714,357.46888324926704,-14.77475015310532,-0.33366816557071793,0.8754965073264345,0,Fixed-Wing
1970-01-01 00:00:51.190728256,1592,1539875330173337032,base_link,0,1,40.5908117,-79.8985388,357.663469192,0.50409996953,0.0,0.0,0.0,0.50409996953,0.0,0.0,0.0,2.01639987812,1,230.92188125238079,58.00616378752571,357.6590306595615,-14.859436935380383,-0.3058960176423523,0.4754315204125986,0,Fixed-Wing
1970-01-01 00:00:51.602682176,1594,1539875330585238856,base_link,0,1,40.5908117,-79.8986093,357.58339711,0.50409996953,0.0,0.0,0.0,0.50409996953,0.0,0.0,0.0,2.01639987812,1,224.95348285404822,58.00598057206858,357.57917156086006,-14.922973289792317,-0.0004580993409814722,-0.19967420358555907,0,Fixed-Wing
1970-01-01 00:00:52.030506144,1596,1539875331012703048,base_link,0,1,40.590813,-79.89868,357.473324284,0.50409996953,0.0,0.0,0.0,0.50409996953,0.0,0.0,0.0,2.01639987812,1,218.96814771951694,58.15016928410773,357.4693054014317,-14.965320741326433,0.36051954893811616,-0.27470179655891874,0,Fixed-Wing
1970-01-01 00:00:52.356516960,1598,1539875331339005576,base_link,0,1,40.5908154,-79.8987514,357.473250289,0.50409996953,0.0,0.0,0.0,0.50409996953,0.0,0.0,0.0,2.01639987812,1,212.9235525403244,58.41651958289813,357.4694333175316,-15.113490485470642,0.6659639872043036,0.0003198326274996874,0,Fixed-Wing
1970-01-01 00:00:52.789208480,1600,1539875331771605768,base_link,0,1,40.5908176,-79.8988236,357.683175569,0.50409996953,0.0,0.0,0.0,0.50409996953,0.0,0.0,0.0,2.01639987812,1,206.81123874011652,58.66066439060651,357.6795571772272,-15.282809472774858,0.610442902955593,0.525379261991248,0,Fixed-Wing
1970-01-01 00:00:53.182367072,1602,1539875332164889960,base_link,0,1,40.5908182,-79.8988967,358.293100612,0.50409996953,0.0,0.0,0.0,0.50409996953,0.0,0.0,0.0,2.01639987812,1,200.62275000787906,58.72713226099111,358.2896789756128,-15.473272039138834,0.1661916963612662,1.5255066255918703,0,Fixed-Wing
1970-01-01 00:00:53.580645728,1604,1539875332563268264,base_link,0,1,40.5908163,-79.8989698,359.193026716,0.50409996953,0.0,0.0,0.0,0.50409996953,0.0,0.0,0.0,2.01639987812,1,194.43427627139874,58.51597727095714,359.18979839658556,-15.473234544777979,-0.5279574294443397,2.250596756502165,0,Fixed-Wing
1970-01-01 00:00:53.980560608,1606,1539875332963265416,base_link,0,1,40.5908129,-79.8990422,360.172954175,0.50409996953,0.0,0.0,0.0,0.50409996953,0.0,0.0,0.0,2.01639987812,1,188.30506769298054,58.138251147820625,360.1699129478769,-15.325052015437548,-0.9444404462004007,2.4506110841970683,0,Fixed-Wing
1970-01-01 00:00:54.366239456,1608,1539875333348831880,base_link,0,1,40.5908097,-79.8991136,361.022882579,0.50409996953,0.0,0.0,0.0,0.50409996953,0.0,0.0,0.0,2.01639987812,1,182.26051050195764,57.78274129789611,361.0200199254953,-15.113395502461335,-0.8888924030546952,2.1255490792989957,0,Fixed-Wing
1970-01-01 00:00:54.757723008,1610,1539875333740506568,base_link,0,1,40.5908073,-79.8991839,361.512811779,0.50409996953,0.0,0.0,0.0,0.50409996953,0.0,0.0,0.0,2.01639987812,1,176.30906306050153,57.51607706050626,361.5101185862717,-14.880590281852623,-0.6667489377088637,1.2254090186358904,0,Fixed-Wing
1970-01-01 00:00:55.149463744,1612,1539875334132251656,base_link,0,1,40.5908049,-79.8992534,361.502741804,0.50409996953,0.0,0.0,0.0,0.50409996953,0.0,0.0,0.0,2.01639987812,1,170.42532746594105,57.24941458205444,361.50021070888,-14.711288232091945,-0.6667445397810724,-0.02477297589854952,0,Fixed-Wing
1970-01-01 00:00:55.568590720,1614,1539875334550995080,base_link,0,1,40.5908038,-79.8993224,361.252671801,0.50409996953,0.0,0.0,0.0,0.50409996953,0.0,0.0,0.0,2.01639987812,1,164.58391117695388,57.12712353949678,361.2502949871669,-14.605475948031055,-0.30576812067014597,-0.6248720998359284,0,Fixed-Wing
1970-01-01 00:00:55.974903968,1616,1539875334957575816,base_link,0,1,40.5908033,-79.8993913,360.812601655,0.50409996953,0.0,0.0,0.0,0.50409996953,0.0,0.0,0.0,2.01639987812,1,158.75095482642595,57.07146694439879,360.81037297197133,-14.584323299156944,-0.1391599264352175,-1.0999507814674878,0,Fixed-Wing
1970-01-01 00:00:56.377287008,1618,1539875335360015720,base_link,0,1,40.590803,-79.8994608,360.202530821,0.50409996953,0.0,0.0,0.0,0.50409996953,0.0,0.0,0.0,2.01639987812,1,152.86719978505027,57.03802281384961,360.2004459574795,-14.71133685557256,-0.08362140620928535,-1.5250196013268238,0,Fixed-Wing
1970-01-01 00:00:56.767554432,1620,1539875335750075912,base_link,0,1,40.5908027,-79.8995309,359.512459382,0.50409996953,0.0,0.0,0.0,0.50409996953,0.0,0.0,0.0,2.01639987812,1,146.93264909559474,57.004581614821745,359.5105140880712,-14.838342804060373,-0.08361407643478377,-1.725058243737969,0,Fixed-Wing
1970-01-01 00:00:57.171312544,1622,1539875336153965928,base_link,0,1,40.5908026,-79.8996021,359.012386745,0.608399955368,0.0,0.0,0.0,0.608399955368,0.0,0.0,0.0,2.43359982147,1,140.90497947609109,56.99335554388534,359.0105773597005,-15.071170978913843,-0.028068896469787913,-1.250007446913463,0,Fixed-Wing
1970-01-01 00:00:57.567831264,1624,1539875336550165032,base_link,0,1,40.5908029,-79.8996736,358.632313642,0.50409996953,0.0,0.0,0.0,0.50409996953,0.0,0.0,0.0,2.01639987812,1,134.85191507541984,57.02655586936308,358.6306346186004,-15.134666344968824,0.08301181275953118,-0.9499827254613252,0,Fixed-Wing
1970-01-01 00:00:57.991131552,1626,1539875336973309832,base_link,0,1,40.5908069,-79.8997444,359.142239708,0.50409996953,0.0,0.0,0.0,0.50409996953,0.0,0.0,0.0,2.01639987812,1,128.8581229791243,57.470663529198816,359.14068041546983,-14.986465947476916,1.1104162797464088,1.275283467232923,0,Fixed-Wing
1970-01-01 00:00:58.381280480,1628,1539875337364032776,base_link,0,1,40.5908109,-79.8998145,359.592166497,0.50409996953,0.0,0.0,0.0,0.50409996953,0.0,0.0,0.0,2.01639987812,1,122.92359016973258,57.914776510216456,359.5907201404044,-14.838298097977262,1.1104295844640395,1.1252484077504863,0,Fixed-Wing
1970-01-01 00:00:58.774820672,1630,1539875337757503560,base_link,0,1,40.590814,-79.8998853,359.39209296,0.50409996953,0.0,0.0,0.0,0.50409996953,0.0,0.0,0.0,2.01639987812,1,116.92978621670312,58.258940335132735,359.39075599456805,-14.986495593239745,0.8605235816652689,-0.4999766114919258,0,Fixed-Wing
1970-01-01 00:00:59.166017728,1632,1539875338148750792,base_link,0,1,40.5908162,-79.8999571,358.932018788,0.50409996953,0.0,0.0,0.0,0.50409996953,0.0,0.0,0.0,2.01639987812,1,110.85132205942654,58.50315825932998,358.9307879616118,-15.198174151266505,0.610625718400798,-1.1500724669924418,0,Fixed-Wing
1970-01-01 00:00:59.575695104,1634,1539875338558297416,base_link,0,1,40.5908178,-79.9000297,358.511944062,0.50409996953,0.0,0.0,0.0,0.50409996953,0.0,0.0,0.0,2.01639987812,1,104.70513429040149,58.68074916481274,358.51081530526096,-15.367505617056878,0.4440360984899483,-1.0500707752548832,0,Fixed-Wing
1970-01-01 00:00:59.957037888,1636,1539875338939823688,base_link,0,1,40.5908197,-79.9001025,358.511869015,0.50409996953,0.0,0.0,0.0,0.50409996953,0.0,0.0,0.0,2.01639987812,1,98.54202204425405,58.891664452324505,358.510836363649,-15.409822416838818,0.527358093726837,5.265294658768544e-05,0,Fixed-Wing
1970-01-01 00:01:00.359968800,1638,1539875339342621416,base_link,0,1,40.5908238,-79.9001745,358.67179387,0.50409996953,0.0,0.0,0.0,0.50409996953,0.0,0.0,0.0,2.01639987812,1,92.44663590601638,59.34690215122245,358.6708481147865,-15.24048470981823,1.1382450647159401,0.4000823887603043,0,Fixed-Wing
1970-01-01 00:01:00.801403840,1640,1539875339784168680,base_link,0,1,40.5908318,-79.9002446,358.971719038,0.50409996953,0.0,0.0,0.0,0.50409996953,0.0,0.0,0.0,2.01639987812,1,86.51209744729384,60.235251900374124,358.970848066758,-14.838312223175928,2.221168677728979,0.7500992680817008,0,Fixed-Wing
1970-01-01 00:01:01.178266496,1642,1539875340160754952,base_link,0,1,40.5908451,-79.9003117,359.361645052,0.50409996953,0.0,0.0,0.0,0.50409996953,0.0,0.0,0.0,2.01639987812,1,80.83152883681629,61.71218715568216,359.3608343397681,-14.203303463902843,3.6928274379056107,0.9750948825971815,0,Fixed-Wing
1970-01-01 00:01:01.559077728,1644,1539875340541744040,base_link,0,1,40.5908642,-79.9003747,359.961572827,0.50409996953,0.0,0.0,0.0,0.50409996953,0.0,0.0,0.0,2.01639987812,1,75.49805580001124,63.83323580138898,359.96080645603956,-13.335449539076542,5.303324304737432,1.500129057778875,0,Fixed-Wing
1970-01-01 00:01:02.005159680,1646,1539875340987621000,base_link,0,1,40.5908873,-79.9004341,360.461502607,0.50409996953,0.0,0.0,0.0,0.50409996953,0.0,0.0,0.0,2.01639987812,1,70.46934844320134,66.39849970789453,360.46076744059303,-12.573434372079058,6.4140096225388605,1.2500680954063108,0,Fixed-Wing
1970-01-01 00:01:02.367148384,1648,1539875341349880424,base_link,0,1,40.5909139,-79.9004903,360.701434195,0.50409996953,0.0,0.0,0.0,0.50409996953,0.0,0.0,0.0,2.01639987812,1,65.71154329920176,69.35245005081092,360.70071823439207,-11.896089091803605,7.385854483009964,0.5999564787310301,0,Fixed-Wing
1970-01-01 00:01:02.754571424,1650,1539875341737140296,base_link,0,1,40.5909446,-79.900543,360.641367647,0.50409996953,0.0,0.0,0.0,0.50409996953,0.0,0.0,0.0,2.01639987812,1,61.25003786139249,72.76171713310353,360.6406579529979,-11.155241664043666,8.52429717510724,-0.15017060109003882,0,Fixed-Wing
1970-01-01 00:01:03.178413408,1652,1539875342160654024,base_link,0,1,40.5909799,-79.900591,360.421303977,0.50409996953,0.0,0.0,0.0,0.50409996953,0.0,0.0,0.0,2.01639987812,1,57.18642348674747,76.68182854893846,360.4205859221953,-10.160382187252361,9.801577248572746,-0.5502529855271125,0,Fixed-Wing
1970-01-01 00:01:03.605222976,1654,1539875342587123848,base_link,0,1,40.5910208,-79.9006323,360.371244807,0.50409996953,0.0,0.0,0.0,0.50409996953,0.0,0.0,0.0,2.01639987812,1,53.69001834907579,81.22384103460513,360.370500737271,-8.742171181860796,11.356535955180748,-0.12522955522677987,0,Fixed-Wing
1970-01-01 00:01:03.970189312,1656,1539875342952868392,base_link,0,1,40.5910661,-79.9006669,360.48119064,0.50409996953,0.0,0.0,0.0,0.50409996953,0.0,0.0,0.0,2.01639987812,1,50.76082281905402,86.25449125357096,360.4804043125917,-7.32395924965501,12.578292171127254,0.27479534868541655,0,Fixed-Wing
1970-01-01 00:01:04.402604032,1658,1539875343385165448,base_link,0,1,40.5911146,-79.9006939,360.751142894,0.50409996953,0.0,0.0,0.0,0.50409996953,0.0,0.0,0.0,2.01639987812,1,48.475028979411846,91.64051667791563,360.75029902993396,-5.715241868653033,13.466847918210828,0.6748262078281719,0,Fixed-Wing
1970-01-01 00:01:04.799953504,1660,1539875343782695816,base_link,0,1,40.5911654,-79.900712,361.261103269,0.50409996953,0.0,0.0,0.0,0.50409996953,0.0,0.0,0.0,2.01639987812,1,46.94269188562757,97.28197200617998,361.2601870983988,-3.8313503883871567,14.105507300378193,1.2748890939669955,0,Fixed-Wing
1970-01-01 00:01:05.184923616,1662,1539875344167600616,base_link,0,1,40.5912171,-79.9007236,361.751069904,0.50409996953,0.0,0.0,0.0,0.50409996953,0.0,0.0,0.0,2.01639987812,1,45.96063075055632,103.02337874849513,361.75007050457305,-2.455478188538102,14.35541894879859,1.224870810818113,0,Fixed-Wing
1970-01-01 00:01:05.556525248,1664,1539875344535037800,base_link,0,1,40.5912691,-79.9007313,362.1210404,0.50409996953,0.0,0.0,0.0,0.50409996953,0.0,0.0,0.0,2.01639987812,1,45.3087344786855,108.79810220281578,362.11994953562703,-1.6299566489330288,14.438721766435679,0.9248201163003684,0,Fixed-Wing
1970-01-01 00:01:05.996903968,1666,1539875344979492872,base_link,0,1,40.5913207,-79.9007368,362.211013318,0.50409996953,0.0,0.0,0.0,0.50409996953,0.0,0.0,0.0,2.01639987812,1,44.84308397388615,114.52840157945266,362.20982517726827,-1.1642805291684877,14.327646854800458,0.22471887935462076,0,Fixed-Wing
1970-01-01 00:01:06.371692320,1668,1539875345354225096,base_link,0,1,40.5913722,-79.9007411,362.070987512,0.50409996953,0.0,0.0,0.0,0.50409996953,0.0,0.0,0.0,2.01639987812,1,44.47902157487211,120.24759222449264,362.06969640387103,-0.9102766091858308,14.299871345553218,-0.35036835730043414,0,Fixed-Wing
1970-01-01 00:01:06.778423360,1670,1539875345761115112,base_link,0,1,40.591424,-79.9007449,361.780962105,0.50409996953,0.0,0.0,0.0,0.50409996953,0.0,0.0,0.0,2.01639987812,1,44.15728720421939,126.00009566641184,361.7795619144389,-0.8044425152650733,14.383164374077571,-0.7254323433658666,0,Fixed-Wing
1970-01-01 00:01:07.159220256,1672,1539875346141546408,base_link,0,1,40.5914763,-79.9007487,361.340936504,0.50409996953,0.0,0.0,0.0,0.50409996953,0.0,0.0,0.0,2.01639987812,1,43.8355520055521,131.80812170682972,361.3394208658349,-0.8044445855757983,14.521989264622277,-1.100498437552988,0,Fixed-Wing
1970-01-01 00:01:07.599585088,1674,1539875346582171336,base_link,0,1,40.5915292,-79.9007519,360.870911279,0.50409996953,0.0,0.0,0.0,0.50409996953,0.0,0.0,0.0,2.01639987812,1,43.5646110955344,137.68277804971495,360.86927308599104,-0.6774420361140346,14.688587095003166,-1.1755252066994923,0,Fixed-Wing
1970-01-01 00:01:07.963641504,1676,1539875346946322760,base_link,0,1,40.5915831,-79.9007532,360.610887588,0.50409996953,0.0,0.0,0.0,0.50409996953,0.0,0.0,0.0,2.01639987812,1,43.45452003489932,143.66849157906984,360.6091178073027,-0.27526412408415396,14.966266853745326,-0.6504743845767822,0,Fixed-Wing
1970-01-01 00:01:08.406290304,1678,1539875347388910952,base_link,0,1,40.5916375,-79.9007546,360.320863602,0.50409996953,0.0,0.0,0.0,0.50409996953,0.0,0.0,0.0,2.01639987812,1,43.33596292489367,149.70973007643087,360.3189553495079,-0.2964320522610406,15.105097668843712,-0.7255022735382257,0,Fixed-Wing
1970-01-01 00:01:08.779210176,1680,1539875347761933224,base_link,0,1,40.5916922,-79.9007571,360.130838387,0.50409996953,0.0,0.0,0.0,0.50409996953,0.0,0.0,0.0,2.01639987812,1,43.12428378256628,155.78428568351848,360.1287857416552,-0.5292679838263343,15.18840148091523,-0.4754870216622151,0,Fixed-Wing
1970-01-01 00:01:09.187015136,1682,1539875348169167592,base_link,0,1,40.5917468,-79.9007601,360.23081272,0.50409996953,0.0,0.0,0.0,0.50409996953,0.0,0.0,0.0,2.01639987812,1,42.870278537075365,161.8477428962836,360.2286104404875,-0.6350972641147848,15.16065181827871,0.2495948183942415,0,Fixed-Wing
1970-01-01 00:01:09.579414688,1684,1539875348562123400,base_link,0,1,40.591801,-79.9007638,360.620786522,0.50409996953,0.0,0.0,0.0,0.50409996953,0.0,0.0,0.0,2.01639987812,1,42.55701606707771,167.8667867473469,360.61843038798395,-0.7832599569384273,15.049603700148559,0.974679013710438,0,Fixed-Wing
1970-01-01 00:01:10.009923104,1686,1539875348992493992,base_link,0,1,40.5918549,-79.9007662,360.920761786,0.50409996953,0.0,0.0,0.0,0.50409996953,0.0,0.0,0.0,2.01639987812,1,42.35380752184963,173.8525138757371,360.9182462710507,-0.5080886848209378,14.96630085583885,0.7496390348389714,0,Fixed-Wing
1970-01-01 00:01:10.362683968,1688,1539875349344895816,base_link,0,1,40.5919085,-79.9007665,361.170739325,0.50409996953,0.0,0.0,0.0,0.50409996953,0.0,0.0,0.0,2.01639987812,1,42.32837833427521,179.80492552424982,361.1680585543598,-0.06358139347069577,14.8830011189301,0.62461346955746,0,Fixed-Wing
1970-01-01 00:01:10.770292160,1690,1539875349753045288,base_link,0,1,40.5919623,-79.9007642,361.420719442,0.50409996953,0.0,0.0,0.0,0.50409996953,0.0,0.0,0.0,2.01639987812,1,42.52305645925556,185.7795494155898,361.4178657390155,0.4867598081254499,14.938539084778668,0.624600721234834,0,Fixed-Wing
1970-01-01 00:01:11.200701024,1692,1539875350183315560,base_link,0,1,40.5920166,-79.9007592,361.480702113,0.50409996953,0.0,0.0,0.0,0.50409996953,0.0,0.0,0.0,2.01639987812,1,42.94630558265786,191.80969559333468,361.47766665505964,1.0582630283570076,15.07736319498554,0.14952210178883524,0,Fixed-Wing
1970-01-01 00:01:11.579132832,1694,1539875350561239240,base_link,0,1,40.592071,-79.9007533,361.330685673,0.50409996953,0.0,0.0,0.0,0.50409996953,0.0,0.0,0.0,2.01639987812,1,43.445743436717144,197.85094111438002,361.32746185370536,1.2487600958609206,15.105115230381376,-0.37556176531959884,0,Fixed-Wing
1970-01-01 00:01:11.995252256,1696,1539875350977938216,base_link,0,1,40.5921253,-79.9007477,360.940668982,0.50409996953,0.0,0.0,0.0,0.50409996953,0.0,0.0,0.0,2.01639987812,1,43.91978192960871,203.88107336697647,360.9372515578882,1.185253278288288,15.077328377501132,-0.9756550138322212,0,Fixed-Wing
1970-01-01 00:01:12.357320896,1698,1539875351339965480,base_link,0,1,40.5921804,-79.9007428,360.460651265,0.50409996953,0.0,0.0,0.0,0.50409996953,0.0,0.0,0.0,2.01639987812,1,44.334558959145035,210.0000435061492,360.45703196486784,1.0370799869390805,15.299452525391478,-1.2007080763710323,0,Fixed-Wing
1970-01-01 00:01:12.779096160,1700,1539875351761615048,base_link,0,1,40.592236,-79.9007407,360.150630508,0.50409996953,0.0,0.0,0.0,0.50409996953,0.0,0.0,0.0,2.01639987812,1,44.512298379324434,216.1745433169858,360.1468031918738,0.4444074344335614,15.438295101192356,-0.7756747093840863,0,Fixed-Wing
1970-01-01 00:01:13.155989696,1702,1539875352138593928,base_link,0,1,40.5922917,-79.9007424,359.840605861,0.50409996953,0.0,0.0,0.0,0.50409996953,0.0,0.0,0.0,2.01639987812,1,44.36834364847617,222.36014589986797,359.8365663855791,-0.3599345184443551,15.466055709586977,-0.7756947952971537,0,Fixed-Wing
1970-01-01 00:01:13.556790208,1704,1539875352539342984,base_link,0,1,40.5923483,-79.9007463,359.640578622,0.50409996953,0.0,0.0,0.0,0.50409996953,0.0,0.0,0.0,2.01639987812,1,44.03814574001993,228.6456978734518,359.6363186677428,-0.8256041636922938,15.715962298964202,-0.5006856354374583,0,Fixed-Wing
1970-01-01 00:01:13.958997248,1706,1539875352941435592,base_link,0,1,40.5924059,-79.9007512,359.650549972,0.50409996953,0.0,0.0,0.0,0.50409996953,0.0,0.0,0.0,2.01639987812,1,43.62329308421144,235.04230910224334,359.6460597905776,-1.0372690776740123,15.993647230236826,0.024356034261637637,0,Fixed-Wing
1970-01-01 00:01:14.338621920,1708,1539875353319822024,base_link,0,1,40.5924645,-79.9007554,359.70052164,0.50409996953,0.0,0.0,0.0,0.50409996953,0.0,0.0,0.0,2.01639987812,1,43.26769999300634,241.54997461543127,359.69579015529956,-0.8891005338334856,16.271319732834428,0.12434238717114582,0,Fixed-Wing
1970-01-01 00:01:14.748941568,1710,1539875353731667144,base_link,0,1,40.5925242,-79.9007563,359.540496231,0.50409996953,0.0,0.0,0.0,0.50409996953,0.0,0.0,0.0,2.01639987812,1,43.19147006467813,248.1797912869523,359.53551012214155,-0.1906000753305073,16.576738096600405,-0.4007531826917491,0,Fixed-Wing
1970-01-01 00:01:15.225643104,1712,1539875354208097768,base_link,0,1,40.5925848,-79.9007526,359.070475148,0.50409996953,0.0,0.0,0.0,0.50409996953,0.0,0.0,0.0,2.01639987812,1,43.5046546344399,254.90954461927143,359.0652208630997,0.7830651805408553,16.826612857001354,-1.1758789515657395,0,Fixed-Wing
1970-01-01 00:01:15.573275168,1714,1539875354555434568,base_link,0,1,40.5926459,-79.9007454,358.330457436,0.50409996953,0.0,0.0,0.0,0.50409996953,0.0,0.0,0.0,2.01639987812,1,44.11413167584546,261.6948138344268,358.3249235195601,1.5238945195377251,16.965420956165072,-1.8509886148403827,0,Fixed-Wing
1970-01-01 00:01:15.982399168,1716,1539875354965161064,base_link,0,1,40.592708,-79.9007315,357.730446143,0.50409996953,0.0,0.0,0.0,0.50409996953,0.0,0.0,0.0,2.01639987812,1,45.29080098848877,268.5911432127129,357.72461661641046,2.94206310496969,17.243108157546153,-1.50096613588715,0,Fixed-Wing
1970-01-01 00:01:16.368525728,1718,1539875355351264968,base_link,0,1,40.5927712,-79.9007094,357.930442755,0.50409996953,0.0,0.0,0.0,0.50409996953,0.0,0.0,0.0,2.01639987812,1,47.16164909331597,275.60966806744955,357.9242995491662,4.677740062626307,17.54863733128803,0.49927348562625407,0,Fixed-Wing
1970-01-01 00:01:16.797839040,1720,1539875355768826408,base_link,0,1,40.5928342,-79.9006795,358.320447394,0.50409996953,0.0,0.0,0.0,0.50409996953,0.0,0.0,0.0,2.01639987812,1,49.69280869794995,282.6059962620161,358.3139781016128,6.328737569312877,17.493138327244758,0.9743254792424563,0,Fixed-Wing
1970-01-01 00:01:17.198042976,1722,1539875356180667176,base_link,0,1,40.5928963,-79.9006417,358.830460449,0.50409996953,0.0,0.0,0.0,0.50409996953,0.0,0.0,0.0,2.01639987812,1,52.89274383239871,289.50238934850745,358.8236554192587,8.000897955100946,17.243267449165373,1.2743621470993,0,Fixed-Wing
1970-01-01 00:01:17.561752544,1724,1539875356544284136,base_link,0,1,40.5929565,-79.9005964,359.120481919,0.50409996953,0.0,0.0,0.0,0.50409996953,0.0,0.0,0.0,2.01639987812,1,56.72758877045499,296.18778014327273,359.11333629303357,9.58838280586249,16.715691816078838,0.7242981539425012,0,Fixed-Wing
1970-01-01 00:01:17.976708768,1726,1539875356959407720,base_link,0,1,40.5930142,-79.9005415,359.150514183,0.50409996953,0.0,0.0,0.0,0.50409996953,0.0,0.0,0.0,2.01639987812,1,61.37511818875022,302.5955370676689,359.1430240853815,11.620363243867883,16.021515161749317,0.07422931625426077,0,Fixed-Wing
1970-01-01 00:01:18.372100992,1728,1539875357354768776,base_link,0,1,40.593069,-79.9004771,358.790557301,0.50409996953,0.0,0.0,0.0,0.50409996953,0.0,0.0,0.0,2.01639987812,1,66.82686346731825,308.68123353055677,358.7827201676375,13.631169326355808,15.216257311313452,-0.9008791608488967,0,Fixed-Wing
1970-01-01 00:01:18.773775104,1730,1539875357756281672,base_link,0,1,40.5931187,-79.9003997,358.190615728,0.50409996953,0.0,0.0,0.0,0.50409996953,0.0,0.0,0.0,2.01639987812,1,73.37911948887968,314.2005654848036,358.1824365275248,16.382810776331446,13.800158406605897,-1.5009079705877282,0,Fixed-Wing
