time,field.header.seq,field.header.stamp,field.header.frame_id,field.status.status,field.status.service,lat,lon,alt,field.position_covariance0,field.position_covariance1,field.position_covariance2,field.position_covariance3,field.position_covariance4,field.position_covariance5,field.position_covariance6,field.position_covariance7,field.position_covariance8,field.position_covariance_type,x,y,z,vel_x,vel_y,vel_z,track_id,uav_category
1970-01-01 00:00:00.000000000,838,1539875216605474696,base_link,0,1,40.5910702,-79.8960114,369.55594935,0.409599981689,0.0,0.0,0.0,0.409599981689,0.0,0.0,0.0,1.63839992676,1,454.94322253623994,91.05468353088074,369.53909656201546,-16.682757614544784,-2.917069717354821,-0.9492695416070039,0,Fixed-Wing
1970-01-01 00:00:00.400727392,840,1539875217001193544,base_link,0,1,40.5910597,-79.8960902,369.17587291,0.409599981689,0.0,0.0,0.0,0.409599981689,0.0,0.0,0.0,1.63839992676,1,448.27222151788146,89.8882231947232,369.1595083533349,-16.682757614544784,-2.917069717354821,-0.9492695416070039,0,Fixed-Wing
1970-01-01 00:00:00.791581440,842,1539875217395573032,base_link,0,1,40.5910525,-79.8961684,368.755795699,0.409599981689,0.0,0.0,0.0,0.409599981689,0.0,0.0,0.0,1.63839992676,1,441.6519894942929,89.08824449613789,368.73990356282957,-16.55579513443881,-2.0005769281956476,-1.0493425191568642,0,Fixed-Wing
1970-01-01 00:00:01.148198400,844,1539875217753576680,base_link,0,1,40.59105,-79.8962457,367.975717434,0.409599981689,0.0,0.0,0.0,0.409599981689,0.0,0.0,0.0,1.63839992676,1,435.1078940785187,88.81021767503356,367.96027830492756,-16.36539363843152,-0.6952860678722136,-1.9496772931023572,0,Fixed-Wing
1970-01-01 00:00:01.620332640,846,1539875218224700584,base_link,0,1,40.5910539,-79.8963209,366.775638628,0.409599981689,0.0,0.0,0.0,0.409599981689,0.0,0.0,0.0,1.63839992676,1,428.7415123417593,89.24293648622918,366.76062393473,-15.920969447274446,1.0821379014280186,-3.000080950993437,0,Fixed-Wing
1970-01-01 00:00:01.969511744,848,1539875218574991848,base_link,0,1,40.5910664,-79.8963927,365.235559686,0.409599981689,0.0,0.0,0.0,0.409599981689,0.0,0.0,0.0,1.63839992676,1,422.6628939096675,90.63072261828248,365.22093048601545,-15.201334500597156,3.470558556078397,-3.850446512437814,0,Fixed-Wing
1970-01-01 00:00:02.397247520,850,1539875219002705416,base_link,0,1,40.591087,-79.8964601,363.435481848,0.409599981689,0.0,0.0,0.0,0.409599981689,0.0,0.0,0.0,1.63839992676,1,416.9567078679596,92.91805417952264,363.42119467988533,-14.269960141714376,5.720130744284863,-4.500757253860255,0,Fixed-Wing
1970-01-01 00:00:02.826638976,852,1539875219431493768,base_link,0,1,40.5911117,-79.8965248,361.455405061,0.409599981689,0.0,0.0,0.0,0.409599981689,0.0,0.0,0.0,1.63839992676,1,411.479067802008,95.660713258778,361.4414324581784,-13.698415165656227,6.8588082227285625,-4.950965108276479,0,Fixed-Wing
1970-01-01 00:00:03.196766656,854,1539875219802176424,base_link,0,1,40.5911398,-79.8965878,359.475328596,0.409599981689,0.0,0.0,0.0,0.409599981689,0.0,0.0,0.0,1.63839992676,1,406.1453326934125,98.78096028344655,359.46164967843185,-13.338539411403284,7.803075530463455,-4.951016519569986,0,Fixed-Wing
1970-01-01 00:00:03.603517984,856,1539875220208691336,base_link,0,1,40.5911712,-79.8966495,357.805252088,0.409599981689,0.0,0.0,0.0,0.409599981689,0.0,0.0,0.0,1.63839992676,1,400.9216600396113,102.26769253459321,357.79184808662194,-13.063296572923477,8.719577294714492,-4.175819362624012,0,Fixed-Wing
1970-01-01 00:00:03.994796032,858,1539875220600120232,base_link,0,1,40.5912064,-79.8967098,356.615175429,0.409599981689,0.0,0.0,0.0,0.409599981689,0.0,0.0,0.0,1.63839992676,1,395.81652295233636,106.17643940892947,356.6020257908522,-12.766864280435723,9.774946293923234,-2.9754930197255027,0,Fixed-Wing
1970-01-01 00:00:04.392296512,860,1539875220997616616,base_link,0,1,40.5912445,-79.8967681,356.105099615,0.409599981689,0.0,0.0,0.0,0.409599981689,0.0,0.0,0.0,1.63839992676,1,390.88073288864445,110.40726045407891,356.09218191649603,-12.343363318675161,10.5803854342854,-1.2750113144545352,0,Fixed-Wing
1970-01-01 00:00:04.750045632,862,1539875221355397032,base_link,0,1,40.5912837,-79.896824,356.145025817,0.409599981689,0.0,0.0,0.0,0.409599981689,0.0,0.0,0.0,1.63839992676,1,386.1481540712107,114.76026199915235,356.1323189504234,-11.835175123748385,10.88593293155704,0.10037420269222615,0,Fixed-Wing
1970-01-01 00:00:05.193336512,864,1539875221798813512,base_link,0,1,40.5913228,-79.8968785,356.464953513,0.409599981689,0.0,0.0,0.0,0.409599981689,0.0,0.0,0.0,1.63839992676,1,381.5341184120687,119.102172715748,356.4524441214391,-11.538723845866352,10.85819712358305,0.8005651055475426,0,Fixed-Wing
1970-01-01 00:00:05.594644224,866,1539875222199969288,base_link,0,1,40.5913603,-79.8969322,357.064882719,0.409599981689,0.0,0.0,0.0,0.409599981689,0.0,0.0,0.0,1.63839992676,1,376.98783908775107,123.26641201213965,357.05256395384515,-11.369279633878802,10.413878612742154,1.5007723242972812,0,Fixed-Wing
1970-01-01 00:00:05.997723136,868,1539875222603118792,base_link,0,1,40.5913964,-79.8969853,357.784813145,0.435600034618,0.0,0.0,0.0,0.435600034618,0.0,0.0,0.0,1.74240013847,1,372.49237316609276,127.27518666735021,357.7726791930153,-11.242206099066976,10.02509454280738,1.800855367366038,0,Fixed-Wing
1970-01-01 00:00:06.390873024,870,1539875222996360552,base_link,0,1,40.5914314,-79.8970378,358.384744663,0.409599981689,0.0,0.0,0.0,0.409599981689,0.0,0.0,0.0,1.63839992676,1,368.0477045738947,131.1618074951562,358.3727894277656,-11.115172759914548,9.719613747845568,1.500748322597448,0,Fixed-Wing
1970-01-01 00:00:06.802527360,872,1539875223407620008,base_link,0,1,40.591467,-79.897089,358.774677276,0.409599981689,0.0,0.0,0.0,0.409599981689,0.0,0.0,0.0,1.63839992676,1,363.71307904610836,135.11506400993977,358.76288761106025,-10.839978412665813,9.886255457427993,0.9755527573551668,0,Fixed-Wing
1970-01-01 00:00:07.150135136,874,1539875223754731176,base_link,0,1,40.5915038,-79.8971381,358.964611551,0.409599981689,0.0,0.0,0.0,0.409599981689,0.0,0.0,0.0,1.63839992676,1,359.5562201052797,139.20159049654396,358.9529691382555,-10.395421909973315,10.21953537015206,0.47535355435781057,0,Fixed-Wing
1970-01-01 00:00:07.618062912,876,1539875224223286440,base_link,0,1,40.5915408,-79.8971865,359.024546473,0.409599981689,0.0,0.0,0.0,0.409599981689,0.0,0.0,0.0,1.63839992676,1,355.4586172188333,143.3103299283592,359.01304218623557,-10.247235095170968,10.275085231386017,0.1502299423819514,0,Fixed-Wing
1970-01-01 00:00:08.008284192,878,1539875224613710024,base_link,0,1,40.5915784,-79.8972348,358.974481262,0.409599981689,0.0,0.0,0.0,0.409599981689,0.0,0.0,0.0,1.63839992676,1,351.3694752936548,147.48570093836162,358.9631078081801,-10.22607602689478,10.441716665755733,-0.12487528085213889,0,Fixed-Wing
1970-01-01 00:00:08.393669472,880,1539875224998565640,base_link,0,1,40.591616,-79.8972836,358.864415554,0.435600034618,0.0,0.0,0.0,0.435600034618,0.0,0.0,0.0,1.74240013847,1,347.2380062039355,151.66107075018073,358.8531698795077,-10.331927281391755,10.44171366935362,-0.2749314250799575,0,Fixed-Wing
1970-01-01 00:00:08.792027392,882,1539875225397390888,base_link,0,1,40.5916534,-79.8973336,358.804348717,0.435600034618,0.0,0.0,0.0,0.435600034618,0.0,0.0,0.0,1.74240013847,1,343.00495713622894,155.81422882745085,358.7932314058709,-10.585957245798896,10.386166835728556,-0.14989340051303238,0,Fixed-Wing
1970-01-01 00:00:09.190896576,884,1539875225796266760,base_link,0,1,40.5916903,-79.8973852,358.854280467,0.409599981689,0.0,0.0,0.0,0.409599981689,0.0,0.0,0.0,1.63839992676,1,338.6364700187277,159.91185972386958,358.843294582241,-10.92465906135737,10.24730514216662,0.12519737809932144,0,Fixed-Wing
1970-01-01 00:00:09.598373280,886,1539875226203829960,base_link,0,1,40.5917268,-79.897438,359.144211172,0.409599981689,0.0,0.0,0.0,0.409599981689,0.0,0.0,0.0,1.63839992676,1,334.16641383684765,163.9650739862076,359.13335754719566,-11.178661733146111,10.136228567843949,0.7253859089479264,0,Fixed-Wing
1970-01-01 00:00:09.987369472,888,1539875226592696296,base_link,0,1,40.5917624,-79.8974916,359.424141451,0.409599981689,0.0,0.0,0.0,0.409599981689,0.0,0.0,0.0,1.63839992676,1,329.62864048020975,167.91834099608317,359.41342050898163,-11.348008014119195,9.88628170342548,0.7003780235423475,0,Fixed-Wing
1970-01-01 00:00:10.450578592,890,1539875227055682664,base_link,0,1,40.5917973,-79.8975465,359.534070707,0.435600034618,0.0,0.0,0.0,0.435600034618,0.0,0.0,0.0,1.74240013847,1,324.98081233680483,171.7938651401244,359.52348446734567,-11.6232316764904,9.691863297041658,0.2752465985886486,0,Fixed-Wing
1970-01-01 00:00:10.790914496,892,1539875227393189448,base_link,0,1,40.591833,-79.8976012,359.69399985,0.435600034618,0.0,0.0,0.0,0.435600034618,0.0,0.0,0.0,1.74240013847,1,320.3499189247403,175.75823628925608,359.68353926682227,-11.580881507836347,9.914050798830795,0.4002630815621859,0,Fixed-Wing
1970-01-01 00:00:11.189894432,894,1539875227795071176,base_link,0,1,40.5918691,-79.8976547,360.073930069,0.435600034618,0.0,0.0,0.0,0.435600034618,0.0,0.0,0.0,1.74240013847,1,315.820627346369,179.76704198098275,360.06358303792007,-11.326796886947568,10.025172158546638,0.950408806518561,0,Fixed-Wing
1970-01-01 00:00:11.590023680,896,1539875228195329960,base_link,0,1,40.591905,-79.8977081,360.03386049,0.435600034618,0.0,0.0,0.0,0.435600034618,0.0,0.0,0.0,1.74240013847,1,311.2997862348555,183.75362868749133,360.0236215029588,-11.305664062963595,9.969607192537087,-0.09993531702802516,0,Fixed-Wing
1970-01-01 00:00:11.993218976,898,1539875228598694248,base_link,0,1,40.5919416,-79.8977602,359.893791964,0.409599981689,0.0,0.0,0.0,0.409599981689,0.0,0.0,0.0,1.63839992676,1,306.88899572028964,187.81795630845494,359.8836477433008,-11.03045087844136,10.16402071893549,-0.35004466321392563,0,Fixed-Wing
1970-01-01 00:00:12.405685088,900,1539875229010992264,base_link,0,1,40.5919786,-79.8978113,359.98372431,0.435600034618,0.0,0.0,0.0,0.435600034618,0.0,0.0,0.0,1.74240013847,1,302.56287594925993,191.92671768214285,359.97366386342776,-10.818707320380193,10.275140103352335,0.2251112103486627,0,Fixed-Wing
1970-01-01 00:00:12.805462944,902,1539875229410954536,base_link,0,1,40.5920152,-79.8978618,360.073657451,0.409599981689,0.0,0.0,0.0,0.409599981689,0.0,0.0,0.0,1.63839992676,1,298.28755656743755,195.99106281501597,360.06367419080664,-10.691666329449738,10.164064512504225,0.22509672391522645,0,Fixed-Wing
1970-01-01 00:00:13.190765888,904,1539875229791915048,base_link,0,1,40.5920507,-79.8979122,360.333591167,0.409599981689,0.0,0.0,0.0,0.409599981689,0.0,0.0,0.0,1.63839992676,1,294.02072002627597,199.9332586683337,360.3236830843132,-10.67045254545577,9.85859509074794,0.6502270552887945,0,Fixed-Wing
1970-01-01 00:00:13.634869216,906,1539875230239966568,base_link,0,1,40.592086,-79.8979632,360.513524368,0.409599981689,0.0,0.0,0.0,0.409599981689,0.0,0.0,0.0,1.63839992676,1,289.70309096913513,203.85324230617766,360.503689187255,-10.797473847113928,9.803047054432035,0.4501570568274797,0,Fixed-Wing
1970-01-01 00:00:13.997794464,908,1539875230603343080,base_link,0,1,40.5921212,-79.8980143,360.523457523,0.409599981689,0.0,0.0,0.0,0.409599981689,0.0,0.0,0.0,1.63839992676,1,285.3769933934914,207.76211758343806,360.51369064990797,-10.81865181443094,9.775267402382731,0.025011535265987365,0,Fixed-Wing
1970-01-01 00:00:14.418020128,910,1539875231022769352,base_link,0,1,40.5921556,-79.8980653,360.533391127,0.409599981689,0.0,0.0,0.0,0.409599981689,0.0,0.0,0.0,1.63839992676,1,281.0593693317306,211.5821538654152,360.52368981474694,-10.797461354728728,9.553099931421244,0.02500578892094317,0,Fixed-Wing
1970-01-01 00:00:14.778885280,912,1539875231383964232,base_link,0,1,40.5921895,-79.8981166,360.363324647,0.409599981689,0.0,0.0,0.0,0.409599981689,0.0,0.0,0.0,1.63839992676,1,276.71634702857517,215.34665948665645,360.35368665997964,-10.860976965632693,9.414229535406792,-0.42514180658732664,0,Fixed-Wing
1970-01-01 00:00:15.207591648,914,1539875231812632712,base_link,0,1,40.5922229,-79.8981693,360.213256958,0.409599981689,0.0,0.0,0.0,0.409599981689,0.0,0.0,0.0,1.63839992676,1,272.2548133360752,219.055637655466,360.20368408190393,-11.157348796120738,9.275367162680123,-0.37512460944125936,0,Fixed-Wing
1970-01-01 00:00:15.602250848,916,1539875232207391528,base_link,0,1,40.5922561,-79.8982229,360.103188447,0.409599981689,0.0,0.0,0.0,0.409599981689,0.0,0.0,0.0,1.63839992676,1,267.71709609673314,222.74240654085705,360.0936793742878,-11.34786767667326,9.219826458812141,-0.27509842504427867,0,Fixed-Wing
1970-01-01 00:00:16.024765792,918,1539875232629519336,base_link,0,1,40.5922891,-79.8982771,359.89311942,0.409599981689,0.0,0.0,0.0,0.409599981689,0.0,0.0,0.0,1.63839992676,1,263.1285864069062,226.40696226860518,359.8836716748326,-11.474888814543919,9.164276066331237,-0.5251846818126745,0,Fixed-Wing
1970-01-01 00:00:16.375950016,920,1539875232981305000,base_link,0,1,40.5923221,-79.8983324,359.743049285,0.409599981689,0.0,0.0,0.0,0.409599981689,0.0,0.0,0.0,1.63839992676,1,258.44696212262835,230.07151953849524,359.7336612279681,-11.707748651519877,9.164279922900848,-0.37514428761181007,0,Fixed-Wing
1970-01-01 00:00:16.831307648,922,1539875233436767592,base_link,0,1,40.5923566,-79.8983874,359.632978851,0.409599981689,0.0,0.0,0.0,0.409599981689,0.0,0.0,0.0,1.63839992676,1,253.7907354302049,233.90266040224392,359.6236378102841,-11.64423466497808,9.580870133463756,-0.2751452149527929,0,Fixed-Wing
1970-01-01 00:00:17.198922880,924,1539875233804348488,base_link,0,1,40.5923928,-79.8984422,359.482907933,0.409599981689,0.0,0.0,0.0,0.409599981689,0.0,0.0,0.0,1.63839992676,1,249.1514370387975,237.92259206371966,359.47360049022296,-11.601900577200338,10.05299584738127,-0.3752114917727351,0,Fixed-Wing
1970-01-01 00:00:17.599709792,926,1539875234204956328,base_link,0,1,40.5924322,-79.8984952,359.282837546,0.409599981689,0.0,0.0,0.0,0.409599981689,0.0,0.0,0.0,1.63839992676,1,244.66451122744942,242.29789693658023,359.27353843432024,-11.22084909583537,10.941708820429854,-0.5003127382693542,0,Fixed-Wing
1970-01-01 00:00:18.009851488,928,1539875234614991080,base_link,0,1,40.5924775,-79.8985437,358.942769333,0.462400009727,0.0,0.0,0.0,0.462400009727,0.0,0.0,0.0,1.84960003891,1,240.5585166312586,247.32841971197576,358.93343262157975,-10.268220980085754,12.5802697234517,-0.850532449572839,0,Fixed-Wing
1970-01-01 00:00:18.369833408,930,1539875234975314056,base_link,0,1,40.5925296,-79.898585,358.53270568,0.462400009727,0.0,0.0,0.0,0.462400009727,0.0,0.0,0.0,1.84960003891,1,237.06202422611688,253.11411645735194,358.5232721651478,-8.74398536824534,14.468799535294082,-1.025724244216882,0,Fixed-Wing
1970-01-01 00:00:18.786024512,932,1539875235390789384,base_link,0,1,40.5925886,-79.8986178,358.262647877,0.462400009727,0.0,0.0,0.0,0.462400009727,0.0,0.0,0.0,1.84960003891,1,234.28509361873316,259.66610325433123,358.25305280869173,-6.944514040382017,16.38512830786521,-0.675761255935717,0,Fixed-Wing
1970-01-01 00:00:19.179948864,934,1539875235783920264,base_link,0,1,40.5926529,-79.8986407,357.792598013,0.462400009727,0.0,0.0,0.0,0.462400009727,0.0,0.0,0.0,1.84960003891,1,232.3462347523791,266.8066854248762,357.7827783492605,-4.848674498352113,17.857080406690542,-1.1760566064090423,0,Fixed-Wing
1970-01-01 00:00:19.603646112,936,1539875236208838536,base_link,0,1,40.5927218,-79.898646,357.722564234,0.409599981689,0.0,0.0,0.0,0.409599981689,0.0,0.0,0.0,1.63839992676,1,231.89731858418702,274.4581710661078,357.71243544126014,-1.1226440533570194,19.134741546666206,-0.17591268249594708,0,Fixed-Wing
1970-01-01 00:00:19.989868864,938,1539875236595295080,base_link,0,1,40.5927912,-79.898633,358.062548941,0.409599981689,0.0,0.0,0.0,0.409599981689,0.0,0.0,0.0,1.63839992676,1,232.99761399883974,282.16524924408856,358.05204299769827,2.7516052922988745,19.27376668145653,0.849286416316452,0,Fixed-Wing
1970-01-01 00:00:20.406075360,940,1539875237011389704,base_link,0,1,40.5928572,-79.8986033,358.882552102,0.409599981689,0.0,0.0,0.0,0.409599981689,0.0,0.0,0.0,1.63839992676,1,235.51168405157213,289.4948170409057,358.8716247021895,6.287155585840522,18.329693345446607,2.0495998851918684,0,Fixed-Wing
1970-01-01 00:00:20.780732064,942,1539875237386154152,base_link,0,1,40.5929182,-79.8985605,360.062570696,0.409599981689,0.0,0.0,0.0,0.409599981689,0.0,0.0,0.0,1.63839992676,1,239.13476758899967,296.26917828665347,360.0511968623533,9.060562920888913,16.94123960484502,2.949859606185557,0,Fixed-Wing
1970-01-01 00:00:21.198752928,944,1539875237803804936,base_link,0,1,40.5929743,-79.89851,361.012599172,0.409599981689,0.0,0.0,0.0,0.409599981689,0.0,0.0,0.0,1.63839992676,1,243.40970151834898,302.4993976672162,361.00077072075976,10.690702394627598,15.580456295139829,2.374682671057479,0,Fixed-Wing
1970-01-01 00:00:21.595206176,946,1539875238200661576,base_link,0,1,40.5930253,-79.8984527,361.772636691,0.409599981689,0.0,0.0,0.0,0.409599981689,0.0,0.0,0.0,1.63839992676,1,248.2602974449895,308.1632642912518,361.76034976901076,12.130310864523631,14.164128260490962,1.899545977610443,0,Fixed-Wing
1970-01-01 00:00:22.028741728,948,1539875238633178568,base_link,0,1,40.5930693,-79.8983882,362.192684437,0.409599981689,0.0,0.0,0.0,0.409599981689,0.0,0.0,0.0,1.63839992676,1,253.72041828409604,313.04977282341497,362.179944429426,13.654603297805151,12.220120668418529,1.04931718595161,0,Fixed-Wing
1970-01-01 00:00:22.412512128,950,1539875239011075880,base_link,0,1,40.5931061,-79.8983171,362.192741879,0.409599981689,0.0,0.0,0.0,0.409599981689,0.0,0.0,0.0,1.63839992676,1,259.7392681543733,317.13670741223444,362.1795575714471,15.051866013487375,10.220555947172045,-0.000967449693821762,0,Fixed-Wing
1970-01-01 00:00:22.792948128,952,1539875239398417480,base_link,0,1,40.5931338,-79.8982392,362.182809999,0.409599981689,0.0,0.0,0.0,0.409599981689,0.0,0.0,0.0,1.63839992676,1,266.3338025648808,320.2130903312186,362.1692000551722,16.491530858489156,7.6933807123848155,-0.02590194980142219,0,Fixed-Wing
1970-01-01 00:00:23.193988896,954,1539875239799095688,base_link,0,1,40.5931518,-79.8981556,362.082887921,0.409599981689,0.0,0.0,0.0,0.409599981689,0.0,0.0,0.0,1.63839992676,1,273.4109017521009,322.2122841930539,362.0688780465247,17.698322939776386,4.999559515835725,-0.2508840500946249,0,Fixed-Wing
1970-01-01 00:00:23.579277312,956,1539875240184659048,base_link,0,1,40.5931588,-79.898067,362.002975467,0.409599981689,0.0,0.0,0.0,0.409599981689,0.0,0.0,0.0,1.63839992676,1,280.9113197185082,322.989925598561,361.9886007144488,18.756953356325415,1.9447160993390349,-0.20075656850874543,0,Fixed-Wing
1970-01-01 00:00:24.004310688,958,1539875240609797032,base_link,0,1,40.5931566,-79.8979764,361.81306884,0.409599981689,0.0,0.0,0.0,0.409599981689,0.0,0.0,0.0,1.63839992676,1,288.581080875834,322.7458937107407,361.79836456725525,19.180444733405544,-0.6102719552166755,-0.47574022615513684,0,Fixed-Wing
1970-01-01 00:00:24.394303392,960,1539875240999796424,base_link,0,1,40.593149,-79.8978857,361.493164545,0.409599981689,0.0,0.0,0.0,0.409599981689,0.0,0.0,0.0,1.63839992676,1,296.25932540327216,321.9021807249783,361.4781515034624,19.201659841445437,-2.10994709774181,-0.8007849067277064,0,Fixed-Wing
1970-01-01 00:00:24.798038464,962,1539875241403498920,base_link,0,1,40.5931393,-79.8977957,360.923260413,0.409599981689,0.0,0.0,0.0,0.409599981689,0.0,0.0,0.0,1.63839992676,1,303.8783098730412,320.8252507655543,360.90794384498747,19.05346301527239,-2.6931732481331077,-1.4259683262101113,0,Fixed-Wing
1970-01-01 00:00:25.221224288,964,1539875241826590504,base_link,0,1,40.5931298,-79.8977075,360.233354377,0.409599981689,0.0,0.0,0.0,0.409599981689,0.0,0.0,0.0,1.63839992676,1,311.3449090367715,319.77052685979083,360.21773132462533,18.672379708934155,-2.637640621204347,-1.7260750145349237,0,Fixed-Wing
1970-01-01 00:00:25.598037024,966,1539875242203460072,base_link,0,1,40.5931212,-79.8976191,359.553448192,0.409599981689,0.0,0.0,0.0,0.409599981689,0.0,0.0,0.0,1.63839992676,1,318.82843596543626,318.81575898208644,359.53750389964625,18.714712456085493,-2.3876718108814234,-1.7011044103369557,0,Fixed-Wing
1970-01-01 00:00:26.038266304,968,1539875242643249960,base_link,0,1,40.5931135,-79.8975294,358.74354298,0.409599981689,0.0,0.0,0.0,0.409599981689,0.0,0.0,0.0,1.63839992676,1,326.4220039682746,317.9609442273261,358.7272579220035,18.989901826171163,-2.137710265634562,-2.026253213869246,0,Fixed-Wing
1970-01-01 00:00:26.392603008,970,1539875242997872360,base_link,0,1,40.5931079,-79.8974392,357.833637431,0.409599981689,0.0,0.0,0.0,0.409599981689,0.0,0.0,0.0,1.63839992676,1,334.0578837069135,317.33934416241175,357.8169886223502,19.09571449666368,-1.5544898265812044,-2.27639031208154,0,Fixed-Wing
1970-01-01 00:00:26.793160928,972,1539875243398654152,base_link,0,1,40.5931045,-79.8973495,357.233730481,0.409599981689,0.0,0.0,0.0,0.409599981689,0.0,0.0,0.0,1.63839992676,1,341.65144032908387,316.96208061659564,357.2166988317202,18.989873365536027,-0.9434560531970226,-1.5011973537415013,0,Fixed-Wing
1970-01-01 00:00:27.194510368,974,1539875243799865992,base_link,0,1,40.5931016,-79.8972588,356.913824362,0.409599981689,0.0,0.0,0.0,0.409599981689,0.0,0.0,0.0,1.63839992676,1,349.32966419672925,316.64036891509096,356.8963934290923,19.201608175688808,-0.8045326815563963,-0.8010158265550309,0,Fixed-Wing
1970-01-01 00:00:27.579978752,976,1539875244185403368,base_link,0,1,40.5930998,-79.8971686,357.073917295,0.409599981689,0.0,0.0,0.0,0.409599981689,0.0,0.0,0.0,1.63839992676,1,356.9655813361485,316.44084450094135,357.0560741231101,19.09580802807693,-0.49896821036028177,0.3993275232142268,0,Fixed-Wing
1970-01-01 00:00:27.989832768,978,1539875244595235432,base_link,0,1,40.5930971,-79.8970789,357.5540101,0.409599981689,0.0,0.0,0.0,0.409599981689,0.0,0.0,0.0,1.63839992676,1,364.55919481653297,316.1413946728143,357.53575293557225,18.990015555861287,-0.7488604613630313,1.1995748972480542,0,Fixed-Wing
1970-01-01 00:00:28.422420512,980,1539875245027562696,base_link,0,1,40.5930944,-79.8969899,357.924102205,0.409599981689,0.0,0.0,0.0,0.409599981689,0.0,0.0,0.0,1.63839992676,1,372.0935449859799,315.8419441147978,357.90542545783376,18.841810593954477,-0.7488622866614837,0.9244725144958412,0,Fixed-Wing
1970-01-01 00:00:28.822461504,982,1539875245427758568,base_link,0,1,40.5930915,-79.896902,358.21419328,0.409599981689,0.0,0.0,0.0,0.409599981689,0.0,0.0,0.0,1.63839992676,1,379.5347722633252,315.5202819677931,358.19509468593554,18.608930006315145,-0.8044087562699791,0.7244012566503106,0,Fixed-Wing
1970-01-01 00:00:29.215252000,984,1539875245819929192,base_link,0,1,40.5930879,-79.8968149,358.28428384,0.409599981689,0.0,0.0,0.0,0.409599981689,0.0,0.0,0.0,1.63839992676,1,386.9082673804211,315.12087619204,358.2647626654357,18.439546249808437,-0.9988290705399939,0.17422482957166183,0,Fixed-Wing
1970-01-01 00:00:29.625404800,986,1539875246230830952,base_link,0,1,40.5930825,-79.8967277,358.094375257,0.409599981689,0.0,0.0,0.0,0.409599981689,0.0,0.0,0.0,1.63839992676,1,394.29022349700193,314.5215711490815,358.0744323268774,18.460705413657433,-1.498734708829438,-0.475975778766019,0,Fixed-Wing
1970-01-01 00:00:29.992079392,988,1539875246597239656,base_link,0,1,40.5930755,-79.8966401,357.624467757,0.409599981689,0.0,0.0,0.0,0.409599981689,0.0,0.0,0.0,1.63839992676,1,401.70603442395213,313.7445777931665,357.6041011191473,18.545369108644724,-1.9430954648589565,-1.176198521859666,0,Fixed-Wing
1970-01-01 00:00:30.417291488,990,1539875247021214888,base_link,0,1,40.5930659,-79.8965513,356.924562572,0.409599981689,0.0,0.0,0.0,0.409599981689,0.0,0.0,0.0,1.63839992676,1,409.2234332094964,312.6788502659809,356.9037712083938,18.799418780776662,-2.6651583428420684,-1.7513764604688224,0,Fixed-Wing
1970-01-01 00:00:30.827267200,992,1539875247430703880,base_link,0,1,40.5930512,-79.8964611,356.214660938,0.409599981689,0.0,0.0,0.0,0.409599981689,0.0,0.0,0.0,1.63839992676,1,416.8593808571209,311.0467701302422,356.1934557978,19.095884322622886,-4.0814860074391035,-1.7763480761283568,0,Fixed-Wing
1970-01-01 00:00:31.187055584,994,1539875247783262536,base_link,0,1,40.5930292,-79.8963701,355.694763154,0.409599981689,0.0,0.0,0.0,0.409599981689,0.0,0.0,0.0,1.63839992676,1,424.5631131602636,308.604029798295,355.6731695566576,19.265399358654623,-6.108775094022526,-1.301125457375075,0,Fixed-Wing
1970-01-01 00:00:31.605274752,996,1539875248208040040,base_link,0,1,40.5929976,-79.8962803,355.334868127,0.422499969006,0.0,0.0,0.0,0.422499969006,0.0,0.0,0.0,1.68999987602,1,432.16533554077705,305.0951980365323,355.3129339204693,19.011544587828833,-8.77484348010307,-0.9008728654234819,0,Fixed-Wing
1970-01-01 00:00:32.004943328,998,1539875248610378344,base_link,0,1,40.5929567,-79.8961943,355.124973078,0.422499969006,0.0,0.0,0.0,0.422499969006,0.0,0.0,0.0,1.68999987602,1,439.4459451299189,300.55357669321216,355.102758282287,18.207259259521436,-11.357631012069092,-0.5256046609238153,0,Fixed-Wing
1970-01-01 00:00:32.348482112,1000,1539875248954056264,base_link,0,1,40.5929068,-79.8961134,355.125076556,0.422499969006,0.0,0.0,0.0,0.422499969006,0.0,0.0,0.0,1.68999987602,1,446.29489506854924,295.0124764924492,355.1026462248144,17.12777009415544,-13.857115493287807,-0.00028023195461597517,0,Fixed-Wing
1970-01-01 00:00:32.795913600,1002,1539875249401213672,base_link,0,1,40.5928485,-79.8960404,355.195175453,0.422499969006,0.0,0.0,0.0,0.422499969006,0.0,0.0,0.0,1.68999987602,1,452.4751384770722,288.53850633037143,355.1726071933634,15.455476996561375,-16.190025263152297,0.17495753299531613,0,Fixed-Wing
1970-01-01 00:00:33.158768768,1004,1539875249763795272,base_link,0,1,40.592783,-79.8959792,355.385265279,0.422499969006,0.0,0.0,0.0,0.422499969006,0.0,0.0,0.0,1.68999987602,1,457.65651476084514,281.26490895736845,355.3626535686436,12.957522328965924,-18.189723195313988,0.4752656468793835,0,Fixed-Wing
1970-01-01 00:00:33.568380384,1006,1539875250173902248,base_link,0,1,40.5927101,-79.895932,355.975343866,0.435600034618,0.0,0.0,0.0,0.435600034618,0.0,0.0,0.0,1.74240013847,1,461.6528019995327,273.16947187241476,355.95279728470024,9.99386616456073,-20.244969877895755,1.4758241747565886,0,Fixed-Wing
1970-01-01 00:00:33.991202496,1008,1539875250596638056,base_link,0,1,40.5926329,-79.8958986,356.845410134,0.422499969006,0.0,0.0,0.0,0.422499969006,0.0,0.0,0.0,1.68999987602,1,464.48089905677585,264.5964495506091,356.82302081418044,7.07247047130635,-21.43930918690797,2.1762443406678087,0,Fixed-Wing
1970-01-01 00:00:34.385114464,1010,1539875250989993736,base_link,0,1,40.5925542,-79.8958785,357.99546343,0.422499969006,0.0,0.0,0.0,0.422499969006,0.0,0.0,0.0,1.68999987602,1,466.18311084463625,255.85678841070427,357.973307542755,4.256870383821885,-21.85603750157513,2.8766229576680216,0,Fixed-Wing
1970-01-01 00:00:34.798191072,1012,1539875251403734152,base_link,0,1,40.5924763,-79.8958691,359.285505461,0.422499969006,0.0,0.0,0.0,0.422499969006,0.0,0.0,0.0,1.68999987602,1,466.9795125486482,247.205915107127,359.26363338560486,1.9916316239914111,-21.63399796830319,3.2268310589082603,0,Fixed-Wing
1970-01-01 00:00:35.192477408,1014,1539875251797977640,base_link,0,1,40.5924006,-79.8958678,360.475538303,0.422499969006,0.0,0.0,0.0,0.422499969006,0.0,0.0,0.0,1.68999987602,1,467.09017914199455,238.79930687451798,360.45397919717624,0.27675366076905716,-21.02314287152707,2.9768022216282533,0,Fixed-Wing
1970-01-01 00:00:35.625811360,1016,1539875252230517128,base_link,0,1,40.5923272,-79.8958711,361.5355655,0.422499969006,0.0,0.0,0.0,0.422499969006,0.0,0.0,0.0,1.68999987602,1,466.8114018354903,230.64808690331412,361.51432747442226,-0.6971628725654904,-20.384471036386106,2.65170598049891,0,Fixed-Wing
1970-01-01 00:00:36.040147456,1018,1539875252642719656,base_link,0,1,40.5922557,-79.8958771,362.305589162,0.422499969006,0.0,0.0,0.0,0.422499969006,0.0,0.0,0.0,1.68999987602,1,466.30401733660625,222.70783936984296,362.28467107285314,-1.2688609384057241,-19.856873748908818,1.9264658328145465,0,Fixed-Wing
1970-01-01 00:00:36.384015008,1020,1539875252989366536,base_link,0,1,40.5921864,-79.8958858,362.905609162,0.422499969006,0.0,0.0,0.0,0.422499969006,0.0,0.0,0.0,1.68999987602,1,465.5680316135599,215.01188523827415,362.88500947423745,-1.8405440790007008,-19.245947802479808,1.501318918920225,0,Fixed-Wing
1970-01-01 00:00:36.800663968,1022,1539875253406066440,base_link,0,1,40.5921183,-79.8958947,363.195628478,0.422499969006,0.0,0.0,0.0,0.422499969006,0.0,0.0,0.0,1.68999987602,1,464.81508205727255,207.44918150864117,363.1753346917301,-1.88296702533142,-18.91271682988384,0.7260417468818591,0,Fixed-Wing
1970-01-01 00:00:37.194158720,1024,1539875253799059464,base_link,0,1,40.5920513,-79.8959038,363.305647151,0.422499969006,0.0,0.0,0.0,0.422499969006,0.0,0.0,0.0,1.68999987602,1,464.0451789009373,200.00862815576824,363.28564757810955,-1.925364380618046,-18.60724466425159,0.275869114719789,0,Fixed-Wing
1970-01-01 00:00:37.619103552,1026,1539875254224482920,base_link,0,1,40.5919844,-79.8959123,363.275666419,0.422499969006,0.0,0.0,0.0,0.422499969006,0.0,0.0,0.0,1.68999987602,1,463.32605734772784,192.57917886720796,363.25594824959796,-1.798370369690071,-18.579475756263918,-0.07427171686977195,0,Fixed-Wing
1970-01-01 00:00:37.994074336,1028,1539875254599478472,base_link,0,1,40.5919177,-79.8959209,362.795685522,0.422499969006,0.0,0.0,0.0,0.422499969006,0.0,0.0,0.0,1.68999987602,1,462.5984347221815,185.17192665751722,362.77623996542155,-1.819629747236279,-18.523965573382462,-1.1996485997499484,0,Fixed-Wing
1970-01-01 00:00:38.383123712,1030,1539875254988452456,base_link,0,1,40.5918508,-79.8959296,361.715704627,0.422499969006,0.0,0.0,0.0,0.422499969006,0.0,0.0,0.0,1.68999987602,1,461.86230306523873,177.74244796574797,361.6965242133962,-1.8409090287009053,-18.579549287448664,-2.7001399241395516,0,Fixed-Wing
1970-01-01 00:00:38.843862144,1032,1539875255448123592,base_link,0,1,40.5917833,-79.8959391,360.375723184,0.422499969006,0.0,0.0,0.0,0.422499969006,0.0,0.0,0.0,1.68999987602,1,461.05843001681507,170.24632941716715,360.356805825728,-2.010315870558396,-18.746201424900903,-3.3503513298393974,0,Fixed-Wing
1970-01-01 00:00:39.178489696,1034,1539875255783579336,base_link,0,1,40.5917141,-79.8959491,359.135741964,0.422499969006,0.0,0.0,0.0,0.422499969006,0.0,0.0,0.0,1.68999987602,1,460.21224606376535,162.56142524829087,359.11708660355345,-2.116126462459968,-19.218314191160896,-3.100274641948535,0,Fixed-Wing
1970-01-01 00:00:39.592191488,1036,1539875256197726600,base_link,0,1,40.5916431,-79.8959599,358.295760702,0.422499969006,0.0,0.0,0.0,0.422499969006,0.0,0.0,0.0,1.68999987602,1,459.29837613432625,154.6766357281592,358.27736767627096,-2.2853947229354787,-19.718185028613203,-2.099958805229873,0,Fixed-Wing
1970-01-01 00:00:39.975101184,1038,1539875256579875048,base_link,0,1,40.5915705,-79.8959702,357.825780649,0.422499969006,0.0,0.0,0.0,0.422499969006,0.0,0.0,0.0,1.68999987602,1,458.4268705571732,146.61417601100771,357.8076411136175,-2.179450469780663,-20.162500480530074,-1.174686432860044,0,Fixed-Wing
1970-01-01 00:00:40.394639136,1040,1539875257000021192,base_link,0,1,40.5914974,-79.89598,357.525801344,0.422499969006,0.0,0.0,0.0,0.422499969006,0.0,0.0,0.0,1.68999987602,1,457.59770741929304,138.49619785818612,357.5079031394182,-2.073561016420497,-20.30134030424982,-0.7495810535300482,0,Fixed-Wing
1970-01-01 00:00:40.786391008,1042,1539875257391802920,base_link,0,1,40.5914242,-79.8959917,357.465820157,0.422499969006,0.0,0.0,0.0,0.422499969006,0.0,0.0,0.0,1.68999987602,1,456.6077114902901,130.367110502768,357.4481645475584,-2.4757696899596624,-20.3291220619948,-0.14939353861415822,0,Fixed-Wing
1970-01-01 00:00:41.181358272,1044,1539875257786695688,base_link,0,1,40.5913518,-79.8960072,357.735834759,0.422499969006,0.0,0.0,0.0,0.422499969006,0.0,0.0,0.0,1.68999987602,1,455.2960333592402,122.32685203136013,357.71843243517674,-3.2802285996336753,-20.106979877181015,0.6758826220717808,0,Fixed-Wing
1970-01-01 00:00:41.557792608,1046,1539875258161526984,base_link,0,1,40.5912801,-79.8960245,357.715847242,0.422499969006,0.0,0.0,0.0,0.422499969006,0.0,0.0,0.0,1.68999987602,1,453.8319434350665,114.36431530393014,357.6986972084767,-3.6613781445498335,-19.912614292076984,-0.04935361313826275,0,Fixed-Wing
1970-01-01 00:00:42.020307232,1048,1539875258625759944,base_link,0,1,40.5912095,-79.8960452,357.205855795,0.422499969006,0.0,0.0,0.0,0.422499969006,0.0,0.0,0.0,1.68999987602,1,452.07997248451863,106.52391083037458,357.1889660886761,-4.3813074882283995,-19.607187447935015,-1.2747293392432684,0,Fixed-Wing
1970-01-01 00:00:42.457234944,1050,1539875259062080776,base_link,0,1,40.5911405,-79.8960713,356.735858153,0.422499969006,0.0,0.0,0.0,0.422499969006,0.0,0.0,0.0,1.68999987602,1,449.8708388175327,98.86116472644235,356.71924808654944,-5.524574408403554,-19.162901573826307,-1.1746650247995196,0,Fixed-Wing
1970-01-01 00:00:42.789668320,1052,1539875259393458952,base_link,0,1,40.5910743,-79.8961042,356.615852368,0.422499969006,0.0,0.0,0.0,0.422499969006,0.0,0.0,0.0,1.68999987602,1,447.08603410328465,91.50933723131959,356.5995478059815,-6.964205510355826,-18.385360126246674,-0.29934499509330526,0,Fixed-Wing
1970-01-01 00:00:43.197761344,1054,1539875259803175080,base_link,0,1,40.5910131,-79.8961473,357.135834018,0.422499969006,0.0,0.0,0.0,0.422499969006,0.0,0.0,0.0,1.68999987602,1,443.4377255355139,84.71272940817329,357.1198778914157,-9.12364536771772,-16.996873573041267,1.3012351026427873,0,Fixed-Wing
1970-01-01 00:00:43.609767360,1056,1539875260215197352,base_link,0,1,40.590956,-79.8961973,357.525806867,0.422499969006,0.0,0.0,0.0,0.422499969006,0.0,0.0,0.0,1.68999987602,1,439.205234333214,78.37140052845666,357.51022443315895,-10.584562142824769,-15.858317569325905,0.9761738491206476,0,Fixed-Wing
1970-01-01 00:00:43.992935968,1058,1539875260598345864,base_link,0,1,40.5909046,-79.8962557,357.775768695,0.422499969006,0.0,0.0,0.0,0.422499969006,0.0,0.0,0.0,1.68999987602,1,434.2615619341622,72.66302813474076,357.76059202450045,-12.363075366369815,-14.275427744029132,0.6261162049583141,0,Fixed-Wing
1970-01-01 00:00:44.413847904,1060,1539875261019294312,base_link,0,1,40.590863,-79.896324,358.155716224,0.422499969006,0.0,0.0,0.0,0.422499969006,0.0,0.0,0.0,1.68999987602,1,428.4797130928254,68.04292390911601,358.1409811043795,-14.459176744016355,-11.55390004257527,0.9512723504879624,0,Fixed-Wing
1970-01-01 00:00:44.795116352,1062,1539875261400465160,base_link,0,1,40.590833,-79.8963994,358.695651563,0.422499969006,0.0,0.0,0.0,0.422499969006,0.0,0.0,0.0,1.68999987602,1,422.0967215755006,64.71099749397396,358.6813761867387,-15.962506983011641,-8.332440756693483,1.351413401119416,0,Fixed-Wing
1970-01-01 00:00:45.179646880,1064,1539875261785031720,base_link,0,1,40.5908125,-79.8964774,359.245580218,0.422499969006,0.0,0.0,0.0,0.422499969006,0.0,0.0,0.0,1.68999987602,1,415.4935539992245,62.434060450817384,359.23176052508586,-16.51312057367101,-5.694136260813604,1.3763944101070777,0,Fixed-Wing
1970-01-01 00:00:45.585780096,1066,1539875262188432744,base_link,0,1,40.5908023,-79.8965555,360.105504415,0.422499969006,0.0,0.0,0.0,0.422499969006,0.0,0.0,0.0,1.68999987602,1,408.8818725424128,61.300969943652206,360.0921223921125,-16.53441198180354,-2.83361885785317,2.151582416027684,0,Fixed-Wing
1970-01-01 00:00:45.993608576,1068,1539875262599026408,base_link,0,1,40.5907983,-79.8966312,361.115428457,0.422499969006,0.0,0.0,0.0,0.422499969006,0.0,0.0,0.0,1.68999987602,1,402.47333916484695,60.856421698286226,361.10245771298366,-16.026381754167176,-1.1117208054686707,2.5266341919483377,0,Fixed-Wing
1970-01-01 00:00:46.357257248,1070,1539875262962539624,base_link,0,1,40.5907971,-79.8967044,361.915353886,0.422499969006,0.0,0.0,0.0,0.422499969006,0.0,0.0,0.0,1.68999987602,1,396.27641887356725,60.722834580595986,361.90277187388193,-15.49718234063654,-0.3340730272291775,2.0014158482378632,0,Fixed-Wing
1970-01-01 00:00:46.797130112,1072,1539875263401091240,base_link,0,1,40.5907977,-79.8967754,362.355280817,0.422499969006,0.0,0.0,0.0,0.422499969006,0.0,0.0,0.0,1.68999987602,1,390.2657123458838,60.78915309578343,362.3430682425816,-15.031501242099894,0.16584853025564864,1.101087764394906,0,Fixed-Wing
1970-01-01 00:00:47.190889440,1074,1539875263796452680,base_link,0,1,40.5907989,-79.896845,362.435208939,0.422499969006,0.0,0.0,0.0,0.422499969006,0.0,0.0,0.0,1.68999987602,1,384.3735014460874,60.92211053208098,362.423352376812,-14.735168827671707,0.3324983277170933,0.20077357925345576,0,Fixed-Wing
1970-01-01 00:00:47.555549632,1076,1539875264160842984,base_link,0,1,40.5908002,-79.8969138,362.055137847,0.422499969006,0.0,0.0,0.0,0.422499969006,0.0,0.0,0.0,1.68999987602,1,378.54898932225194,61.06617688617504,362.0436277387778,-14.565868558184482,0.3602793732377318,-0.9496107224630517,0,Fixed-Wing
1970-01-01 00:00:47.964899616,1078,1539875264570159208,base_link,0,1,40.5908009,-79.8969825,361.54506712,0.422499969006,0.0,0.0,0.0,0.422499969006,0.0,0.0,0.0,1.68999987602,1,372.7329396779395,61.14361555548601,361.5338983010448,-14.544705693074425,0.19365767544517715,-1.2747251327492453,0,Fixed-Wing
1970-01-01 00:00:48.388438400,1080,1539875264993903784,base_link,0,1,40.5908004,-79.8970513,360.974996806,0.422499969006,0.0,0.0,0.0,0.422499969006,0.0,0.0,0.0,1.68999987602,1,366.9084283797513,61.08779498868438,360.9641657439578,-14.565866493415959,-0.13959538955178005,-1.4247801984801116,0,Fixed-Wing
1970-01-01 00:00:48.796094752,1082,1539875265401296168,base_link,0,1,40.5907994,-79.8971212,360.404925584,0.422499969006,0.0,0.0,0.0,0.422499969006,0.0,0.0,0.0,1.68999987602,1,360.9907967647158,60.97644832406664,360.3944327632139,-14.798740640890568,-0.27845437467237544,-1.424781257955954,0,Fixed-Wing
1970-01-01 00:00:49.192227936,1084,1539875265797356968,base_link,0,1,40.5907978,-79.8971918,359.814853907,0.422499969006,0.0,0.0,0.0,0.422499969006,0.0,0.0,0.0,1.68999987602,1,355.01390739354684,60.79847198912577,359.8046977741086,-14.946931711411509,-0.4450810378790954,-1.474802035404391,0,Fixed-Wing
1970-01-01 00:00:49.569474784,1086,1539875266173150440,base_link,0,1,40.5907958,-79.8972633,359.424781484,0.422499969006,0.0,0.0,0.0,0.422499969006,0.0,0.0,0.0,1.68999987602,1,348.9608395263715,60.57607790862474,359.4149610263994,-15.13743796089604,-0.5561603917759917,-0.9746488836713753,0,Fixed-Wing
1970-01-01 00:00:50.007024864,1088,1539875266612122856,base_link,0,1,40.5907934,-79.8973356,359.51470842,0.422499969006,0.0,0.0,0.0,0.422499969006,0.0,0.0,0.0,1.68999987602,1,342.8400733362739,60.309269294322036,359.5052219510739,-15.306737097429648,-0.6672317137465901,0.22572341456186218,0,Fixed-Wing
1970-01-01 00:00:50.358279456,1090,1539875266963429448,base_link,0,1,40.5907905,-79.8974079,359.734635575,0.422499969006,0.0,0.0,0.0,0.422499969006,0.0,0.0,0.0,1.68999987602,1,336.7193158955817,59.986940781517916,359.72547774021996,-15.306715217023903,-0.806075195696944,0.550812978953499,0,Fixed-Wing
1970-01-01 00:00:50.818348736,1092,1539875267423598632,base_link,0,1,40.5907872,-79.8974797,360.05456342,0.422499969006,0.0,0.0,0.0,0.422499969006,0.0,0.0,0.0,1.68999987602,1,330.6408937286444,59.620199171408586,360.04572656510356,-15.200843683103395,-0.9171429252947916,0.8008743376253674,0,Fixed-Wing
1970-01-01 00:00:51.199879744,1094,1539875267805272264,base_link,0,1,40.5907841,-79.897551,360.354491701,0.422499969006,0.0,0.0,0.0,0.422499969006,0.0,0.0,0.0,1.68999987602,1,324.6047974534951,59.27567459513688,360.3459676613064,-15.094995611490882,-0.8615828392736444,0.7508392548724184,0,Fixed-Wing
1970-01-01 00:00:51.609226464,1096,1539875268214294696,base_link,0,1,40.5907807,-79.8976221,360.514420321,0.422499969006,0.0,0.0,0.0,0.422499969006,0.0,0.0,0.0,1.68999987602,1,318.58562612763996,58.89783861309519,360.50620283727494,-15.052669905658169,-0.9448875946965497,0.4007141648832468,0,Fixed-Wing
1970-01-01 00:00:51.992177696,1098,1539875268597493320,base_link,0,1,40.5907781,-79.8976938,360.494347997,0.422499969006,0.0,0.0,0.0,0.422499969006,0.0,0.0,0.0,1.68999987602,1,312.51564645526867,58.608845524714326,360.4864330450225,-15.179730796129004,-0.7227103747201946,-0.04944005424813437,0,Fixed-Wing
1970-01-01 00:00:52.394180544,1100,1539875268999485576,base_link,0,1,40.5907758,-79.8977663,360.404274736,0.422499969006,0.0,0.0,0.0,0.422499969006,0.0,0.0,0.0,1.68999987602,1,306.3779350810401,58.3531696441718,360.39665947720454,-15.349113406294379,-0.6393911095558253,-0.22450463850609348,0,Fixed-Wing
1970-01-01 00:00:52.793927136,1102,1539875269399253768,base_link,0,1,40.5907734,-79.8978398,360.244200501,0.422499969006,0.0,0.0,0.0,0.422499969006,0.0,0.0,0.0,1.68999987602,1,300.1555624408177,58.08638954687362,360.23688310543565,-15.560833263033935,-0.667160398771065,-0.3995667929619953,0,Fixed-Wing
1970-01-01 00:00:53.174798048,1104,1539875269780029928,base_link,0,1,40.5907714,-79.8979144,360.114124981,0.422499969006,0.0,0.0,0.0,0.422499969006,0.0,0.0,0.0,1.68999987602,1,293.8400653015282,57.864032174263684,360.1071032595511,-15.793717869352466,-0.556068593131673,-0.32455184854371744,0,Fixed-Wing
1970-01-01 00:00:53.605522016,1106,1539875270210978440,base_link,0,1,40.5907694,-79.8979902,360.094048241,0.422499969006,0.0,0.0,0.0,0.422499969006,0.0,0.0,0.0,1.68999987602,1,287.4229831806261,57.641677240497614,360.08732051302803,-16.047760346764573,-0.5560624941008167,-0.049472450129413016,0,Fixed-Wing
1970-01-01 00:00:54.007101504,1108,1539875270612441064,base_link,0,1,40.590767,-79.8980668,360.123970861,0.422499969006,0.0,0.0,0.0,0.422499969006,0.0,0.0,0.0,1.68999987602,1,280.9381780439803,57.374904814730456,360.11753405111807,-16.2171212348034,-0.6671412139002735,0.07555764588354863,0,Fixed-Wing
1970-01-01 00:00:54.389637824,1110,1539875270995124904,base_link,0,1,40.5907653,-79.8981439,360.273892683,0.422499969006,0.0,0.0,0.0,0.422499969006,0.0,0.0,0.0,1.68999987602,1,274.4110455839163,57.1858741514269,360.26774131807235,-16.322972886619347,-0.47272556681243344,0.3756364928809641,0,Fixed-Wing
1970-01-01 00:00:54.796720512,1112,1539875271402154472,base_link,0,1,40.5907628,-79.8982204,360.573815467,0.422499969006,0.0,0.0,0.0,0.422499969006,0.0,0.0,0.0,1.68999987602,1,267.934716884559,56.90801052305295,360.5679415341508,-16.195923464284455,-0.6948779574914853,0.7507370223581713,0,Fixed-Wing
1970-01-01 00:00:55.168667264,1114,1539875271773959656,base_link,0,1,40.5907592,-79.8982964,360.833739235,0.422499969006,0.0,0.0,0.0,0.422499969006,0.0,0.0,0.0,1.68999987602,1,261.500718842065,56.50799608974168,360.82813551039,-16.09006347623004,-1.000351193904255,0.650689907918943,0,Fixed-Wing
1970-01-01 00:00:55.587343040,1116,1539875272192771400,base_link,0,1,40.5907564,-79.8983729,361.103662164,0.422499969006,0.0,0.0,0.0,0.422499969006,0.0,0.0,0.0,1.68999987602,1,255.0243878429796,56.196827663183484,361.0983230464285,-16.19592921541637,-0.7781661887449474,0.6756816798254455,0,Fixed-Wing
1970-01-01 00:00:56.043567904,1118,1539875272648783976,base_link,0,1,40.5907541,-79.8984491,361.113585198,0.422499969006,0.0,0.0,0.0,0.422499969006,0.0,0.0,0.0,1.68999987602,1,248.57344125059555,55.94118955518695,361.10850263188627,-16.13244820214378,-0.6392966484355871,0.025456982593924826,0,Fixed-Wing
1970-01-01 00:00:56.395328000,1120,1539875273000648296,base_link,0,1,40.5907516,-79.898525,360.783508633,0.422499969006,0.0,0.0,0.0,0.422499969006,0.0,0.0,0.0,1.68999987602,1,242.14787948954012,55.66334441626606,360.77867532398125,-16.06896612696858,-0.6948317192938159,-0.8248280906110936,0,Fixed-Wing
1970-01-01 00:00:56.792314848,1122,1539875273397820104,base_link,0,1,40.5907504,-79.8986019,360.223430506,0.422499969006,0.0,0.0,0.0,0.422499969006,0.0,0.0,0.0,1.68999987602,1,235.63764665898992,55.52986814755832,360.21884184370356,-16.280710500183044,-0.33379581745184395,-1.4000247084773927,0,Fixed-Wing
1970-01-01 00:00:57.172307136,1124,1539875273777673992,base_link,0,1,40.5907518,-79.8986803,359.61334976,0.422499969006,0.0,0.0,0.0,0.422499969006,0.0,0.0,0.0,1.68999987602,1,229.00041677681065,55.685129184627016,359.60900114038884,-16.598303170947023,0.38827489926501285,-1.5250821591669297,0,Fixed-Wing
1970-01-01 00:00:57.602429280,1126,1539875274207877704,base_link,0,1,40.5907558,-79.8987598,359.083266805,0.422499969006,0.0,0.0,0.0,0.422499969006,0.0,0.0,0.0,1.68999987602,1,222.2700586101075,56.12912993561426,359.0791520280169,-16.83119724388971,1.1103516382341512,-1.3250401685829751,0,Fixed-Wing
1970-01-01 00:00:57.999545312,1128,1539875274604805448,base_link,0,1,40.590762,-79.89884,358.793182219,0.422499969006,0.0,0.0,0.0,0.422499969006,0.0,0.0,0.0,1.68999987602,1,215.4804426755415,56.81745210115372,358.7892939866746,-16.97938834374328,1.7213476383547335,-0.7248734384889073,0,Fixed-Wing
1970-01-01 00:00:58.401454656,1130,1539875275006685192,base_link,0,1,40.5907702,-79.8989202,358.743096803,0.422499969006,0.0,0.0,0.0,0.422499969006,0.0,0.0,0.0,1.68999987602,1,208.69083023689976,57.72788709160838,358.7394258102378,-16.97937960117872,2.2768046696075785,-0.12470972465527383,0,Fixed-Wing
1970-01-01 00:00:58.793236320,1132,1539875275398365256,base_link,0,1,40.5907811,-79.8989993,359.043011388,0.422499969006,0.0,0.0,0.0,0.422499969006,0.0,0.0,0.0,1.68999987602,1,201.99434647077348,58.93817513857309,359.0395445731716,-16.746484557951447,3.02667351957043,0.7505333253320662,0,Fixed-Wing
1970-01-01 00:00:59.197451680,1134,1539875275802875208,base_link,0,1,40.5907937,-79.899077,359.7329267,0.422499969006,0.0,0.0,0.0,0.422499969006,0.0,0.0,0.0,1.68999987602,1,195.41639262782206,60.3372649938342,359.7296514015767,-16.4500663782877,3.498826768584879,1.7258107013836308,0,Fixed-Wing
1970-01-01 00:00:59.574187840,1136,1539875276178908744,base_link,0,1,40.5908065,-79.8991526,360.392844087,0.422499969006,0.0,0.0,0.0,0.422499969006,0.0,0.0,0.0,1.68999987602,1,189.01622047068477,61.75857563440846,360.3897477483215,-16.005472116559943,3.5543962362500743,1.6507608565318281,0,Fixed-Wing
1970-01-01 00:00:59.984387904,1138,1539875276589506792,base_link,0,1,40.5908182,-79.8992263,360.842763889,0.422499969006,0.0,0.0,0.0,0.422499969006,0.0,0.0,0.0,1.68999987602,1,182.77689686190067,63.05773638749605,360.8398363884562,-15.603224037532083,3.2489252941866464,1.1255761568261724,0,Fixed-Wing
1970-01-01 00:01:00.394441824,1140,1539875276999826376,base_link,0,1,40.5908286,-79.899298,360.992686292,0.422499969006,0.0,0.0,0.0,0.422499969006,0.0,0.0,0.0,1.68999987602,1,176.70688590689934,64.21253552600479,360.9899180488445,-15.17980902734692,2.8879075371460403,0.37532237751969244,0,Fixed-Wing
1970-01-01 00:01:00.766893536,1142,1539875277372386472,base_link,0,1,40.590838,-79.8993687,360.922610147,0.422499969006,0.0,0.0,0.0,0.422499969006,0.0,0.0,0.0,1.68999987602,1,170.72153131720768,65.25628703512098,360.91999406180855,-14.968101426178414,2.6102009861011,-0.17486505008068381,0,Fixed-Wing
1970-01-01 00:01:01.155379904,1144,1539875277760818888,base_link,0,1,40.5908473,-79.8994389,360.702534566,0.422499969006,0.0,0.0,0.0,0.422499969006,0.0,0.0,0.0,1.68999987602,1,164.7785039551378,66.28893747030372,360.7000638806463,-14.862250013929062,2.5824395564171345,-0.5499987024968522,0,Fixed-Wing
1970-01-01 00:01:01.575836128,1146,1539875278181212168,base_link,0,1,40.5908567,-79.8995091,360.412458952,0.422499969006,0.0,0.0,0.0,0.422499969006,0.0,0.0,0.0,1.68999987602,1,158.83547667156984,67.3326970620868,360.4101278546706,-14.862249817612478,2.6102211991354074,-0.7250684615047456,0,Fixed-Wing
1970-01-01 00:01:01.984102784,1148,1539875278589536488,base_link,0,1,40.5908667,-79.8995804,360.022381974,0.422499969006,0.0,0.0,0.0,0.422499969006,0.0,0.0,0.0,1.68999987602,1,152.79932397208898,68.44308968953553,360.020186274224,-15.095136716767911,2.7768562783495105,-0.9751611268714367,0,Fixed-Wing
1970-01-01 00:01:02.358779232,1150,1539875278964236776,base_link,0,1,40.5908773,-79.899653,359.342303428,0.422499969006,0.0,0.0,0.0,0.422499969006,0.0,0.0,0.0,1.68999987602,1,146.65311038933805,69.62011310208052,359.3402390277695,-15.370375625199266,2.9434857293672443,-1.7004037433154027,0,Fixed-Wing
1970-01-01 00:01:02.771986720,1152,1539875279377007560,base_link,0,1,40.5908891,-79.8997285,358.982221431,0.422499969006,0.0,0.0,0.0,0.422499969006,0.0,0.0,0.0,1.68999987602,1,140.2613963459726,70.93040299850335,358.9802861080412,-15.984320169266953,3.2767569194867137,-0.9001658515639938,0,Fixed-Wing
1970-01-01 00:01:03.223738784,1154,1539875279829187880,base_link,0,1,40.5909035,-79.8998058,358.782136519,0.422499969006,0.0,0.0,0.0,0.422499969006,0.0,0.0,0.0,1.68999987602,1,133.71729905199211,72.5294332159472,358.78032351870195,-16.36539833542687,3.998835176690257,-0.5000639935060451,0,Fixed-Wing
1970-01-01 00:01:03.637535584,1156,1539875280241270376,base_link,0,1,40.5909196,-79.8998831,358.962050909,0.422499969006,0.0,0.0,0.0,0.422499969006,0.0,0.0,0.0,1.68999987602,1,127.17320931919917,74.31726237447819,358.9603509192509,-16.3653794265017,4.4709812554229496,0.4502103176224648,0,Fixed-Wing
1970-01-01 00:01:03.981676704,1158,1539875280587209832,base_link,0,1,40.5909357,-79.8999599,359.441965823,0.422499969006,0.0,0.0,0.0,0.422499969006,0.0,0.0,0.0,1.68999987602,1,120.67145700249804,76.10510165709499,359.44037083815846,-16.259502535051364,4.471006573612691,1.2004279320674618,0,Fixed-Wing
1970-01-01 00:01:04.372058080,1160,1539875280977197768,base_link,0,1,40.5909508,-79.9000354,359.911882495,0.422499969006,0.0,0.0,0.0,0.422499969006,0.0,0.0,0.0,1.68999987602,1,114.27976368246024,77.78189615651843,359.91038478414407,-15.984268344623063,4.193307140307789,1.1754051175760694,0,Fixed-Wing
1970-01-01 00:01:04.794759456,1162,1539875281400170632,base_link,0,1,40.5909644,-79.9001096,360.371801134,0.422499969006,0.0,0.0,0.0,0.422499969006,0.0,0.0,0.0,1.68999987602,1,107.99812985642112,79.29211940696487,360.3703940784552,-15.709032910464611,3.7767478016736367,1.1503856072441192,0,Fixed-Wing
1970-01-01 00:01:05.185672416,1164,1539875281790852296,base_link,0,1,40.5909776,-79.9001832,360.121720565,0.422499969006,0.0,0.0,0.0,0.422499969006,0.0,0.0,0.0,1.68999987602,1,101.76728171972938,80.75791893241797,360.1203973833242,-15.582028680763774,3.665653494483495,-0.6251886722593044,0,Fixed-Wing
1970-01-01 00:01:05.627521920,1166,1539875282233025288,base_link,0,1,40.5909917,-79.9002565,359.881639938,0.422499969006,0.0,0.0,0.0,0.422499969006,0.0,0.0,0.0,1.68999987602,1,95.56183275908685,82.32367106826925,359.8803925435617,-15.518510732487053,3.9156137579619674,-0.6002011627725019,0,Fixed-Wing
1970-01-01 00:01:06.020997856,1168,1539875282626382344,base_link,0,1,40.5910057,-79.9003299,359.691559263,0.422499969006,0.0,0.0,0.0,0.422499969006,0.0,0.0,0.0,1.68999987602,1,89.34792191694379,83.87832358646702,359.69038150465065,-15.539672102069813,3.887855970125014,-0.47517727812023863,0,Fixed-Wing
1970-01-01 00:01:06.408696320,1170,1539875283014065192,base_link,0,1,40.5910209,-79.9004034,359.341477997,0.422499969006,0.0,0.0,0.0,0.422499969006,0.0,0.0,0.0,1.68999987602,1,83.12554468261774,85.5662416912115,359.34036177149414,-15.560844751911969,4.2211249162098134,-0.875325060285241,0,Fixed-Wing
1970-01-01 00:01:06.800038688,1172,1539875283404304968,base_link,0,1,40.5910397,-79.900477,358.931395137,0.422499969006,0.0,0.0,0.0,0.422499969006,0.0,0.0,0.0,1.68999987602,1,76.8947003195161,87.65395209155457,358.930328541126,-15.582019243815898,5.220920590843791,-1.0254060788351542,0,Fixed-Wing
1970-01-01 00:01:07.208116736,1174,1539875283813586344,base_link,0,1,40.5910641,-79.9005502,358.37131036,0.422499969006,0.0,0.0,0.0,0.422499969006,0.0,0.0,0.0,1.68999987602,1,70.6977158047429,90.36355833512621,358.3702774549912,-15.497342949962253,6.776150096209411,-1.4005688945388293,0,Fixed-Wing
1970-01-01 00:01:07.609533664,1176,1539875284214983976,base_link,0,1,40.5910958,-79.9006215,358.001224487,0.422499969006,0.0,0.0,0.0,0.422499969006,0.0,0.0,0.0,1.68999987602,1,64.66158149126564,93.88385494356436,358.00020456896505,-15.095090737275397,8.803514628203246,-0.9254737392932539,0,Fixed-Wing
1970-01-01 00:01:08.020815392,1178,1539875284626251528,base_link,0,1,40.591136,-79.9006894,357.781138549,0.422499969006,0.0,0.0,0.0,0.422499969006,0.0,0.0,0.0,1.68999987602,1,58.91328366395587,98.34810480540824,357.78010679760723,-14.375272779199856,11.164141359137833,-0.5504178100046866,0,Fixed-Wing
1970-01-01 00:01:08.399995584,1180,1539875285004573384,base_link,0,1,40.5911863,-79.9007507,357.651055144,0.422499969006,0.0,0.0,0.0,0.422499969006,0.0,0.0,0.0,1.68999987602,1,53.723726165313494,103.93399207043458,357.6499803591981,-12.977981810876376,13.969118434872843,-0.3254186028827821,0,Fixed-Wing
1970-01-01 00:01:08.792635104,1182,1539875285398049480,base_link,0,1,40.5912463,-79.9008028,357.740977093,0.47609999671,0.0,0.0,0.0,0.47609999671,0.0,0.0,0.0,1.90439998684,1,49.31302074039022,110.59709858262346,357.73982555236995,-11.03023808730568,16.663015130238215,0.22468375831353934,0,Fixed-Wing
1970-01-01 00:01:09.209081344,1184,1539875285814489000,base_link,0,1,40.5913137,-79.9008434,358.090907699,0.47609999671,0.0,0.0,0.0,0.47609999671,0.0,0.0,0.0,1.90439998684,1,45.87588081075278,118.08200545403696,358.08964726802117,-8.595557424682372,18.71816340000475,0.8748298605341105,0,Fixed-Wing
1970-01-01 00:01:09.598310752,1186,1539875286198848392,base_link,0,1,40.591387,-79.9008721,358.570847998,0.47609999671,0.0,0.0,0.0,0.47609999671,0.0,0.0,0.0,1.90439998684,1,43.44616736093473,126.22213162005772,358.56944828182856,-6.076197626797573,20.356727784303963,1.1998804968749885,0,Fixed-Wing
1970-01-01 00:01:10.039192160,1188,1539875286644304168,base_link,0,1,40.5914639,-79.9008853,359.12080261,0.422499969006,0.0,0.0,0.0,0.422499969006,0.0,0.0,0.0,1.68999987602,1,42.328645100725055,134.7620569591152,359.1192352555596,-2.7946859766068193,21.356540657950944,1.3749005279939313,0,Fixed-Wing
1970-01-01 00:01:10.394167776,1190,1539875286999587944,base_link,0,1,40.591542,-79.900881,360.030774567,0.422499969006,0.0,0.0,0.0,0.422499969006,0.0,0.0,0.0,1.68999987602,1,42.692627859440606,143.43526326521481,360.0290151846034,0.9102436235302892,21.689848067390265,2.275166500057001,0,Fixed-Wing
1970-01-01 00:01:10.815212544,1192,1539875287420609704,base_link,0,1,40.5916183,-79.9008688,361.000755338,0.422499969006,0.0,0.0,0.0,0.422499969006,0.0,0.0,0.0,1.68999987602,1,43.725402685794535,151.90858333366944,360.9987923166678,2.582750632334008,21.189975013265745,2.425206770293627,0,Fixed-Wing
1970-01-01 00:01:11.217952448,1194,1539875287822177320,base_link,0,1,40.5916914,-79.9008524,362.120741736,0.422499969006,0.0,0.0,0.0,0.422499969006,0.0,0.0,0.0,1.68999987602,1,45.11373824217452,160.02654466197646,362.1185700709789,3.4719325497031197,20.301298229709904,2.8003264886216344,0,Fixed-Wing
1970-01-01 00:01:11.608519904,1196,1539875288213949512,base_link,0,1,40.5917619,-79.9008346,363.030730659,0.435600034618,0.0,0.0,0.0,0.435600034618,0.0,0.0,0.0,1.74240013847,1,46.62059128844701,167.85576826139393,363.0283464500932,3.768319636366679,19.579226454876974,2.2751576224368306,0,Fixed-Wing
1970-01-01 00:01:11.998944608,1198,1539875288601285416,base_link,0,1,40.5918297,-79.9008165,363.650721026,0.422499969006,0.0,0.0,0.0,0.422499969006,0.0,0.0,0.0,1.68999987602,1,48.152838414552036,175.38514524691738,363.64812236446767,3.831824840087194,18.82937371652931,1.5499280132603923,0,Fixed-Wing
1970-01-01 00:01:12.398731424,1200,1539875289004101000,base_link,0,1,40.5918958,-79.9007986,363.860711913,0.422499969006,0.0,0.0,0.0,0.422499969006,0.0,0.0,0.0,1.68999987602,1,49.66814945044129,182.72572316128316,363.8578950784215,3.7894712731741866,18.357227312517896,0.5245970329499773,0,Fixed-Wing
1970-01-01 00:01:12.796360224,1202,1539875289401669832,base_link,0,1,40.5919605,-79.9007819,363.690702177,0.435600034618,0.0,0.0,0.0,0.435600034618,0.0,0.0,0.0,1.74240013847,1,51.08186755580978,189.91081657551544,363.6876637982659,3.5354089172301486,17.96839357955827,-0.4257122997635084,0,Fixed-Wing
1970-01-01 00:01:13.195984480,1204,1539875289801218280,base_link,0,1,40.5920249,-79.9007691,363.340688616,0.435600034618,0.0,0.0,0.0,0.435600034618,0.0,0.0,0.0,1.74240013847,1,52.165420723747005,197.0625863504936,363.33742400243216,2.7097364868364164,17.885058230788108,-0.8758753903322436,0,Fixed-Wing
1970-01-01 00:01:13.592918912,1206,1539875290197340744,base_link,0,1,40.5920894,-79.9007597,362.660671574,0.435600034618,0.0,0.0,0.0,0.435600034618,0.0,0.0,0.0,1.74240013847,1,52.96113659996293,204.2254481702373,362.6571745402985,1.9899165142417923,17.912797080439613,-1.7011595205830963,0,Fixed-Wing
1970-01-01 00:01:14.021295488,1208,1539875290626677352,base_link,0,1,40.5921544,-79.9007524,361.87065221,0.435600034618,0.0,0.0,0.0,0.435600034618,0.0,0.0,0.0,1.74240013847,1,53.57907089351582,211.4438298627217,361.8669142413795,1.5453225104730295,18.05164049796786,-1.9762732733786357,0,Fixed-Wing
1970-01-01 00:01:14.437956736,1210,1539875291042895944,base_link,0,1,40.5922202,-79.9007471,361.140630502,0.435600034618,0.0,0.0,0.0,0.435600034618,0.0,0.0,0.0,1.74240013847,1,54.02769097476285,218.7510525996884,361.13664173198174,1.1219036027524387,18.273813093541165,-1.826256544305867,0,Fixed-Wing
1970-01-01 00:01:14.793896768,1212,1539875291399166120,base_link,0,1,40.5922872,-79.9007457,360.630604355,0.435600034618,0.0,0.0,0.0,0.435600034618,0.0,0.0,0.0,1.74240013847,1,54.14615151484169,226.19154197377873,360.62635443116756,0.2962446672672961,18.607084666895904,-1.2761202299078813,0,Fixed-Wing
1970-01-01 00:01:15.220073248,1214,1539875291825442824,base_link,0,1,40.5923547,-79.9007477,360.350574568,0.435600034618,0.0,0.0,0.0,0.435600034618,0.0,0.0,0.0,1.74240013847,1,53.97678232775628,233.687562764218,360.3460551862099,-0.42355638797573275,18.745956952538236,-0.7009689176031256,0,Fixed-Wing
1970-01-01 00:01:15.570122144,1216,1539875292175484488,base_link,0,1,40.5924217,-79.9007523,360.120542364,0.435600034618,0.0,0.0,0.0,0.435600034618,0.0,0.0,0.0,1.74240013847,1,53.5873084697967,241.12805713371012,360.1157486442033,-0.9739914522063939,18.607097159335478,-0.57594777856686,0,Fixed-Wing
1970-01-01 00:01:15.999028192,1218,1539875292604140520,base_link,0,1,40.5924882,-79.900758,360.070509271,0.47609999671,0.0,0.0,0.0,0.47609999671,0.0,0.0,0.0,1.90439998684,1,53.104715699134545,248.51303127651568,360.065435431794,-1.2068620882131833,18.46825285666375,-0.12582266516268736,0,Fixed-Wing
1970-01-01 00:01:16.382959648,1220,1539875292988053256,base_link,0,1,40.5925542,-79.9007618,360.130478337,0.47609999671,0.0,0.0,0.0,0.47609999671,0.0,0.0,0.0,1.90439998684,1,52.78297145557951,255.84248481860146,360.125116676962,-0.8046140623172076,18.32940761861433,0.1492501267099336,0,Fixed-Wing
1970-01-01 00:01:16.779906720,1222,1539875293384816008,base_link,0,1,40.5926202,-79.9007618,360.320451289,0.47609999671,0.0,0.0,0.0,0.47609999671,0.0,0.0,0.0,1.90439998684,1,52.78292112757208,263.17194624435245,360.314790699059,-0.00012585966437591336,18.329427333987685,0.47433447060072564,0,Fixed-Wing
1970-01-01 00:01:17.209913568,1224,1539875293805599656,base_link,0,1,40.592686,-79.9007591,360.30042709,0.47609999671,0.0,0.0,0.0,0.47609999671,0.0,0.0,0.0,1.90439998684,1,53.01143978498985,270.47919041916356,360.294458178006,0.5714766586919023,18.273866705039847,-0.050847319538242494,0,Fixed-Wing
1970-01-01 00:01:17.558424800,1226,1539875294163137160,base_link,0,1,40.5927513,-79.900753,359.880406573,0.47609999671,0.0,0.0,0.0,0.47609999671,0.0,0.0,0.0,1.90439998684,1,53.52778435760968,277.7308930740434,359.8741209571261,1.2912681810266138,18.134969152482693,-1.0511741720639527,0,Fixed-Wing
1970-01-01 00:01:17.948432608,1228,1539875294553873416,base_link,0,1,40.5928167,-79.9007401,359.510392947,0.47609999671,0.0,0.0,0.0,0.47609999671,0.0,0.0,0.0,1.90439998684,1,54.6197862066679,284.9937065554082,359.5037769266185,2.730864845071732,18.162754971227905,-0.9261518140903569,0,Fixed-Wing
1970-01-01 00:01:18.376513664,1230,1539875294981688392,base_link,0,1,40.5928833,-79.9007183,359.400387896,0.47609999671,0.0,0.0,0.0,0.47609999671,0.0,0.0,0.0,1.90439998684,1,56.46522105592713,292.389799829509,359.39342025585813,4.615040861019307,18.496059443976833,-0.2759786101631559,0,Fixed-Wing
