time,field.header.seq,field.header.stamp,field.header.frame_id,field.status.status,field.status.service,lat,lon,alt,field.position_covariance0,field.position_covariance1,field.position_covariance2,field.position_covariance3,field.position_covariance4,field.position_covariance5,field.position_covariance6,field.position_covariance7,field.position_covariance8,field.position_covariance_type,x,y,z,vel_x,vel_y,vel_z,track_id,uav_category
1970-01-01 00:00:00.000000000,1644,1532133199018898576,base_link,0,1,40.5915052,-79.8986914,366.363022331,0.324899991846,0.0,0.0,0.0,0.324899991846,0.0,0.0,0.0,1.29959996738,1,211.11845971401925,134.67623859789185,366.3581081555197,-18.94211998246932,3.775172942501433,-2.5246893078110557,0,Fixed-Wing
1970-01-01 00:00:00.364519168,1646,1532133199381636464,base_link,0,1,40.5915188,-79.8987809,365.352925241,0.324899991846,0.0,0.0,0.0,0.324899991846,0.0,0.0,0.0,1.29959996738,1,203.54155489467158,136.18631910041125,365.34822485832734,-18.94211998246932,3.775172942501433,-2.5246893078110557,0,Fixed-Wing
1970-01-01 00:00:00.788654560,1648,1532133199807268400,base_link,0,1,40.5915408,-79.8988676,364.462827522,0.324899991846,0.0,0.0,0.0,0.324899991846,0.0,0.0,0.0,1.29959996738,1,196.20167504042215,138.62925566792816,364.45830405385595,-18.349562013908475,6.107295614075168,-2.224785325288529,0,Fixed-Wing
1970-01-01 00:00:01.182465824,1650,1532133200201496624,base_link,0,1,40.5915719,-79.8989499,363.64273052,0.324899991846,0.0,0.0,0.0,0.324899991846,0.0,0.0,0.0,1.29959996738,1,189.23427025024364,142.08278634052,363.63834108181186,-17.418381337586233,8.6337619282651,-2.049892055919819,0,Fixed-Wing
1970-01-01 00:00:01.567971872,1652,1532133200586926576,base_link,0,1,40.5916126,-79.8990269,362.94263495,0.324899991846,0.0,0.0,0.0,0.324899991846,0.0,0.0,0.0,1.29959996738,1,182.7155339748478,146.6024390082386,362.93833277637094,-16.296718463101122,11.299046926444595,-1.7500076385450045,0,Fixed-Wing
1970-01-01 00:00:01.974079040,1654,1532133200992934384,base_link,0,1,40.5916609,-79.8990963,362.462543996,0.324899991846,0.0,0.0,0.0,0.324899991846,0.0,0.0,0.0,1.29959996738,1,176.84018700634985,151.96611472907463,362.45828134065715,-14.688257259315431,13.409088733924566,-1.200119588387562,0,Fixed-Wing
1970-01-01 00:00:02.375422592,1656,1532133201393213552,base_link,0,1,40.5917127,-79.899159,362.34245845,0.324899991846,0.0,0.0,0.0,0.324899991846,0.0,0.0,0.0,1.29959996738,1,171.53205212426792,157.7184994680623,362.33820055955994,-13.270237678422237,14.380853991064248,-0.3001997012452784,0,Fixed-Wing
1970-01-01 00:00:02.762033792,1658,1532133201780639376,base_link,0,1,40.5917655,-79.8992169,362.452377414,0.324899991846,0.0,0.0,0.0,0.324899991846,0.0,0.0,0.0,1.29959996738,1,166.63028252173604,163.58195515275412,362.44810123262664,-12.254332098838972,14.65852927275999,0.2747496220445953,0,Fixed-Wing
1970-01-01 00:00:03.170294272,1660,1532133202189202416,base_link,0,1,40.5918168,-79.8992723,362.802299577,0.324899991846,0.0,0.0,0.0,0.324899991846,0.0,0.0,0.0,1.29959996738,1,161.9401723860138,169.27884676323293,362.79799501113445,-11.725187400400051,14.24212221028046,0.8747278858103703,0,Fixed-Wing
1970-01-01 00:00:03.588702656,1662,1532133202607655280,base_link,0,1,40.591865,-79.8993273,363.292223461,0.324899991846,0.0,0.0,0.0,0.324899991846,0.0,0.0,0.0,1.29959996738,1,157.28394235039772,174.63148422735338,363.28789059137864,-11.640487785381836,13.381493299101377,1.2247297651372482,0,Fixed-Wing
1970-01-01 00:00:03.956623616,1664,1532133202975621776,base_link,0,1,40.5919102,-79.8993812,363.692149733,0.324899991846,0.0,0.0,0.0,0.324899991846,0.0,0.0,0.0,1.29959996738,1,152.72084542332254,179.6509677018488,363.68778785133287,-11.407656760262245,12.548614571629255,0.9997356518681857,0,Fixed-Wing
1970-01-01 00:00:04.359646240,1666,1532133203378308560,base_link,0,1,40.5919532,-79.8994355,363.842076531,0.324899991846,0.0,0.0,0.0,0.324899991846,0.0,0.0,0.0,1.29959996738,1,148.12389043186408,184.42613147466045,363.83768628760197,-11.492301286386503,11.937819898379892,0.3747432800981433,0,Fixed-Wing
1970-01-01 00:00:04.759906496,1668,1532133203778881872,base_link,0,1,40.5919937,-79.899491,363.80200316,0.324899991846,0.0,0.0,0.0,0.324899991846,0.0,0.0,0.0,1.29959996738,1,143.42535416921893,188.9236597905634,363.79758819583793,-11.746252559718675,11.243736461733887,-0.10024447757651013,0,Fixed-Wing
1970-01-01 00:00:05.178189376,1670,1532133204196812752,base_link,0,1,40.5920328,-79.8995479,363.511928961,0.324899991846,0.0,0.0,0.0,0.324899991846,0.0,0.0,0.0,1.29959996738,1,138.60830181554152,193.26570791163135,363.5074899353103,-12.042540565139289,10.855038889878228,-0.7252402120175517,0,Fixed-Wing
1970-01-01 00:00:05.581020704,1672,1532133204599963824,base_link,0,1,40.5920711,-79.8996058,363.031854091,0.324899991846,0.0,0.0,0.0,0.324899991846,0.0,0.0,0.0,1.29959996738,1,133.7065965488123,197.51890946689835,363.0273889419507,-12.25417126053857,10.632924141236435,-1.2002434815728862,0,Fixed-Wing
1970-01-01 00:00:05.971733824,1674,1532133204990582384,base_link,0,1,40.5921094,-79.8996646,362.451778323,0.324899991846,0.0,0.0,0.0,0.324899991846,0.0,0.0,0.0,1.29959996738,1,128.72870472787775,201.77210914380984,362.44728198227347,-12.444636217564765,10.63291944538289,-1.4502565222691066,0,Fixed-Wing
1970-01-01 00:00:06.370320256,1676,1532133205389266832,base_link,0,1,40.5921488,-79.8997233,362.04170222,0.324899991846,0.0,0.0,0.0,0.324899991846,0.0,0.0,0.0,1.29959996738,1,123.7592864021677,206.147474628679,362.03716384202437,-12.423452638380342,10.938331674685314,-1.0252876609652841,0,Fixed-Wing
1970-01-01 00:00:06.779382208,1678,1532133205798140144,base_link,0,1,40.5921892,-79.8997817,361.711626029,0.324899991846,0.0,0.0,0.0,0.324899991846,0.0,0.0,0.0,1.29959996738,1,118.81527119051881,210.63389829103085,361.7070345912668,-12.35994532953225,11.215975036066864,-0.8253169370169211,0,Fixed-Wing
1970-01-01 00:00:07.153506528,1680,1532133206172478704,base_link,0,1,40.5922303,-79.8998398,361.561549874,0.324899991846,0.0,0.0,0.0,0.324899991846,0.0,0.0,0.0,1.29959996738,1,113.89666136814859,215.19806791220003,361.55689530622726,-12.296432332683077,11.410338475384398,-0.37534539750834145,0,Fixed-Wing
1970-01-01 00:00:07.555571424,1682,1532133206574217360,base_link,0,1,40.5922718,-79.8998974,361.581474084,0.324899991846,0.0,0.0,0.0,0.324899991846,0.0,0.0,0.0,1.29959996738,1,109.02038820302317,219.80666802659587,361.5767470670744,-12.190591483377403,11.521413875385537,0.049629029900105814,0,Fixed-Wing
1970-01-01 00:00:07.996406688,1684,1532133207015221232,base_link,0,1,40.5923132,-79.8999546,361.721398761,0.324899991846,0.0,0.0,0.0,0.324899991846,0.0,0.0,0.0,1.29959996738,1,104.17798564905652,224.40417086164143,361.71659207232295,-12.105915590549696,11.493670885082263,0.34960989104721724,0,Fixed-Wing
1970-01-01 00:00:08.353427232,1686,1532133207372154640,base_link,0,1,40.5923535,-79.9000119,362.14132381,0.324899991846,0.0,0.0,0.0,0.324899991846,0.0,0.0,0.0,1.29959996738,1,99.32712921724598,228.8795294489567,362.13643498500613,-12.127050126650404,11.188312555944005,1.0495994097123766,0,Fixed-Wing
1970-01-01 00:00:08.787052224,1688,1532133207805940592,base_link,0,1,40.5923928,-79.9000685,362.651250001,0.324899991846,0.0,0.0,0.0,0.324899991846,0.0,0.0,0.0,1.29959996738,1,94.53554002631918,233.2438434994411,362.6462754007449,-11.978883135693481,10.910703295936305,1.2745914799108482,0,Fixed-Wing
1970-01-01 00:00:09.141432288,1690,1532133208160405776,base_link,0,1,40.5924311,-79.9001238,363.081177946,0.324899991846,0.0,0.0,0.0,0.324899991846,0.0,0.0,0.0,1.29959996738,1,89.85400885432684,237.4971073215873,363.0761135821125,-11.703740151929729,10.633079807266897,1.07458739401351,0,Fixed-Wing
1970-01-01 00:00:09.562712608,1692,1532133208581756784,base_link,0,1,40.5924694,-79.900178,363.481107028,0.324899991846,0.0,0.0,0.0,0.324899991846,0.0,0.0,0.0,1.29959996738,1,85.26560368223636,241.7503746120891,363.4759453847894,-11.47092689827445,10.63308847809094,0.9995720099021399,0,Fixed-Wing
1970-01-01 00:00:09.999670560,1694,1532133209018507696,base_link,0,1,40.5925086,-79.9002307,363.811037284,0.324899991846,0.0,0.0,0.0,0.324899991846,0.0,0.0,0.0,1.29959996738,1,80.80418525736457,246.10359110912322,363.805766751666,-11.153462411211402,10.882959620388126,0.8245472330872899,0,Fixed-Wing
1970-01-01 00:00:10.363145376,1696,1532133209382201648,base_link,0,1,40.5925488,-79.9002816,363.920968978,0.324899991846,0.0,0.0,0.0,0.324899991846,0.0,0.0,0.0,1.29959996738,1,76.4951485895523,250.56785605160894,363.9155772662833,-10.772510875699094,11.160578651874427,0.27452422761159917,0,Fixed-Wing
1970-01-01 00:00:10.779889664,1698,1532133209798830608,base_link,0,1,40.5925908,-79.9003303,363.710902189,0.324899991846,0.0,0.0,0.0,0.324899991846,0.0,0.0,0.0,1.29959996738,1,72.3723544284723,255.2320069510294,363.7053731361667,-10.30690810088923,11.660289796377684,-0.5255063839936406,0,Fixed-Wing
1970-01-01 00:00:11.163693568,1700,1532133210182735568,base_link,0,1,40.5926359,-79.9003755,363.460837707,0.324899991846,0.0,0.0,0.0,0.324899991846,0.0,0.0,0.0,1.29959996738,1,68.54585766099997,260.24042333587977,363.45514798892845,-9.566170172404545,12.520947055022996,-0.6255581764093473,0,Fixed-Wing
1970-01-01 00:00:11.581368128,1702,1532133210600409360,base_link,0,1,40.5926847,-79.9004155,363.140777016,0.324899991846,0.0,0.0,0.0,0.324899991846,0.0,0.0,0.0,1.29959996738,1,65.15957223955859,265.6597360578724,363.1348987819997,-8.465650061228006,13.548180193630147,-0.8006170126942447,0,Fixed-Wing
1970-01-01 00:00:11.963158176,1704,1532133210982056560,base_link,0,1,40.5927375,-79.9004481,362.660722233,0.324899991846,0.0,0.0,0.0,0.324899991846,0.0,0.0,0.0,1.29959996738,1,62.39973925999108,271.5232577159451,362.6546240403178,-6.899530702438496,14.65869420497514,-1.2006778491209071,0,Fixed-Wing
1970-01-01 00:00:12.357526048,1706,1532133211376454800,base_link,0,1,40.5927947,-79.9004692,362.190677364,0.324899991846,0.0,0.0,0.0,0.324899991846,0.0,0.0,0.0,1.29959996738,1,60.61344722553463,277.8754182648881,362.1843221334802,-4.465696593416678,15.880282270240484,-1.1757459489994309,0,Fixed-Wing
1970-01-01 00:00:12.778554144,1708,1532133211797556016,base_link,0,1,40.5928553,-79.9004751,361.890646582,0.324899991846,0.0,0.0,0.0,0.324899991846,0.0,0.0,0.0,1.29959996738,1,60.11392178253948,284.60517425991094,361.8839986118858,-1.2488042414560643,16.8242638055786,-0.7508031729622211,0,Fixed-Wing
1970-01-01 00:00:13.165182976,1710,1532133212184133616,base_link,0,1,40.592916,-79.9004657,361.700631334,0.324899991846,0.0,0.0,0.0,0.324899991846,0.0,0.0,0.0,1.29959996738,1,60.90962726905132,291.34605046880824,361.6936707398363,1.9892487969136288,16.852064131762273,-0.4758161115028273,0,Fixed-Wing
1970-01-01 00:00:13.576594304,1712,1532133212595491376,base_link,0,1,40.5929742,-79.9004406,361.440633088,0.324899991846,0.0,0.0,0.0,0.324899991846,0.0,0.0,0.0,1.29959996738,1,63.03442292533465,297.8093033768845,361.43335265333076,5.311949301088573,16.158011085107468,-0.650790335336358,0,Fixed-Wing
1970-01-01 00:00:13.997250176,1714,1532133213016237488,base_link,0,1,40.5930268,-79.9003984,361.270654527,0.324899991846,0.0,0.0,0.0,0.324899991846,0.0,0.0,0.0,1.29959996738,1,66.60682752292051,303.65068033761605,361.2630617532014,8.930944511880808,14.603332876832338,-0.42572405739300284,0,Fixed-Wing
1970-01-01 00:00:14.354804736,1716,1532133213373480048,base_link,0,1,40.5930713,-79.9003411,361.110694636,0.324899991846,0.0,0.0,0.0,0.324899991846,0.0,0.0,0.0,1.29959996738,1,71.4575297804346,308.5925473211174,361.1028116816119,12.126664693800013,12.35457479944243,-0.40062217430737634,0,Fixed-Wing
1970-01-01 00:00:14.783852832,1718,1532133213802852624,base_link,0,1,40.5931056,-79.9002732,360.980749693,0.324899991846,0.0,0.0,0.0,0.324899991846,0.0,0.0,0.0,1.29959996738,1,77.20558290839148,312.40169398204216,360.97261396741817,14.370025044704363,9.522795231347613,-0.32549184429552125,0,Fixed-Wing
1970-01-01 00:00:15.180655776,1720,1532133214199686096,base_link,0,1,40.5931285,-79.9001985,360.720816321,0.324899991846,0.0,0.0,0.0,0.324899991846,0.0,0.0,0.0,1.29959996738,1,83.5292977695247,314.94484814540954,360.7124756588608,15.809168584068685,6.357837724635505,-0.6503408938367287,0,Fixed-Wing
1970-01-01 00:00:15.584769504,1722,1532133214603629840,base_link,0,1,40.5931384,-79.90012,360.550892123,0.324899991846,0.0,0.0,0.0,0.324899991846,0.0,0.0,0.0,1.29959996738,1,90.17471621859215,316.0443353701784,360.54240658582506,16.613421522007208,2.748697446691241,-0.42516949381813063,0,Fixed-Wing
1970-01-01 00:00:15.952706720,1724,1532133214968194512,base_link,0,1,40.5931345,-79.9000437,361.040971325,0.324899991846,0.0,0.0,0.0,0.324899991846,0.0,0.0,0.0,1.29959996738,1,96.6339208056344,315.6113364652772,361.03241282897704,16.14789035842794,-1.0824891435843802,1.225006420331801,0,Fixed-Wing
1970-01-01 00:00:16.370408480,1726,1532133215389202512,base_link,0,1,40.5931224,-79.8999748,362.011046355,0.324899991846,0.0,0.0,0.0,0.324899991846,0.0,0.0,0.0,1.29959996738,1,102.46669872077572,314.2677287971511,362.0024634610653,14.581835424087622,-3.3589939778603735,2.4251083919077097,0,Fixed-Wing
1970-01-01 00:00:16.783367264,1728,1532133215802301456,base_link,0,1,40.5931073,-79.8999143,363.391114073,0.324899991846,0.0,0.0,0.0,0.324899991846,0.0,0.0,0.0,1.29959996738,1,107.58838799869564,312.5909779711655,363.38252956275386,12.804127163846053,-4.191845626121822,3.4501393781760528,0,Fixed-Wing
1970-01-01 00:00:17.172820256,1730,1532133216191312272,base_link,0,1,40.5930935,-79.8998585,364.681176487,0.324899991846,0.0,0.0,0.0,0.324899991846,0.0,0.0,0.0,1.29959996738,1,112.31219807311732,311.0585876780705,364.672585765478,11.80943661527958,-3.830947000634938,3.225116318437974,0,Fixed-Wing
1970-01-01 00:00:17.588080768,1732,1532133216607033392,base_link,0,1,40.5930823,-79.8998044,365.671236116,0.324899991846,0.0,0.0,0.0,0.324899991846,0.0,0.0,0.0,1.29959996738,1,116.89208789530255,309.81491923373096,365.6626239035712,11.449638683172969,-3.109147792240463,2.475076782157163,0,Fixed-Wing
1970-01-01 00:00:17.955887296,1734,1532133216974815536,base_link,0,1,40.5930737,-79.8997497,366.331295302,0.324899991846,0.0,0.0,0.0,0.324899991846,0.0,0.0,0.0,1.29959996738,1,121.52276289814813,308.85997439970225,366.3226430965552,11.576600682608825,-2.3873441799904214,1.6500356071929694,0,Fixed-Wing
1970-01-01 00:00:18.402977888,1736,1532133217421817904,base_link,0,1,40.5930677,-79.899693,366.561355467,0.324899991846,0.0,0.0,0.0,0.324899991846,0.0,0.0,0.0,1.29959996738,1,126.32273739842672,308.1937506681812,366.5526424441162,11.999846251849597,-1.6655468372012938,0.5749940564470185,0,Fixed-Wing
1970-01-01 00:00:18.781354016,1738,1532133217800121072,base_link,0,1,40.593064,-79.8996335,366.311417548,0.324899991846,0.0,0.0,0.0,0.324899991846,0.0,0.0,0.0,1.29959996738,1,131.35973378564424,307.7829315745528,366.30262280937757,12.592396525069846,-1.0270400312708836,-0.6250443990135949,0,Fixed-Wing
1970-01-01 00:00:19.176813024,1740,1532133218195460816,base_link,0,1,40.5930629,-79.8995709,365.70148173,0.324899991846,0.0,0.0,0.0,0.324899991846,0.0,0.0,0.0,1.29959996738,1,136.6591489805777,307.6608396596332,365.6925817154672,13.248438624043969,-0.30522749809267724,-1.5250912965911605,0,Fixed-Wing
1970-01-01 00:00:19.597419776,1742,1532133218615947920,base_link,0,1,40.5930641,-79.8995054,364.941547931,0.324899991846,0.0,0.0,0.0,0.324899991846,0.0,0.0,0.0,1.29959996738,1,142.2040556530953,307.7941695295201,364.9325204296297,13.862162715073667,0.33332217480092147,-1.9001389635516162,0,Fixed-Wing
1970-01-01 00:00:19.998151968,1744,1532133219017050640,base_link,0,1,40.593067,-79.8994375,364.291615888,0.324899991846,0.0,0.0,0.0,0.324899991846,0.0,0.0,0.0,1.29959996738,1,147.9521324178071,308.1163019384842,364.28244224076366,14.370084136148437,0.805324982472832,-1.6251832832904216,0,Fixed-Wing
1970-01-01 00:00:20.361470944,1746,1532133219380311312,base_link,0,1,40.5930712,-79.8993683,363.781684644,0.324899991846,0.0,0.0,0.0,0.324899991846,0.0,0.0,0.0,1.29959996738,1,153.81025983127154,308.58281589156167,363.77235001158675,14.645208694595903,1.1662761356226852,-1.2752210087846971,0,Fixed-Wing
1970-01-01 00:00:20.771644288,1748,1532133219790580208,base_link,0,1,40.593076,-79.899299,363.501753264,0.324899991846,0.0,0.0,0.0,0.324899991846,0.0,0.0,0.0,1.29959996738,1,159.67685542943627,309.115977164376,363.49224879312084,14.666378997569357,1.3328931853368884,-0.700247794306332,0,Fixed-Wing
1970-01-01 00:00:21.157394240,1750,1532133220176087120,base_link,0,1,40.5930807,-79.8992299,363.491821729,0.324899991846,0.0,0.0,0.0,0.324899991846,0.0,0.0,0.0,1.29959996738,1,165.5265258576752,309.6380505287167,363.48214296415154,14.624066390099419,1.305173622049617,-0.025264382940381587,0,Fixed-Wing
1970-01-01 00:00:21.557957728,1752,1532133220576344144,base_link,0,1,40.5930851,-79.8991619,363.911889204,0.324899991846,0.0,0.0,0.0,0.324899991846,0.0,0.0,0.0,1.29959996738,1,171.2830869088236,310.1268315845039,363.9020348667947,14.39129469316079,1.2219434748920097,1.0497218836937323,0,Fixed-Wing
1970-01-01 00:00:21.960873344,1754,1532133220979482416,base_link,0,1,40.5930895,-79.8990949,364.321955667,0.324899991846,0.0,0.0,0.0,0.324899991846,0.0,0.0,0.0,1.29959996738,1,176.95499237784466,310.61561464926604,364.3119228782151,14.179657325122701,1.2219484972915633,1.024712343208513,0,Fixed-Wing
1970-01-01 00:00:22.363296960,1756,1532133221382024624,base_link,0,1,40.5930927,-79.8990284,364.322022118,0.324899991846,0.0,0.0,0.0,0.324899991846,0.0,0.0,0.0,1.29959996738,1,182.5845617191524,310.97111811995705,364.3118135258427,14.073817799635824,0.8887520110874648,-0.000273378880706845,0,Fixed-Wing
1970-01-01 00:00:22.737777376,1758,1532133221756661968,base_link,0,1,40.5930946,-79.8989615,364.362089517,0.324899991846,0.0,0.0,0.0,0.324899991846,0.0,0.0,0.0,1.29959996738,1,188.2479974708406,311.182260521171,364.3517062053784,14.1584831905966,0.5278520441444678,0.09973095085707576,0,Fixed-Wing
1970-01-01 00:00:23.162297184,1760,1532133222180580912,base_link,0,1,40.5930962,-79.8988936,364.272158064,0.324899991846,0.0,0.0,0.0,0.324899991846,0.0,0.0,0.0,1.29959996738,1,193.99608519214098,311.3600873444706,364.2615940648298,14.370111527414492,0.4445637240212044,-0.22527866178146075,0,Fixed-Wing
1970-01-01 00:00:23.558653568,1762,1532133222575921392,base_link,0,1,40.5930969,-79.8988252,363.962227498,0.324899991846,0.0,0.0,0.0,0.324899991846,0.0,0.0,0.0,1.29959996738,1,199.7864959213763,311.43796179489243,363.9514812036328,14.475918253701359,0.19468466591951192,-0.7752763384199932,0,Fixed-Wing
1970-01-01 00:00:23.933575072,1764,1532133222952382768,base_link,0,1,40.5930957,-79.8987564,363.612298125,0.324899991846,0.0,0.0,0.0,0.324899991846,0.0,0.0,0.0,1.29959996738,1,205.61077261848948,311.3048401549618,363.6013735195825,14.560582538413941,-0.3328016038144894,-0.8752626456558374,0,Fixed-Wing
1970-01-01 00:00:24.365679424,1766,1532133223383898288,base_link,0,1,40.5930932,-79.8986869,363.482370007,0.324899991846,0.0,0.0,0.0,0.324899991846,0.0,0.0,0.0,1.29959996738,1,211.49431896646956,311.02736740862,363.47126687484354,14.70875555428356,-0.6936766632795262,-0.3252641723661751,0,Fixed-Wing
1970-01-01 00:00:24.756243904,1768,1532133223773423248,base_link,0,1,40.5930909,-79.8986171,363.642442121,0.324899991846,0.0,0.0,0.0,0.324899991846,0.0,0.0,0.0,1.29959996738,1,217.40327132555396,310.77212469938013,363.6311530798522,14.772270105685196,-0.6381019873348308,0.3997125146777922,0,Fixed-Wing
1970-01-01 00:00:25.154749312,1770,1532133224172489584,base_link,0,1,40.5930895,-79.8985471,364.042514079,0.324899991846,0.0,0.0,0.0,0.324899991846,0.0,0.0,0.0,1.29959996738,1,223.32916084021824,310.61684604530154,364.0310281828085,14.814612677065615,-0.3881937237435369,0.9996802597887686,0,Fixed-Wing
1970-01-01 00:00:25.587307872,1772,1532133224606295120,base_link,0,1,40.5930895,-79.8984772,364.17258537,0.324899991846,0.0,0.0,0.0,0.324899991846,0.0,0.0,0.0,1.29959996738,1,229.24657134258007,310.6170320172644,364.1608898322788,14.793415305289791,0.0004649264202475584,0.32465168878819006,0,Fixed-Wing
1970-01-01 00:00:25.942862240,1774,1532133224961759472,base_link,0,1,40.5930912,-79.8984059,364.0526574,0.324899991846,0.0,0.0,0.0,0.324899991846,0.0,0.0,0.0,1.29959996738,1,235.28248435092118,310.8060033101563,364.0407331564582,15.089669348332666,0.4724246890445635,-0.30038943663078543,0,Fixed-Wing
1970-01-01 00:00:26.371663040,1776,1532133225390397296,base_link,0,1,40.5930939,-79.8983325,363.662731171,0.324899991846,0.0,0.0,0.0,0.324899991846,0.0,0.0,0.0,1.29959996738,1,241.49615914935356,311.1060244413226,363.650560363287,15.534070490552269,0.7500472025616335,-0.975424667242968,0,Fixed-Wing
1970-01-01 00:00:26.760604800,1778,1532133225779485136,base_link,0,1,40.5930958,-79.8982567,363.112807727,0.324899991846,0.0,0.0,0.0,0.324899991846,0.0,0.0,0.0,1.29959996738,1,247.91300212006436,311.31720772845074,363.10038076391237,16.04198711187367,0.5279542581634761,-1.3754386826464904,0,Fixed-Wing
1970-01-01 00:00:27.163880448,1780,1532133226182275856,base_link,0,1,40.5930964,-79.8981792,362.582886561,0.324899991846,0.0,0.0,0.0,0.324899991846,0.0,0.0,0.0,1.29959996738,1,254.47376331525632,311.3840342987096,362.5701983213194,16.401779974630085,0.16706517265834053,-1.3254461656361212,0,Fixed-Wing
1970-01-01 00:00:27.574625824,1782,1532133226584304816,base_link,0,1,40.5930956,-79.8981009,362.442966795,0.324899991846,0.0,0.0,0.0,0.324899991846,0.0,0.0,0.0,1.29959996738,1,261.10226890722737,311.2954147661386,362.43001537938534,16.5711396963799,-0.2215471698236957,-0.35045472642476594,0,Fixed-Wing
1970-01-01 00:00:27.975092576,1784,1532133226993943792,base_link,0,1,40.5930943,-79.8980234,362.613046429,0.324899991846,0.0,0.0,0.0,0.324899991846,0.0,0.0,0.0,1.29959996738,1,267.6630651303526,311.1512876717503,362.5998305100263,16.401867543806514,-0.3603150336079867,0.42453464259264073,0,Fixed-Wing
1970-01-01 00:00:28.410774496,1786,1532133227428414800,base_link,0,1,40.5930929,-79.8979473,362.963124686,0.324899991846,0.0,0.0,0.0,0.324899991846,0.0,0.0,0.0,1.29959996738,1,274.1053526914799,310.9960655448574,362.9496431520825,16.10559811083235,-0.38805240683922076,0.8745250462026007,0,Fixed-Wing
1970-01-01 00:00:28.762199808,1788,1532133227781225488,base_link,0,1,40.5930914,-79.8978723,363.38320187,0.324899991846,0.0,0.0,0.0,0.324899991846,0.0,0.0,0.0,1.29959996738,1,280.45452389481216,310.8297436447837,363.369452849985,15.872808962263472,-0.41580163167197015,1.0495163733834698,0,Fixed-Wing
1970-01-01 00:00:29.144323808,1790,1532133228162660144,base_link,0,1,40.5930898,-79.897798,363.55327839,0.324899991846,0.0,0.0,0.0,0.324899991846,0.0,0.0,0.0,1.29959996738,1,286.74442671129185,310.6523074049164,363.5392587722164,15.724639106405942,-0.4435872727636808,0.4245116217412767,0,Fixed-Wing
1970-01-01 00:00:29.567983776,1792,1532133228585109136,base_link,0,1,40.5930879,-79.8977239,363.73335484,0.324899991846,0.0,0.0,0.0,0.324899991846,0.0,0.0,0.0,1.29959996738,1,293.017400869253,310.4415605649438,363.71906082724445,15.682317777519494,-0.5268631484579227,0.44950176630690913,0,Fixed-Wing
1970-01-01 00:00:29.960969312,1794,1532133228979720496,base_link,0,1,40.5930863,-79.8976498,363.923431175,0.324899991846,0.0,0.0,0.0,0.324899991846,0.0,0.0,0.0,1.29959996738,1,299.2903748661085,310.26413520067945,363.9088549743701,15.68231737475847,-0.4435600839602846,0.47448180920059907,0,Fixed-Wing
1970-01-01 00:00:30.360493280,1796,1532133229379431504,base_link,0,1,40.5930852,-79.8975756,364.163507417,0.324899991846,0.0,0.0,0.0,0.324899991846,0.0,0.0,0.0,1.29959996738,1,305.5718151829288,310.1422440906166,364.1486397546388,15.703483015928116,-0.3047254897159458,0.5994574547407853,0,Fixed-Wing
1970-01-01 00:00:30.825420192,1798,1532133229844345840,base_link,0,1,40.5930854,-79.8975015,364.343583031,0.324899991846,0.0,0.0,0.0,0.324899991846,0.0,0.0,0.0,1.29959996738,1,311.8447816749275,310.1647231199931,364.32841110229384,15.682298612757194,0.056197151962570406,0.44942499845013273,0,Fixed-Wing
1970-01-01 00:00:31.167787808,1800,1532133230186775248,base_link,0,1,40.5930865,-79.8974277,364.443657978,0.324899991846,0.0,0.0,0.0,0.324899991846,0.0,0.0,0.0,1.29959996738,1,318.0923436413786,310.28714961462896,364.428172016824,15.618787775219404,0.3060639411101277,0.2494004158223299,0,Fixed-Wing
1970-01-01 00:00:31.559064160,1802,1532133230578011216,base_link,0,1,40.5930881,-79.8973541,364.403732525,0.324899991846,0.0,0.0,0.0,0.324899991846,0.0,0.0,0.0,1.29959996738,1,324.3229650095256,310.4650999892788,364.38792456681443,15.576436597093053,0.4448726000801685,-0.10061787038994142,0,Fixed-Wing
1970-01-01 00:00:31.962390272,1804,1532133230977263600,base_link,0,1,40.5930895,-79.8972804,364.203807264,0.324899991846,0.0,0.0,0.0,0.324899991846,0.0,0.0,0.0,1.29959996738,1,330.5620442376709,310.62083765087124,364.1876718733005,15.597581088505017,0.3893412339217739,-0.5006279790750567,0,Fixed-Wing
1970-01-01 00:00:32.402804096,1806,1532133231421387408,base_link,0,1,40.5930907,-79.8972064,363.813882402,0.324899991846,0.0,0.0,0.0,0.324899991846,0.0,0.0,0.0,1.29959996738,1,336.82651039061886,310.7543619114503,363.7974132258256,15.66104792451054,0.3338081478865544,-0.9756393013924044,0,Fixed-Wing
1970-01-01 00:00:32.781389760,1808,1532133231800154000,base_link,0,1,40.5930913,-79.8971322,363.303958,0.324899991846,0.0,0.0,0.0,0.324899991846,0.0,0.0,0.0,1.29959996738,1,343.10790323364506,310.82125490119876,363.28715123881494,15.703364332332999,0.16723122013698183,-1.2756454001861612,0,Fixed-Wing
1970-01-01 00:00:33.160921344,1810,1532133232179331792,base_link,0,1,40.5930918,-79.8970578,362.774033853,0.324899991846,0.0,0.0,0.0,0.324899991846,0.0,0.0,0.0,1.29959996738,1,349.4062254453322,310.87704775274005,362.75688294500526,15.745687436562102,0.1394810827451249,-1.3256607920682686,0,Fixed-Wing
1970-01-01 00:00:33.580082720,1812,1532133232599060464,base_link,0,1,40.5930914,-79.8969834,362.354110086,0.324899991846,0.0,0.0,0.0,0.324899991846,0.0,0.0,0.0,1.29959996738,1,355.70455741226044,310.8329041522642,362.3366137031325,15.745711824481894,-0.11035817350339139,-1.0506652246926778,0,Fixed-Wing
1970-01-01 00:00:33.975023552,1814,1532133232990624752,base_link,0,1,40.5930902,-79.8969092,362.294186453,0.324899991846,0.0,0.0,0.0,0.324899991846,0.0,0.0,0.0,1.29959996738,1,361.98598228653987,310.69994074273245,362.2763436811314,15.703444409865485,-0.3324060307840842,-0.15067392494839862,0,Fixed-Wing
1970-01-01 00:00:34.350733536,1816,1532133233369657296,base_link,0,1,40.5930891,-79.896836,362.644261765,0.324899991846,0.0,0.0,0.0,0.324899991846,0.0,0.0,0.0,1.29959996738,1,368.1827750678435,310.57810369539317,362.626070761768,15.49186576426591,-0.3045903339207051,0.874311144257983,0,Fixed-Wing
1970-01-01 00:00:34.786355872,1818,1532133233804941360,base_link,0,1,40.5930891,-79.8967637,363.184335714,0.324899991846,0.0,0.0,0.0,0.324899991846,0.0,0.0,0.0,1.29959996738,1,374.3033839675049,310.5784348597998,363.1657889675872,15.301407488597244,0.0008279048073282251,1.3492853949075705,0,Fixed-Wing
1970-01-01 00:00:35.161361280,1820,1532133234174582352,base_link,0,1,40.5930895,-79.8966924,363.644408483,0.324899991846,0.0,0.0,0.0,0.324899991846,0.0,0.0,0.0,1.29959996738,1,380.33933156991554,310.623183783735,363.6255030023501,15.0897558328579,0.11187147080190382,1.1492764673337363,0,Fixed-Wing
1970-01-01 00:00:35.608330688,1822,1532133234627218864,base_link,0,1,40.5930892,-79.8966215,363.92448114,0.324899991846,0.0,0.0,0.0,0.324899991846,0.0,0.0,0.0,1.29959996738,1,386.34141099076874,310.5901903766783,363.90521706380594,15.005086013987876,-0.08248289901992008,0.6992799090402327,0,Fixed-Wing
1970-01-01 00:00:35.981742272,1824,1532133235000486416,base_link,0,1,40.5930878,-79.8965504,363.894554464,0.324899991846,0.0,0.0,0.0,0.324899991846,0.0,0.0,0.0,1.29959996738,1,392.3604094390878,310.4350299159596,363.8749310747937,15.047383265423141,-0.38789824255997757,-0.0757144046724989,0,Fixed-Wing
1970-01-01 00:00:36.419874112,1826,1532133235438769936,base_link,0,1,40.5930835,-79.8964789,363.704629402,0.324899991846,0.0,0.0,0.0,0.324899991846,0.0,0.0,0.0,1.29959996738,1,398.4132774366577,309.95781636843515,363.68465460628346,15.132056503501056,-1.1930249211242334,-0.47568760361862905,0,Fixed-Wing
1970-01-01 00:00:36.820911264,1828,1532133235839618384,base_link,0,1,40.5930748,-79.8964075,363.614706061,0.324899991846,0.0,0.0,0.0,0.324899991846,0.0,0.0,0.0,1.29959996738,1,404.457713163503,308.9919816238175,363.59439837013724,15.110975984793312,-2.4145687522785235,-0.22563889807380785,0,Fixed-Wing
1970-01-01 00:00:37.211796064,1830,1532133236225240464,base_link,0,1,40.5930614,-79.8963376,363.584783135,0.324899991846,0.0,0.0,0.0,0.324899991846,0.0,0.0,0.0,1.29959996738,1,410.3751998834804,307.50420146153397,363.5641700864867,14.79360584789958,-3.719422510039959,-0.07557014235032812,0,Fixed-Wing
1970-01-01 00:00:37.572444288,1832,1532133236590545136,base_link,0,1,40.5930434,-79.8962703,363.464859456,0.324899991846,0.0,0.0,0.0,0.324899991846,0.0,0.0,0.0,1.29959996738,1,416.0726076488903,305.50556838595026,363.4439741056893,14.243412587930427,-4.996545214870167,-0.3004876983357747,0,Fixed-Wing
1970-01-01 00:00:37.971530976,1834,1532133236990251984,base_link,0,1,40.5930198,-79.8962076,363.264933393,0.324899991846,0.0,0.0,0.0,0.324899991846,0.0,0.0,0.0,1.29959996738,1,421.38063339951026,302.88502052526326,363.24382536739927,13.26996485181348,-6.551320516813617,-0.50036809296433,0,Fixed-Wing
1970-01-01 00:00:38.379710112,1836,1532133237398543408,base_link,0,1,40.5929888,-79.8961531,363.195002002,0.324899991846,0.0,0.0,0.0,0.324899991846,0.0,0.0,0.0,1.29959996738,1,425.99454382135985,299.44265538352204,363.17375086754214,11.534689544452407,-8.605848310490721,-0.1751849357558021,0,Fixed-Wing
1970-01-01 00:00:38.787983456,1838,1532133237806980400,base_link,0,1,40.592952,-79.8961073,363.285064113,0.324899991846,0.0,0.0,0.0,0.324899991846,0.0,0.0,0.0,1.29959996738,1,429.87200382354166,295.3561542745168,363.26374421274454,9.693577303624737,-10.216176151191897,0.22498167564343652,0,Fixed-Wing
1970-01-01 00:00:39.218697440,1840,1532133238236885648,base_link,0,1,40.5929119,-79.8960682,363.265120741,0.324899991846,0.0,0.0,0.0,0.324899991846,0.0,0.0,0.0,1.29959996738,1,433.1822900644442,290.90314419703725,363.24378235162914,8.275653534854843,-11.132441700386186,-0.04990427850642395,0,Fixed-Wing
1970-01-01 00:00:39.574924448,1842,1532133238593692528,base_link,0,1,40.5928688,-79.896037,363.305170533,0.324899991846,0.0,0.0,0.0,0.324899991846,0.0,0.0,0.0,1.29959996738,1,435.82382481515685,286.1169420589486,363.2838694791989,6.603787348376515,-11.965415604604566,0.10021706729647262,0,Fixed-Wing
1970-01-01 00:00:39.966209248,1844,1532133238985040880,base_link,0,1,40.5928242,-79.8960133,363.775213276,0.324899991846,0.0,0.0,0.0,0.324899991846,0.0,0.0,0.0,1.29959996738,1,437.8304850355192,281.1641439356744,363.75399577870064,5.016612926308889,-12.381902443917152,1.175306933952282,0,Fixed-Wing
1970-01-01 00:00:40.339191872,1846,1532133239358153936,base_link,0,1,40.5927804,-79.8959933,364.445251911,0.324899991846,0.0,0.0,0.0,0.324899991846,0.0,0.0,0.0,1.29959996738,1,439.52393065622044,276.30017779099296,364.4241311879048,4.233582299885887,-12.159824163022417,1.6753259580656537,0,Fixed-Wing
1970-01-01 00:00:40.766580256,1848,1532133239785574448,base_link,0,1,40.5927371,-79.8959764,364.905287174,0.372100017452,0.0,0.0,0.0,0.372100017452,0.0,0.0,0.0,1.48840006981,1,440.95492819075815,271.49171276223166,364.88427481066066,3.577467005341734,-12.021072413860157,1.1503504292614788,0,Fixed-Wing
1970-01-01 00:00:41.165429760,1850,1532133240184111312,base_link,0,1,40.5926944,-79.895963,365.285318613,0.372100017452,0.0,0.0,0.0,0.372100017452,0.0,0.0,0.0,1.48840006981,1,442.0896229129169,266.749857871399,365.26442837985894,2.836715530030449,-11.854548317969254,0.9503767951697485,0,Fixed-Wing
1970-01-01 00:00:41.562167392,1852,1532133240581181456,base_link,0,1,40.592652,-79.895952,365.54534748,0.372100017452,0.0,0.0,0.0,0.372100017452,0.0,0.0,0.0,1.48840006981,1,443.0211348012864,262.04130132963303,365.52458836344186,2.328762255206763,-11.771303069641908,0.650395080994201,0,Fixed-Wing
1970-01-01 00:00:41.938395520,1854,1532133240957428336,base_link,0,1,40.5926098,-79.8959419,365.785375351,0.324899991846,0.0,0.0,0.0,0.324899991846,0.0,0.0,0.0,1.29959996738,1,443.8764548873699,257.3549496921138,365.76474812897135,2.1382841780774373,-11.715791225363903,0.6003949108618776,0,Fixed-Wing
1970-01-01 00:00:42.408897632,1856,1532133241427667280,base_link,0,1,40.5925677,-79.8959313,366.045403703,0.324899991846,0.0,0.0,0.0,0.324899991846,0.0,0.0,0.0,1.29959996738,1,444.7741048386697,252.67970639607358,366.02490142079944,2.244108047439138,-11.68802057994617,0.6503783517325858,0,Fixed-Wing
1970-01-01 00:00:42.780458592,1858,1532133241799322288,base_link,0,1,40.5925253,-79.895921,366.085431883,0.324899991846,0.0,0.0,0.0,0.324899991846,0.0,0.0,0.0,1.29959996738,1,445.64634581674665,247.97113703953892,366.0650540491617,2.1805860907966825,-11.77133510632337,0.10038081804949013,0,Fixed-Wing
1970-01-01 00:00:43.141099360,1860,1532133242159397840,base_link,0,1,40.5924821,-79.895912,366.005459073,0.324899991846,0.0,0.0,0.0,0.324899991846,0.0,0.0,0.0,1.29959996738,1,446.40853191540685,243.1737146395156,365.9852131725004,1.9054509557683534,-11.993466049062937,-0.1996006946480599,0,Fixed-Wing
1970-01-01 00:00:43.563303840,1862,1532133242581934128,base_link,0,1,40.5924381,-79.8959043,365.895485274,0.324899991846,0.0,0.0,0.0,0.324899991846,0.0,0.0,0.0,1.29959996738,1,447.0606692070752,238.28744280961376,365.87537862964194,1.6303310016883348,-12.21558795784489,-0.27458429776385834,0,Fixed-Wing
1970-01-01 00:00:44.009146592,1864,1532133243027746128,base_link,0,1,40.5923933,-79.8958977,365.735510691,0.324899991846,0.0,0.0,0.0,0.324899991846,0.0,0.0,0.0,1.29959996738,1,447.6196873345567,233.31232187994348,365.7155492704363,1.3975348371925267,-12.437709041357897,-0.3995704012360322,0,Fixed-Wing
1970-01-01 00:00:44.351952192,1866,1532133243370694192,base_link,0,1,40.5923477,-79.8958931,365.575534402,0.372100017452,0.0,0.0,0.0,0.372100017452,0.0,0.0,0.0,1.48840006981,1,448.0093990018886,228.2483491697671,365.55572932886406,0.9742718612907417,-12.659836826664767,-0.3995468573292352,0,Fixed-Wing
1970-01-01 00:00:44.795724640,1868,1532133243814592048,base_link,0,1,40.5923017,-79.8958911,365.535555625,0.372100017452,0.0,0.0,0.0,0.372100017452,0.0,0.0,0.0,1.48840006981,1,448.1790158448086,223.1399467817538,365.51591985308767,0.4240389270080297,-12.770910188206846,-0.09952294301891303,0,Fixed-Wing
1970-01-01 00:00:45.146997120,1870,1532133244165341136,base_link,0,1,40.5922557,-79.8958903,365.585575628,0.372100017452,0.0,0.0,0.0,0.372100017452,0.0,0.0,0.0,1.48840006981,1,448.2470515822074,218.03154147830384,365.566112178781,0.17008806783653085,-12.770917476743815,0.12547987313427897,0,Fixed-Wing
1970-01-01 00:00:45.573713728,1872,1532133244592002480,base_link,0,1,40.5922098,-79.8958907,365.78559437,0.372100017452,0.0,0.0,0.0,0.372100017452,0.0,0.0,0.0,1.48840006981,1,448.2135095490767,212.93424028659453,365.76630589968994,-0.08385445391831156,-12.743157405592724,0.5004805486682399,0,Fixed-Wing
1970-01-01 00:00:45.948445408,1874,1532133244967079568,base_link,0,1,40.5921645,-79.8958913,366.085612667,0.372100017452,0.0,0.0,0.0,0.372100017452,0.0,0.0,0.0,1.48840006981,1,448.16303917633996,207.9035725200579,366.0664941020742,-0.12617498552949388,-12.576575092028369,0.750464877474111,0,Fixed-Wing
1970-01-01 00:00:46.408211488,1876,1532133245426918480,base_link,0,1,40.5921193,-79.8958923,366.295630522,0.372100017452,0.0,0.0,0.0,0.372100017452,0.0,0.0,0.0,1.48840006981,1,448.0786991270409,202.88400465424584,366.27667990761597,-0.210848541883546,-12.548825548338549,0.5254605729000911,0,Fixed-Wing
1970-01-01 00:00:46.768757312,1878,1532133245785029712,base_link,0,1,40.592074,-79.8958931,366.385648634,0.372100017452,0.0,0.0,0.0,0.372100017452,0.0,0.0,0.0,1.48840006981,1,448.01128253190063,197.85332853918754,366.36686116879554,-0.16854022379903894,-12.576595963176024,0.2254514620629502,0,Fixed-Wing
1970-01-01 00:00:47.207651712,1880,1532133246226506192,base_link,0,1,40.5920283,-79.8958941,366.335666718,0.372100017452,0.0,0.0,0.0,0.372100017452,0.0,0.0,0.0,1.48840006981,1,447.92692735797016,192.77822609567716,366.3170409542,-0.21088635317854057,-12.687660951318836,-0.12454960236676559,0,Fixed-Wing
1970-01-01 00:00:47.562474240,1882,1532133246581235248,base_link,0,1,40.5919823,-79.8958962,366.22568381,0.372100017452,0.0,0.0,0.0,0.372100017452,0.0,0.0,0.0,1.48840006981,1,447.74944746463495,187.669800680942,366.20722321149884,-0.4436964056149656,-12.770967754579756,-0.2745422976857222,0,Fixed-Wing
1970-01-01 00:00:47.958340640,1884,1532133246977292304,base_link,0,1,40.591936,-79.8958996,366.045699705,0.372100017452,0.0,0.0,0.0,0.372100017452,0.0,0.0,0.0,1.48840006981,1,447.46191060351816,182.5280511480837,366.0274088313389,-0.7188367615162672,-12.854277425065023,-0.44953257890550685,0,Fixed-Wing
1970-01-01 00:00:48.362302272,1886,1532133247380831536,base_link,0,1,40.5918894,-79.8959041,365.825714608,0.372100017452,0.0,0.0,0.0,0.372100017452,0.0,0.0,0.0,1.48840006981,1,447.081250035009,177.35297953384185,365.8075967381392,-0.9516442839407271,-12.937582003739617,-0.5495261115534658,0,Fixed-Wing
1970-01-01 00:00:48.774754240,1888,1532133247793587536,base_link,0,1,40.5918426,-79.895908,365.67573022,0.372100017452,0.0,0.0,0.0,0.372100017452,0.0,0.0,0.0,1.48840006981,1,446.75138932807903,172.15570279448622,365.6577781730517,-0.8246455824831112,-12.993094400181073,-0.37454360364161643,0,Fixed-Wing
1970-01-01 00:00:49.160820320,1890,1532133248179541072,base_link,0,1,40.5917954,-79.8959108,365.355747139,0.372100017452,0.0,0.0,0.0,0.372100017452,0.0,0.0,0.0,1.48840006981,1,446.51464160622334,166.9140065135958,365.3379513077831,-0.5918648656527397,-13.104142421157864,-0.7995611664628111,0,Fixed-Wing
1970-01-01 00:00:49.551630464,1892,1532133248570618192,base_link,0,1,40.591748,-79.8959124,365.055765384,0.372100017452,0.0,0.0,0.0,0.372100017452,0.0,0.0,0.0,1.48840006981,1,446.37948471272165,161.6501069201195,365.03811490668784,-0.33788969958147097,-13.159650286313628,-0.7495853808478006,0,Fixed-Wing
1970-01-01 00:00:49.953801952,1894,1532133248972717392,base_link,0,1,40.5917002,-79.8959132,365.055784628,0.372100017452,0.0,0.0,0.0,0.372100017452,0.0,0.0,0.0,1.48840006981,1,446.31207691492625,156.34179833825556,365.03827150705126,-0.16851823060176316,-13.270671924620416,0.00039149797232831024,0,Fixed-Wing
1970-01-01 00:00:50.381105888,1896,1532133249400060976,base_link,0,1,40.5916527,-79.8959139,365.075803861,0.372100017452,0.0,0.0,0.0,0.372100017452,0.0,0.0,0.0,1.48840006981,1,446.2531341361943,151.06680650148252,365.0584222831452,-0.14735584166101834,-13.187380686577452,0.050376562410637205,0,Fixed-Wing
1970-01-01 00:00:50.745988480,1898,1532133249764142000,base_link,0,1,40.5916055,-79.8959155,365.325822055,0.372100017452,0.0,0.0,0.0,0.372100017452,0.0,0.0,0.0,1.48840006981,1,446.1180138703431,145.82513110403312,365.3085722052067,-0.33779813114212154,-13.104090212946899,0.6253701148778784,0,Fixed-Wing
1970-01-01 00:00:51.158635232,1900,1532133250177614192,base_link,0,1,40.5915595,-79.8959176,365.565839243,0.372100017452,0.0,0.0,0.0,0.372100017452,0.0,0.0,0.0,1.48840006981,1,445.94055610486413,140.7167154699394,365.5487168115553,-0.4436410863892226,-12.77094330315952,0.6003570131939557,0,Fixed-Wing
1970-01-01 00:00:51.561435232,1902,1532133250580362160,base_link,0,1,40.5915144,-79.8959198,365.50585596,0.372100017452,0.0,0.0,0.0,0.372100017452,0.0,0.0,0.0,1.48840006981,1,445.75460543908775,135.7082397544959,365.48885529883086,-0.46487317789210214,-12.521095380393385,-0.149652659416222,0,Fixed-Wing
1970-01-01 00:00:51.933813504,1904,1532133250952407888,base_link,0,1,40.5914704,-79.8959228,365.365871402,0.372100017452,0.0,0.0,0.0,0.372100017452,0.0,0.0,0.0,1.48840006981,1,445.50091575411307,130.8219161232023,365.3489907821348,-0.6342194557908019,-12.215717460353064,-0.3496586693000712,0,Fixed-Wing
1970-01-01 00:00:52.350526112,1906,1532133251369417520,base_link,0,1,40.591427,-79.8959267,365.145885678,0.372100017452,0.0,0.0,0.0,0.372100017452,0.0,0.0,0.0,1.48840006981,1,445.1710245145602,126.00221805433294,365.12912532575865,-0.8247219134678104,-12.049154803512367,-0.5496595184940345,0,Fixed-Wing
1970-01-01 00:00:52.769422272,1908,1532133251788181168,base_link,0,1,40.5913838,-79.8959306,364.885899878,0.372100017452,0.0,0.0,0.0,0.372100017452,0.0,0.0,0.0,1.48840006981,1,444.84112875983186,121.20473008498317,364.8692557036067,-0.824733201321842,-11.993629971149652,-0.649669182860976,0,Fixed-Wing
1970-01-01 00:00:53.183333600,1910,1532133252202196112,base_link,0,1,40.5913407,-79.8959343,364.72591425,0.372100017452,0.0,0.0,0.0,0.372100017452,0.0,0.0,0.0,1.48840006981,1,444.5281704089799,116.41835063537397,364.7093812360713,-0.7823900092047887,-11.965858880081399,-0.39968317121475816,0,Fixed-Wing
1970-01-01 00:00:53.585809536,1912,1532133252604069936,base_link,0,1,40.5912979,-79.8959389,364.525927581,0.372100017452,0.0,0.0,0.0,0.372100017452,0.0,0.0,0.0,1.48840006981,1,444.13901508807055,111.66528194732601,364.5095068276379,-0.9728810056658755,-11.882582600750396,-0.4996822734664542,0,Fixed-Wing
1970-01-01 00:00:53.959122240,1914,1532133252977864976,base_link,0,1,40.5912551,-79.8959447,364.35593969,0.372100017452,0.0,0.0,0.0,0.372100017452,0.0,0.0,0.0,1.48840006981,1,443.6482722326638,106.91220807067674,364.33963467931227,-1.2268479371572771,-11.882595572156378,-0.42467718573516594,0,Fixed-Wing
1970-01-01 00:00:54.345279808,1916,1532133253363957232,base_link,0,1,40.5912124,-79.8959521,364.165950122,0.372100017452,0.0,0.0,0.0,0.372100017452,0.0,0.0,0.0,1.48840006981,1,443.0220744517425,102.1702313823709,364.1497664832212,-1.5654827111829217,-11.85485280936853,-0.4746669302257321,0,Fixed-Wing
1970-01-01 00:00:54.739825696,1918,1532133253758809488,base_link,0,1,40.5911699,-79.895963,363.895956886,0.372100017452,0.0,0.0,0.0,0.372100017452,0.0,0.0,0.0,1.48840006981,1,442.0995670180208,97.45044673376538,363.8799111997397,-2.3062512874196073,-11.799373126215368,-0.674633148955109,0,Fixed-Wing
1970-01-01 00:00:55.146254592,1920,1532133254164916880,base_link,0,1,40.5911278,-79.8959779,363.575959383,0.372100017452,0.0,0.0,0.0,0.372100017452,0.0,0.0,0.0,1.48840006981,1,440.8384213187865,92.77506281948644,363.5600707450745,-3.1528406017812496,-11.688372122906426,-0.7995951396994807,0,Fixed-Wing
1970-01-01 00:00:55.566322592,1922,1532133254582342896,base_link,0,1,40.5910858,-79.8959972,363.265957329,0.372100017452,0.0,0.0,0.0,0.372100017452,0.0,0.0,0.0,1.48840006981,1,439.2047797828218,88.11076304070764,363.25024752775005,-4.0840732093627485,-11.660661991982055,-0.7745522341693325,0,Fixed-Wing
1970-01-01 00:00:55.973207904,1924,1532133254991067888,base_link,0,1,40.5910446,-79.8960216,362.915949709,0.372100017452,0.0,0.0,0.0,0.372100017452,0.0,0.0,0.0,1.48840006981,1,437.13937327336794,83.53528012962158,362.9004433028448,-5.163477547553021,-11.438621488053979,-0.8745040034831139,0,Fixed-Wing
1970-01-01 00:00:56.398721216,1926,1532133255417499280,base_link,0,1,40.5910047,-79.8960521,362.555935285,0.372100017452,0.0,0.0,0.0,0.372100017452,0.0,0.0,0.0,1.48840006981,1,434.557542067927,79.10413612280402,362.5406616799071,-6.454529604630338,-11.077776933716901,-0.8994473114894216,0,Fixed-Wing
1970-01-01 00:00:56.760071648,1928,1532133255779014000,base_link,0,1,40.5909664,-79.8960889,362.265913723,0.372100017452,0.0,0.0,0.0,0.372100017452,0.0,0.0,0.0,1.48840006981,1,431.4423573807958,74.85064721162132,362.25090274781104,-7.787903308553197,-10.633642525637807,-0.7243918973008933,0,Fixed-Wing
1970-01-01 00:00:57.176643104,1930,1532133256195486544,base_link,0,1,40.5909305,-79.8961321,362.045884582,0.372100017452,0.0,0.0,0.0,0.372100017452,0.0,0.0,0.0,1.48840006981,1,427.78534759236896,70.86365527151582,362.0311652225937,-9.142455902647779,-9.967405094725532,-0.5493396929956529,0,Fixed-Wing
1970-01-01 00:00:57.571828384,1932,1532133256590726320,base_link,0,1,40.5908977,-79.8961819,361.99584736,0.372100017452,0.0,0.0,0.0,0.372100017452,0.0,0.0,0.0,1.48840006981,1,423.5695827679576,67.22089765792992,361.98144847355746,-10.539333016030724,-9.106825732771753,-0.12429094040853643,0,Fixed-Wing
1970-01-01 00:00:57.971185184,1934,1532133256988622768,base_link,0,1,40.590869,-79.8962378,362.085802145,0.372100017452,0.0,0.0,0.0,0.372100017452,0.0,0.0,0.0,1.48840006981,1,418.8373831832707,64.03342941826833,362.07174818064175,-11.83041023364063,-7.968610834572736,0.22574757460390138,0,Fixed-Wing
1970-01-01 00:00:58.369071520,1936,1532133257387998672,base_link,0,1,40.5908454,-79.8962991,362.155749234,0.372100017452,0.0,0.0,0.0,0.372100017452,0.0,0.0,0.0,1.48840006981,1,413.6479928650799,61.41230541117105,362.1420592735021,-12.973378495138187,-6.552760872036658,0.17577641382784423,0,Fixed-Wing
1970-01-01 00:00:58.764835488,1938,1532133257783379568,base_link,0,1,40.5908279,-79.8963652,362.245688817,0.372100017452,0.0,0.0,0.0,0.372100017452,0.0,0.0,0.0,1.48840006981,1,408.0522039061178,59.46858211268801,362.23237724330335,-13.989367477149145,-4.8592718016690775,0.22579323105381593,0,Fixed-Wing
1970-01-01 00:00:59.162941632,1940,1532133258181383696,base_link,0,1,40.590817,-79.8964349,362.445621917,0.372100017452,0.0,0.0,0.0,0.372100017452,0.0,0.0,0.0,1.48840006981,1,402.1516098938669,58.25779290971457,362.43269576401923,-14.7513743953193,-3.0269503053063214,0.5007925458456116,0,Fixed-Wing
1970-01-01 00:00:59.560979520,1942,1532133258579802640,base_link,0,1,40.5908122,-79.8965062,362.815550798,0.372100017452,0.0,0.0,0.0,0.372100017452,0.0,0.0,0.0,1.48840006981,1,396.1155350779752,57.72442189905206,362.8030066754979,-15.090073864175292,-1.3334175260248204,0.9257703354191555,0,Fixed-Wing
1970-01-01 00:00:59.961077088,1944,1532133258979979920,base_link,0,1,40.5908128,-79.8965775,363.325477399,0.372100017452,0.0,0.0,0.0,0.372100017452,0.0,0.0,0.0,1.48840006981,1,390.0794358687788,57.79073965271155,363.3133041452027,-15.090134846979739,0.16579314070017,1.2757341062562628,0,Fixed-Wing
1970-01-01 00:01:00.377719648,1946,1532133259396707440,base_link,0,1,40.5908164,-79.8966472,363.77540438,0.372100017452,0.0,0.0,0.0,0.372100017452,0.0,0.0,0.0,1.48840006981,1,384.17876810385025,58.190225805443475,363.7635851044845,-14.751558775630503,0.9987078915206247,1.1256939554997583,0,Fixed-Wing
1970-01-01 00:01:00.807387456,1948,1532133259826008976,base_link,0,1,40.5908212,-79.8967155,364.105332297,0.372100017452,0.0,0.0,0.0,0.372100017452,0.0,0.0,0.0,1.48840006981,1,378.39660770380584,58.72298442947226,364.0938532805021,-14.45529258541662,1.331886570922686,0.8256642475622072,0,Fixed-Wing
1970-01-01 00:01:01.155844608,1950,1532133260174880816,base_link,0,1,40.5908256,-79.8967823,364.41526193,0.372100017452,0.0,0.0,0.0,0.372100017452,0.0,0.0,0.0,1.48840006981,1,372.74143583357954,59.21133281037737,364.40411089504744,-14.13782364188843,1.2208617957993029,0.7756382190766602,0,Fixed-Wing
1970-01-01 00:01:01.561452512,1952,1532133260575532176,base_link,0,1,40.5908281,-79.8968478,364.715193709,0.372100017452,0.0,0.0,0.0,0.372100017452,0.0,0.0,0.0,1.48840006981,1,367.1963295862623,59.4886913459157,364.7043612612722,-13.862661648330691,0.6933911384122772,0.7506202859097534,0,Fixed-Wing
1970-01-01 00:01:01.945429984,1954,1532133260964100080,base_link,0,1,40.5908285,-79.8969123,364.895127409,0.324899991846,0.0,0.0,0.0,0.324899991846,0.0,0.0,0.0,1.29959996738,1,361.7358859182132,59.53284702288542,364.88460611491837,-13.65100678757183,0.11038836451157338,0.4506087545497721,0,Fixed-Wing
1970-01-01 00:01:02.370591520,1956,1532133261389607376,base_link,0,1,40.590827,-79.896976,364.97506274,0.324899991846,0.0,0.0,0.0,0.324899991846,0.0,0.0,0.0,1.29959996738,1,356.34317305076036,59.3660094868321,364.96484612361246,-13.481681056024259,-0.417090711952965,0.20059851724634728,0,Fixed-Wing
1970-01-01 00:01:02.785054048,1958,1532133261803999440,base_link,0,1,40.590824,-79.8970394,364.90499902,0.36000002861,0.0,0.0,0.0,0.36000002861,0.0,0.0,0.0,1.44000011444,1,350.97585685913344,59.03259708204493,364.895082676483,-13.41818984264346,-0.8335247605322167,-0.17440730976879268,0,Fixed-Wing
1970-01-01 00:01:03.170650176,1960,1532133262189525808,base_link,0,1,40.5908202,-79.8971031,364.754935337,0.36000002861,0.0,0.0,0.0,0.36000002861,0.0,0.0,0.0,1.44000011444,1,345.5831426416811,58.61034473538527,364.74531693338827,-13.481684430997646,-1.0556229494770322,-0.3744115496502451,0,Fixed-Wing
1970-01-01 00:01:03.615715008,1962,1532133262634710448,base_link,0,1,40.5908166,-79.8971682,364.554870141,0.36000002861,0.0,0.0,0.0,0.36000002861,0.0,0.0,0.0,1.44000011444,1,340.07190294070915,58.210300918979385,364.54555120432326,-13.777995917460473,-1.000102040249407,-0.4994105770831888,0,Fixed-Wing
1970-01-01 00:01:03.965837664,1964,1532133262984680592,base_link,0,1,40.590813,-79.8972346,364.45480362,0.36000002861,0.0,0.0,0.0,0.36000002861,0.0,0.0,0.0,1.44000011444,1,334.4506125942472,57.81025717181933,364.4457851336333,-14.053120467751324,-1.0001018671361337,-0.24941330612508494,0,Fixed-Wing
1970-01-01 00:01:04.350529792,1966,1532133263369461168,base_link,0,1,40.5908093,-79.8973022,364.474735918,0.324899991846,0.0,0.0,0.0,0.324899991846,0.0,0.0,0.0,1.29959996738,1,328.7277386651376,57.39910904338484,364.4660182379415,-14.307077519692593,-1.0278626121166352,0.05058238140264953,0,Fixed-Wing
1970-01-01 00:01:04.807399808,1968,1532133263826223984,base_link,0,1,40.5908059,-79.8973706,364.694667277,0.324899991846,0.0,0.0,0.0,0.324899991846,0.0,0.0,0.0,1.29959996738,1,322.93714618469323,57.02127987416418,364.6862483741288,-14.476372628316259,-0.9445658388078609,0.5505712111841584,0,Fixed-Wing
1970-01-01 00:01:05.117471296,1970,1532133264136454640,base_link,0,1,40.5908033,-79.8974389,365.004598408,0.324899991846,0.0,0.0,0.0,0.324899991846,0.0,0.0,0.0,1.29959996738,1,317.1550192271715,56.73229824003903,364.9964718015542,-14.45520897973693,-0.7224486669478737,0.7755527519178576,0,Fixed-Wing
1970-01-01 00:01:05.585050208,1972,1532133264603991920,base_link,0,1,40.5908014,-79.8975068,365.254529661,0.324899991846,0.0,0.0,0.0,0.324899991846,0.0,0.0,0.0,1.29959996738,1,311.4067483705655,56.521058611249344,365.2466877601411,-14.370569362244886,-0.5280951112608763,0.6255352049532649,0,Fixed-Wing
1970-01-01 00:01:05.961462112,1974,1532133264980094320,base_link,0,1,40.5908003,-79.8975747,365.174460583,0.324899991846,0.0,0.0,0.0,0.324899991846,0.0,0.0,0.0,1.29959996738,1,305.6584573044101,56.398662382162286,365.16689742275037,-14.370619885739329,-0.30598827780556354,-0.19947434741929831,0,Fixed-Wing
1970-01-01 00:01:06.350150880,1976,1532133265369034800,base_link,0,1,40.5907997,-79.8976428,364.834391096,0.324899991846,0.0,0.0,0.0,0.324899991846,0.0,0.0,0.0,1.29959996738,1,299.89322011187915,56.33179379484719,364.8271018048564,-14.412984883940737,-0.16717021451113903,-0.8494826736148714,0,Fixed-Wing
1970-01-01 00:01:06.782353024,1978,1532133265801326448,base_link,0,1,40.5907997,-79.8977126,364.714319623,0.324899991846,0.0,0.0,0.0,0.324899991846,0.0,0.0,0.0,1.29959996738,1,293.98407198788016,56.331557365938124,364.707305032792,-14.772759514301114,-0.0005910678396466267,-0.2994896839883101,0,Fixed-Wing
1970-01-01 00:01:07.147006240,1980,1532133266165865808,base_link,0,1,40.5907999,-79.8977833,364.854247153,0.324899991846,0.0,0.0,0.0,0.324899991846,0.0,0.0,0.0,1.29959996738,1,287.99874257074634,56.35353545469894,364.84750503595853,-14.96321131874964,0.054944809815971586,0.3504973791859373,0,Fixed-Wing
1970-01-01 00:01:07.562393056,1982,1532133266580022960,base_link,0,1,40.5907999,-79.8978538,365.10417498,0.324899991846,0.0,0.0,0.0,0.324899991846,0.0,0.0,0.0,1.29959996738,1,282.0303502641439,56.35330948742015,365.0976991770292,-14.920868859989612,-0.0005649139601310854,0.6254806615717006,0,Fixed-Wing
1970-01-01 00:01:07.960133792,1984,1532133266978775632,base_link,0,1,40.5907994,-79.8979238,365.394103539,0.324899991846,0.0,0.0,0.0,0.324899991846,0.0,0.0,0.0,1.29959996738,1,276.1042903801161,56.2975640300113,365.38788713376005,-14.815038597280111,-0.13936259830262956,0.7254644508437361,0,Fixed-Wing
1970-01-01 00:01:08.390436896,1986,1532133267409284240,base_link,0,1,40.5907999,-79.8979936,365.494031888,0.324899991846,0.0,0.0,0.0,0.324899991846,0.0,0.0,0.0,1.29959996738,1,270.19514945079914,56.35287459633901,365.4880676851552,-14.772741527730911,0.1382753787539222,0.2504495001166728,0,Fixed-Wing
1970-01-01 00:01:08.733678176,1988,1532133267752694704,base_link,0,1,40.5908013,-79.8980638,365.433959456,0.324899991846,0.0,0.0,0.0,0.324899991846,0.0,0.0,0.0,1.29959996738,1,264.2521349779337,56.50813437593902,365.4282425016098,-14.857424751478007,0.38814653790100495,-0.14956183714971974,0,Fixed-Wing
1970-01-01 00:01:09.169397952,1990,1532133268188051440,base_link,0,1,40.5908035,-79.898135,365.493885673,0.324899991846,0.0,0.0,0.0,0.324899991846,0.0,0.0,0.0,1.29959996738,1,258.22446443131344,56.752238936118346,365.48841306521786,-15.069063348575494,0.6102568235221323,0.15042528083049284,0,Fixed-Wing
1970-01-01 00:01:09.619364480,1992,1532133268638170800,base_link,0,1,40.5908058,-79.8982067,365.423811345,0.324899991846,0.0,0.0,0.0,0.324899991846,0.0,0.0,0.0,1.29959996738,1,252.15445955437744,57.007451016151435,365.41857896009185,-15.174898380602137,0.6380254148921126,-0.17458395343536387,0,Fixed-Wing
1970-01-01 00:01:10.007501632,1994,1532133269026187984,base_link,0,1,40.5908089,-79.8982788,365.163736279,0.324899991846,0.0,0.0,0.0,0.324899991846,0.0,0.0,0.0,1.29959996738,1,246.050581697289,57.35150710973551,365.1587388409587,-15.259580195869617,0.8601337829568083,-0.649595425867239,0,Fixed-Wing
1970-01-01 00:01:10.358894912,1996,1532133269377782608,base_link,0,1,40.590812,-79.8983514,364.933660711,0.324899991846,0.0,0.0,0.0,0.324899991846,0.0,0.0,0.0,1.29959996738,1,239.90437693159123,57.69556708205147,364.92889395839796,-15.365396673769384,0.860143479713804,-0.5746078968425548,0,Fixed-Wing
1970-01-01 00:01:10.794339232,1998,1532133269811396976,base_link,0,1,40.590814,-79.8984237,364.683585923,0.324899991846,0.0,0.0,0.0,0.324899991846,0.0,0.0,0.0,1.29959996738,1,233.78357372980233,57.91747510143091,364.6790441073205,-15.301893240272955,0.5547658877044451,-0.6246199430440335,0,Fixed-Wing
1970-01-01 00:01:11.175990816,2000,1532133270194856208,base_link,0,1,40.5908154,-79.8984953,364.443512113,0.324899991846,0.0,0.0,0.0,0.324899991846,0.0,0.0,0.0,1.29959996738,1,227.72203448898338,58.07275861033179,364.4391878561654,-15.153734449038994,0.3882058607082434,-0.5996361306168145,0,Fixed-Wing
1970-01-01 00:01:11.539960224,2002,1532133270558665936,base_link,0,1,40.5908166,-79.8985657,364.413439623,0.324899991846,0.0,0.0,0.0,0.324899991846,0.0,0.0,0.0,1.29959996738,1,221.76209371358397,58.20584150576917,364.40932384817506,-14.899740190447115,0.33270474330788224,-0.07465946002990159,0,Fixed-Wing
1970-01-01 00:01:11.961699328,2004,1532133270980378384,base_link,0,1,40.5908179,-79.8986339,364.763369348,0.324899991846,0.0,0.0,0.0,0.324899991846,0.0,0.0,0.0,1.29959996738,1,215.9884137204682,58.3500432795156,364.75945009139457,-14.434091727101455,0.3605017306030984,0.8753090432309414,0,Fixed-Wing
1970-01-01 00:01:12.377598112,2006,1532133271396525392,base_link,0,1,40.5908198,-79.8986995,365.253301487,0.324899991846,0.0,0.0,0.0,0.324899991846,0.0,0.0,0.0,1.29959996738,1,210.4348473238724,58.560888466700845,365.2495656681054,-13.88381186290056,0.5271090146454961,1.2252797521789105,0,Fixed-Wing
1970-01-01 00:01:12.786583392,2008,1532133271805038320,base_link,0,1,40.5908218,-79.8987628,365.503235942,0.324899991846,0.0,0.0,0.0,0.324899991846,0.0,0.0,0.0,1.29959996738,1,205.07598621072938,58.78284619954073,365.4996723733153,-13.39705230496523,0.5548901704234287,0.6252620735592738,0,Fixed-Wing
1970-01-01 00:01:13.203936256,2010,1532133272222664720,base_link,0,1,40.590824,-79.8988248,365.473171649,0.324899991846,0.0,0.0,0.0,0.324899991846,0.0,0.0,0.0,1.29959996738,1,199.82717128313848,59.02701863212067,365.4697721777618,-13.121938904435465,0.6104265032510859,-0.07474992825934602,0,Fixed-Wing
1970-01-01 00:01:13.587396352,2012,1532133272606003088,base_link,0,1,40.5908259,-79.8988863,365.263107999,0.324899991846,0.0,0.0,0.0,0.324899991846,0.0,0.0,0.0,1.29959996738,1,194.62068122333244,59.23787847135921,365.2598673264365,-13.016127528558645,0.5271456445040099,-0.5247581926267828,0,Fixed-Wing
1970-01-01 00:01:13.945023104,2014,1532133272964011056,base_link,0,1,40.5908271,-79.8989483,364.86304414,0.36000002861,0.0,0.0,0.0,0.36000002861,0.0,0.0,0.0,1.44000011444,1,189.37185905775243,59.37100241885972,364.85995999421345,-13.121956999272529,0.33280737269597405,-0.9997608323513861,0,Fixed-Wing
1970-01-01 00:01:14.335284288,2016,1532133273353015056,base_link,0,1,40.5908266,-79.8990107,364.322980594,0.36000002861,0.0,0.0,0.0,0.36000002861,0.0,0.0,0.0,1.44000011444,1,184.08917509774915,59.31533887826629,364.3200513978357,-13.206610850426829,-0.13915780780001327,-1.3497613677341334,0,Fixed-Wing
1970-01-01 00:01:14.765203648,2018,1532133273784179344,base_link,0,1,40.5908245,-79.8990739,363.68291691,0.324899991846,0.0,0.0,0.0,0.324899991846,0.0,0.0,0.0,1.29959996738,1,178.73876688912864,59.081992765629195,363.6801418438938,-13.375920202149752,-0.5833609063859359,-1.5997618866405774,0,Fixed-Wing
1970-01-01 00:01:15.239730624,2020,1532133274258152912,base_link,0,1,40.5908217,-79.8991382,362.822852403,0.324899991846,0.0,0.0,0.0,0.324899991846,0.0,0.0,0.0,1.29959996738,1,173.29523129127506,58.77090970379393,362.8202302204956,-13.608736929106987,-0.7777018218244919,-2.149762935273497,0,Fixed-Wing
1970-01-01 00:01:15.562829152,2022,1532133274581784144,base_link,0,1,40.5908182,-79.8992039,362.052786767,0.324899991846,0.0,0.0,0.0,0.324899991846,0.0,0.0,0.0,1.29959996738,1,167.73317941887137,58.382092231689654,362.0503166394599,-13.905025393318764,-0.972036389987772,-1.9247695168179324,0,Fixed-Wing
1970-01-01 00:01:15.957768704,2024,1532133274976801072,base_link,0,1,40.5908143,-79.8992711,361.762719775,0.324899991846,0.0,0.0,0.0,0.324899991846,0.0,0.0,0.0,1.29959996738,1,162.04415424289522,57.94885968750614,361.7604004653166,-14.222456271518352,-1.083073237409497,-0.7247849994707197,0,Fixed-Wing
1970-01-01 00:01:16.351044320,2026,1532133275369280240,base_link,0,1,40.5908097,-79.8993384,361.842652981,0.324899991846,0.0,0.0,0.0,0.324899991846,0.0,0.0,0.0,1.29959996738,1,156.34667379491822,57.43789806717879,361.8404803019534,-14.243594292985303,-1.2773944703598483,0.2001980901063205,0,Fixed-Wing
1970-01-01 00:01:16.776348928,2028,1532133275793911984,base_link,0,1,40.5908052,-79.8994051,362.112586766,0.324899991846,0.0,0.0,0.0,0.324899991846,0.0,0.0,0.0,1.29959996738,1,150.69999157691535,56.93804874615799,362.1105542963676,-14.116599670509636,-1.2496139304475316,0.6751799221860589,0,Fixed-Wing
1970-01-01 00:01:17.168664416,2030,1532133276187601968,base_link,0,1,40.5908014,-79.8994712,362.352520875,0.36000002861,0.0,0.0,0.0,0.36000002861,0.0,0.0,0.0,1.44000011444,1,145.10410083233523,56.51594101693172,362.35062173871665,-13.98962193928575,-1.0552614086051084,0.6001641046418971,0,Fixed-Wing
1970-01-01 00:01:17.563476384,2032,1532133276578960528,base_link,0,1,40.5907987,-79.8995373,362.562454529,0.324899991846,0.0,0.0,0.0,0.324899991846,0.0,0.0,0.0,1.29959996738,1,139.50820608978245,56.21599475732057,362.5606827202038,-13.98963193414246,-0.7498600250776796,0.525148515103931,0,Fixed-Wing
1970-01-01 00:01:17.973736480,2034,1532133276992717648,base_link,0,1,40.5907974,-79.8996038,362.752387194,0.324899991846,0.0,0.0,0.0,0.324899991846,0.0,0.0,0.0,1.29959996738,1,133.87844404859686,56.071525169608094,362.7507371364269,-14.074299545717372,-0.36117126049674286,0.4751324770642218,0,Fixed-Wing
1970-01-01 00:01:18.386530720,2036,1532133277405546416,base_link,0,1,40.5907969,-79.8996705,362.992319326,0.324899991846,0.0,0.0,0.0,0.324899991846,0.0,0.0,0.0,1.29959996738,1,128.23174929134956,56.015901846646415,362.99078561267754,-14.11663101838562,-0.1390572644747149,0.6001166897514504,0,Fixed-Wing
