time,field.header.seq,field.header.stamp,field.header.frame_id,field.status.status,field.status.service,lat,lon,alt,field.position_covariance0,field.position_covariance1,field.position_covariance2,field.position_covariance3,field.position_covariance4,field.position_covariance5,field.position_covariance6,field.position_covariance7,field.position_covariance8,field.position_covariance_type,x,y,z,vel_x,vel_y,vel_z,track_id,uav_category
1970-01-01 00:00:00.000000000,4556,1538770094423339232,base_link,0,1,40.5905024,-79.8959318,367.656272067,0.518400041199,0.0,0.0,0.0,0.518400041199,0.0,0.0,0.0,2.07360016479,1,477.11902667207823,55.54147423011136,367.6382104460191,19.555359592471884,8.607688438939645,1.5986261851300512,0,Fixed-Wing
1970-01-01 00:00:00.391985248,4558,1538770094821886112,base_link,0,1,40.5905334,-79.8958394,368.296353791,0.518400041199,0.0,0.0,0.0,0.518400041199,0.0,0.0,0.0,2.07360016479,1,484.94130739658414,58.98460985950629,368.27767211045443,19.555359592471884,8.607688438939645,1.5986261851300512,0,Fixed-Wing
1970-01-01 00:00:00.772150272,4560,1538770095202041792,base_link,0,1,40.5905725,-79.8957527,368.566426221,0.518400041199,0.0,0.0,0.0,0.518400041199,0.0,0.0,0.0,2.07360016479,1,492.2809407892354,63.32724361999229,368.5471413626933,18.34876237828651,10.856394414312737,0.6736613415237177,0,Fixed-Wing
1970-01-01 00:00:01.202110176,4562,1538770095631986272,base_link,0,1,40.5906177,-79.8956725,368.426489389,0.422499969006,0.0,0.0,0.0,0.422499969006,0.0,0.0,0.0,1.68999987602,1,499.070208658512,68.34726363024527,368.40662574063185,16.972872647920195,12.549830403600382,-0.35128290770275816,0,Fixed-Wing
1970-01-01 00:00:01.585100992,4564,1538770096014957824,base_link,0,1,40.59067,-79.8956006,368.146541019,0.422499969006,0.0,0.0,0.0,0.422499969006,0.0,0.0,0.0,1.68999987602,1,505.1567376889755,74.15571263037731,368.12613387739606,15.216056295173608,14.520868385133369,-0.7012173867852196,0,Fixed-Wing
1970-01-01 00:00:02.005775552,4566,1538770096435440352,base_link,0,1,40.5907289,-79.8955381,367.586580196,0.422499969006,0.0,0.0,0.0,0.422499969006,0.0,0.0,0.0,1.68999987602,1,510.4473957337542,80.69705407053772,367.5656728531475,13.226413649707867,16.353067421721143,-1.4011280408807394,0,Fixed-Wing
1970-01-01 00:00:02.403948192,4568,1538770096833525056,base_link,0,1,40.5907939,-79.8954862,366.936605903,0.422499969006,0.0,0.0,0.0,0.422499969006,0.0,0.0,0.0,1.68999987602,1,514.8406121054905,87.9157546244989,366.91525032785603,10.982848729488094,18.046435572280448,-1.626027857741106,0,Fixed-Wing
1970-01-01 00:00:02.774260480,4570,1538770097203958912,base_link,0,1,40.5908641,-79.8954456,366.036617807,0.422499969006,0.0,0.0,0.0,0.422499969006,0.0,0.0,0.0,1.68999987602,1,518.2771215722931,95.71185853046774,366.01487182294863,8.591123322348334,19.48991869134499,-2.2509068713982354,0,Fixed-Wing
1970-01-01 00:00:03.209001280,4572,1538770097638791680,base_link,0,1,40.590938,-79.8954173,365.056615522,0.422499969006,0.0,0.0,0.0,0.422499969006,0.0,0.0,0.0,1.68999987602,1,520.6722938023834,103.91878161930512,365.034546002439,5.987825788274267,20.51694867549164,-2.4507716627699514,0,Fixed-Wing
1970-01-01 00:00:03.592884032,4574,1538770098022762496,base_link,0,1,40.5910145,-79.8954052,364.406595512,0.422499969006,0.0,0.0,0.0,0.422499969006,0.0,0.0,0.0,1.68999987602,1,521.6960083748875,112.41434893346451,364.38429803898146,2.559241644531482,21.23854661083278,-1.6255914607933344,0,Fixed-Wing
1970-01-01 00:00:04.011268704,4576,1538770098441128832,base_link,0,1,40.5910911,-79.8954113,364.126556787,0.422499969006,0.0,0.0,0.0,0.422499969006,0.0,0.0,0.0,1.68999987602,1,521.1789774638635,120.92091915917518,364.10414554408794,-1.2925546578534728,21.266053408342042,-0.7003689807766211,0,Fixed-Wing
1970-01-01 00:00:04.375363584,4578,1538770098803727680,base_link,0,1,40.5911648,-79.8954332,364.016503088,0.422499969006,0.0,0.0,0.0,0.422499969006,0.0,0.0,0.0,1.68999987602,1,519.3243919634082,129.10534707770424,363.99408209567144,-4.636382614442498,20.46071173386729,-0.2751538058496403,0,Fixed-Wing
1970-01-01 00:00:04.770258752,4580,1538770099199990400,base_link,0,1,40.591234,-79.8954684,363.81643766,0.422499969006,0.0,0.0,0.0,0.422499969006,0.0,0.0,0.0,1.68999987602,1,516.3438913550709,136.7899596261231,363.7940977272366,-7.451121126223421,19.211195175131607,-0.4999521719241283,0,Fixed-Wing
1970-01-01 00:00:05.178838464,4582,1538770099608718432,base_link,0,1,40.5912966,-79.8955176,363.756360674,0.422499969006,0.0,0.0,0.0,0.422499969006,0.0,0.0,0.0,1.68999987602,1,512.1782529308155,143.7415490238381,363.7342028708747,-10.413913817146856,17.37866936757356,-0.14973452055062358,0,Fixed-Wing
1970-01-01 00:00:05.577712928,4584,1538770100007306368,base_link,0,1,40.5913516,-79.895578,363.796275424,0.422499969006,0.0,0.0,0.0,0.422499969006,0.0,0.0,0.0,1.68999987602,1,507.0645238946774,149.8490805228357,363.7743847077777,-12.784098868614969,15.268561547666886,0.10045283433290536,0,Fixed-Wing
1970-01-01 00:00:05.989202592,4586,1538770100418969536,base_link,0,1,40.5914013,-79.8956433,363.826187407,0.422499969006,0.0,0.0,0.0,0.422499969006,0.0,0.0,0.0,1.68999987602,1,501.53602060397856,155.3680099460853,363.80460079771234,-13.82101635896081,13.797082109187095,0.0755389029058002,0,Fixed-Wing
1970-01-01 00:00:06.397257312,4588,1538770100826695424,base_link,0,1,40.5914469,-79.8957107,364.01609899,0.422499969006,0.0,0.0,0.0,0.422499969006,0.0,0.0,0.0,1.68999987602,1,495.82978767731265,160.43162106263833,363.99483221648063,-14.265332673342979,12.658806262272995,0.4755702244418019,0,Fixed-Wing
1970-01-01 00:00:06.813823104,4590,1538770101243521760,base_link,0,1,40.5914911,-79.8957776,364.1060117,0.422499969006,0.0,0.0,0.0,0.422499969006,0.0,0.0,0.0,1.68999987602,1,490.16589337106365,165.33976374572063,364.0850564241165,-14.159487974582959,12.270141980221105,0.225556571849633,0,Fixed-Wing
1970-01-01 00:00:07.203533056,4592,1538770101633356608,base_link,0,1,40.5915354,-79.8958429,364.285926035,0.422499969006,0.0,0.0,0.0,0.422499969006,0.0,0.0,0.0,1.68999987602,1,484.6374640955897,170.25902735825974,364.26526287614195,-13.820831324136748,12.297943817330976,0.4505082461693394,0,Fixed-Wing
1970-01-01 00:00:07.603684128,4594,1538770102033439200,base_link,0,1,40.59158,-79.8959067,364.345841806,0.422499969006,0.0,0.0,0.0,0.422499969006,0.0,0.0,0.0,1.68999987602,1,479.2360164831024,175.2116159605489,364.32545173234666,-13.503382722020586,12.381254833763295,0.15046950729541714,0,Fixed-Wing
1970-01-01 00:00:08.002823840,4596,1538770102432220448,base_link,0,1,40.5916254,-79.8959692,364.075758598,0.422499969006,0.0,0.0,0.0,0.422499969006,0.0,0.0,0.0,1.68999987602,1,473.94460011470386,180.253048160276,364.0556225059231,-13.228309425581376,12.603359940518784,-0.6745612612368117,0,Fixed-Wing
1970-01-01 00:00:08.368342272,4598,1538770102792197312,base_link,0,1,40.5916721,-79.8960308,363.685675791,0.422499969006,0.0,0.0,0.0,0.422499969006,0.0,0.0,0.0,1.68999987602,1,468.7293648490968,185.43885310554288,363.66577550806636,-13.037860001467669,12.964285488171159,-0.9746004391341914,0,Fixed-Wing
1970-01-01 00:00:08.804632800,4600,1538770103234460672,base_link,0,1,40.591719,-79.8960927,363.315592616,0.422499969006,0.0,0.0,0.0,0.422499969006,0.0,0.0,0.0,1.68999987602,1,463.48874043930414,190.64687059772422,363.29592083251634,-13.101331751175966,13.019815883675388,-0.9246205080161498,0,Fixed-Wing
1970-01-01 00:00:09.213033216,4602,1538770103642783456,base_link,0,1,40.591766,-79.896155,362.955509013,0.422499969006,0.0,0.0,0.0,0.422499969006,0.0,0.0,0.0,1.68999987602,1,458.21426120864777,195.86599467401015,362.93605925451874,-13.185967322212782,13.047581858032325,-0.8996382013254912,0,Fixed-Wing
1970-01-01 00:00:09.605223392,4604,1538770104034993664,base_link,0,1,40.5918127,-79.8962183,362.735424536,0.422499969006,0.0,0.0,0.0,0.422499969006,0.0,0.0,0.0,1.68999987602,1,452.85514500979804,201.05180550737805,362.7161952203563,-13.397556039893635,12.964300208166096,-0.5496504665228676,0,Fixed-Wing
1970-01-01 00:00:09.977992832,4606,1538770104407035904,base_link,0,1,40.591859,-79.8962821,362.635339738,0.422499969006,0.0,0.0,0.0,0.422499969006,0.0,0.0,0.0,1.68999987602,1,447.4537192916312,206.19320028288257,362.6163265445432,-13.503327987177274,12.85326200667619,-0.2496673203547115,0,Fixed-Wing
1970-01-01 00:00:10.397095904,4608,1538770104825166368,base_link,0,1,40.5919049,-79.8963461,362.635254926,0.422499969006,0.0,0.0,0.0,0.422499969006,0.0,0.0,0.0,1.68999987602,1,442.0353793895718,211.2901802261906,362.61645178092266,-13.545612706926166,12.742226869299893,0.00031308546965578757,0,Fixed-Wing
1970-01-01 00:00:10.797943264,4610,1538770105227835584,base_link,0,1,40.5919502,-79.8964101,362.83517039,0.422499969006,0.0,0.0,0.0,0.422499969006,0.0,0.0,0.0,1.68999987602,1,436.6170644716217,216.3205395323215,362.8165708766833,-13.545550247745947,12.575678190958884,0.5002889843443058,0,Fixed-Wing
1970-01-01 00:00:11.166649664,4612,1538770105596370400,base_link,0,1,40.591996,-79.8964729,363.095086898,0.422499969006,0.0,0.0,0.0,0.422499969006,0.0,0.0,0.0,1.68999987602,1,431.3003453687166,221.406437279108,363.0766736534548,-13.291565154872531,12.714521862833616,0.6502455626314846,0,Fixed-Wing
1970-01-01 00:00:11.592824480,4614,1538770106022710848,base_link,0,1,40.5920423,-79.8965336,363.385005373,0.422499969006,0.0,0.0,0.0,0.422499969006,0.0,0.0,0.0,1.68999987602,1,426.16141081201437,226.54787668869938,363.3667560705242,-12.847111567303134,12.853373589940638,0.7251933517898778,0,Fixed-Wing
1970-01-01 00:00:11.995132704,4616,1538770106425053312,base_link,0,1,40.59209,-79.8965918,363.434925848,0.422499969006,0.0,0.0,0.0,0.422499969006,0.0,0.0,0.0,1.68999987602,1,421.23409967027374,231.8447966916636,363.41681258028024,-12.318062288261533,13.242068271215789,0.12513908445606797,0,Fixed-Wing
1970-01-01 00:00:12.403560416,4618,1538770106833260064,base_link,0,1,40.5921414,-79.896646,363.274848901,0.422499969006,0.0,0.0,0.0,0.422499969006,0.0,0.0,0.0,1.68999987602,1,416.6453847813068,237.5526249502349,363.2568260541819,-11.471586469654115,14.269320933311946,-0.3999593159578473,0,Fixed-Wing
1970-01-01 00:00:12.787088288,4620,1538770107215657504,base_link,0,1,40.5921977,-79.8966941,362.864776184,0.422499969006,0.0,0.0,0.0,0.422499969006,0.0,0.0,0.0,1.68999987602,1,412.57303506780795,243.8046313966459,362.8467811813214,-10.180696121565003,15.629742595532083,-1.025094243002023,0,Fixed-Wing
1970-01-01 00:00:13.194243648,4622,1538770107623879744,base_link,0,1,40.5922597,-79.8967328,362.214710746,0.422499969006,0.0,0.0,0.0,0.422499969006,0.0,0.0,0.0,1.68999987602,1,409.2964121502524,250.6896719712788,362.19665899953526,-8.191413944144799,17.2123002213284,-1.625277012117579,0,Fixed-Wing
1970-01-01 00:00:13.593246752,4624,1538770108022866944,base_link,0,1,40.5923282,-79.8967581,361.69465635,0.422499969006,0.0,0.0,0.0,0.422499969006,0.0,0.0,0.0,1.68999987602,1,407.1541584330976,258.2966200541897,361.67643725757887,-5.355540570927013,19.017037409122565,-1.3005315955880543,0,Fixed-Wing
1970-01-01 00:00:14.007479136,4626,1538770108435986656,base_link,0,1,40.5924012,-79.8967682,361.414615673,0.422499969006,0.0,0.0,0.0,0.422499969006,0.0,0.0,0.0,1.68999987602,1,406.29867080380785,266.4033832030625,361.39611679868256,-2.1386816462956117,20.26655320750087,-0.7007888834353214,0,Fixed-Wing
1970-01-01 00:00:14.369459328,4628,1538770108799238624,base_link,0,1,40.5924759,-79.8967607,361.404592334,0.422499969006,0.0,0.0,0.0,0.422499969006,0.0,0.0,0.0,1.68999987602,1,406.9331383514865,274.6990276599636,361.3857003363104,1.586141111727143,20.738748214158935,-0.026040700218189165,0,Fixed-Wing
1970-01-01 00:00:14.805749472,4630,1538770109235148576,base_link,0,1,40.5925494,-79.8967344,361.734588762,0.422499969006,0.0,0.0,0.0,0.422499969006,0.0,0.0,0.0,1.68999987602,1,409.15916543095784,282.8615117314218,361.715196931717,5.5649703116979214,20.40585307621669,0.823727073292778,0,Fixed-Wing
1970-01-01 00:00:15.221738816,4632,1538770109651606560,base_link,0,1,40.5926187,-79.8966903,362.404605172,0.422499969006,0.0,0.0,0.0,0.422499969006,0.0,0.0,0.0,1.68999987602,1,412.89211011281714,290.55767633523783,362.3846263484124,9.332198391176389,19.240074808230965,1.6735442547139914,0,Fixed-Wing
1970-01-01 00:00:15.576764576,4634,1538770110006256096,base_link,0,1,40.5926802,-79.8966305,363.234640902,0.422499969006,0.0,0.0,0.0,0.422499969006,0.0,0.0,0.0,1.68999987602,1,417.95420294287004,297.3877178346731,363.2140173028653,12.655010612446544,17.074804939501693,2.073441100912959,0,Fixed-Wing
1970-01-01 00:00:15.979655008,4636,1538770110409186592,base_link,0,1,40.59273,-79.8965569,364.244695617,0.422499969006,0.0,0.0,0.0,0.422499969006,0.0,0.0,0.0,1.68999987602,1,424.1846229684994,302.9185265228612,364.2234004049602,15.575777487967388,13.82677975182467,2.5234135954994383,0,Fixed-Wing
1970-01-01 00:00:16.391179776,4638,1538770110821037088,base_link,0,1,40.5927671,-79.8964736,365.314765532,0.422499969006,0.0,0.0,0.0,0.422499969006,0.0,0.0,0.0,1.68999987602,1,431.23628176210997,307.03902684280143,365.29280064501086,17.628838479353004,10.301070531116256,2.6734538146848443,0,Fixed-Wing
1970-01-01 00:00:16.807360992,4640,1538770111236736288,base_link,0,1,40.5927924,-79.8963852,366.234845563,0.422499969006,0.0,0.0,0.0,0.422499969006,0.0,0.0,0.0,1.68999987602,1,438.71974599156937,309.849134548552,366.21223485093725,18.708333177817888,7.0251463243157435,2.298545290273403,0,Fixed-Wing
1970-01-01 00:00:17.205191872,4642,1538770111634914880,base_link,0,1,40.5928063,-79.896295,367.004932167,0.422499969006,0.0,0.0,0.0,0.422499969006,0.0,0.0,0.0,1.68999987602,1,446.35565229877676,311.39325440248,366.9817170510558,19.08943170296368,3.8602320807586104,1.9236718360392338,0,Fixed-Wing
1970-01-01 00:00:17.585353728,4644,1538770112015041888,base_link,0,1,40.5928096,-79.8962056,367.365022352,0.422499969006,0.0,0.0,0.0,0.422499969006,0.0,0.0,0.0,1.68999987602,1,453.9238752741373,311.760202120869,367.34125592663094,18.920226334440464,0.9173532422907232,0.8988314593873109,0,Fixed-Wing
1970-01-01 00:00:18.002494624,4646,1538770112431552864,base_link,0,1,40.5928031,-79.8961186,367.675114149,0.422499969006,0.0,0.0,0.0,0.422499969006,0.0,0.0,0.0,1.68999987602,1,461.288988407315,311.0388284046984,367.6508553907042,18.41246061488353,-1.8034027308787184,0.7739851154435903,0,Fixed-Wing
1970-01-01 00:00:18.397137632,4648,1538770112826273632,base_link,0,1,40.5927865,-79.8960365,367.585205125,0.422499969006,0.0,0.0,0.0,0.422499969006,0.0,0.0,0.0,1.68999987602,1,468.23933175271617,309.1957864689621,367.5605304818299,17.375554291302816,-4.607524207667033,-0.22580832054005423,0,Fixed-Wing
1970-01-01 00:00:18.778106624,4650,1538770113207991424,base_link,0,1,40.5927591,-79.8959616,367.305293217,0.422499969006,0.0,0.0,0.0,0.422499969006,0.0,0.0,0.0,1.68999987602,1,474.58021915065797,306.1533365500398,367.2802977260885,15.851941085885494,-7.605991692451206,-0.7005696293849722,0,Fixed-Wing
1970-01-01 00:00:19.199071552,4652,1538770113628965376,base_link,0,1,40.5927216,-79.8958963,367.075375679,0.422499969006,0.0,0.0,0.0,0.422499969006,0.0,0.0,0.0,1.68999987602,1,480.1084915299499,301.9892125542192,367.0501660540999,13.82043909054575,-10.410127812314792,-0.5753191118870463,0,Fixed-Wing
1970-01-01 00:00:19.624703328,4654,1538770114053276800,base_link,0,1,40.5926768,-79.8958416,366.965450326,0.422499969006,0.0,0.0,0.0,0.422499969006,0.0,0.0,0.0,1.68999987602,1,484.73947946382754,297.0143573321844,366.9401251117233,11.577267232517515,-12.43692040897989,-0.27509754173451856,0,Fixed-Wing
1970-01-01 00:00:20.013351744,4656,1538770114437123968,base_link,0,1,40.5926278,-79.8957949,367.175518539,0.422499969006,0.0,0.0,0.0,0.422499969006,0.0,0.0,0.0,1.68999987602,1,488.69328112422096,291.5730551661639,367.1501437261929,9.884331175187993,-13.603017362247355,0.5250373480203128,0,Fixed-Wing
1970-01-01 00:00:20.391859488,4658,1538770114821608928,base_link,0,1,40.5925774,-79.8957565,367.275578845,0.422499969006,0.0,0.0,0.0,0.422499969006,0.0,0.0,0.0,1.68999987602,1,491.944445858556,285.9762300044748,367.2502084787389,8.127769599869554,-13.991818047406877,0.25015750360873207,0,Fixed-Wing
1970-01-01 00:00:20.767686016,4660,1538770115197518880,base_link,0,1,40.5925243,-79.8957276,367.085630554,0.422499969006,0.0,0.0,0.0,0.422499969006,0.0,0.0,0.0,1.68999987602,1,494.3913804612919,280.0794983688428,367.06033355856556,6.117229455324266,-14.741571111585603,-0.47467899355095805,0,Fixed-Wing
1970-01-01 00:00:21.199383424,4662,1538770115629131744,base_link,0,1,40.5924695,-79.8957105,366.775670891,0.422499969006,0.0,0.0,0.0,0.422499969006,0.0,0.0,0.0,1.68999987602,1,495.83937978512074,273.9939071155491,366.7505266234589,3.6199349607103555,-15.213711893276045,-0.7745037839504767,0,Fixed-Wing
1970-01-01 00:00:21.621715296,4664,1538770116049609632,base_link,0,1,40.5924129,-79.8957068,366.375698254,0.422499969006,0.0,0.0,0.0,0.422499969006,0.0,0.0,0.0,1.68999987602,1,496.1529947246486,267.7083430406503,366.3507971939675,0.784023628406098,-15.713635198631133,-0.9993060858720005,0,Fixed-Wing
1970-01-01 00:00:21.998323520,4666,1538770116428095968,base_link,0,1,40.5923562,-79.8957179,365.795710499,0.518400041199,0.0,0.0,0.0,0.518400041199,0.0,0.0,0.0,2.07360016479,1,495.2136843587607,261.4115838578443,365.77114414190066,-2.3482348206103323,-15.741622478621622,-1.4491072707898038,0,Fixed-Wing
1970-01-01 00:00:22.403121888,4668,1538770116833039968,base_link,0,1,40.5923019,-79.8957449,365.235705451,0.518400041199,0.0,0.0,0.0,0.518400041199,0.0,0.0,0.0,2.07360016479,1,492.9283210562626,255.3812634650564,365.211560754194,-5.713308273350532,-15.075537160069377,-1.3989339879218425,0,Fixed-Wing
1970-01-01 00:00:22.792923904,4670,1538770117222737120,base_link,0,1,40.5922522,-79.8957852,364.595684857,0.518400041199,0.0,0.0,0.0,0.518400041199,0.0,0.0,0.0,2.07360016479,1,489.51698498999735,249.86170876726283,364.5720216410602,-8.528190922321912,-13.798645268191757,-1.5988198034879928,0,Fixed-Wing
1970-01-01 00:00:23.164279296,4672,1538770117594148512,base_link,0,1,40.5922089,-79.8958393,364.035647451,0.518400041199,0.0,0.0,0.0,0.518400041199,0.0,0.0,0.0,2.07360016479,1,484.93734576450305,245.0528190537638,364.01252057944146,-11.44889770802587,-12.02201389850431,-1.3987281763037456,0,Fixed-Wing
1970-01-01 00:00:23.574338784,4674,1538770118004229632,base_link,0,1,40.5921755,-79.8959054,363.805593615,0.518400041199,0.0,0.0,0.0,0.518400041199,0.0,0.0,0.0,2.07360016479,1,479.3417779503658,241.34329869423635,363.78303088646345,-13.988674733535335,-9.273638610142973,-0.5737141924466487,0,Fixed-Wing
1970-01-01 00:00:23.994461248,4676,1538770118424316960,base_link,0,1,40.5921529,-79.8959806,363.865525948,0.518400041199,0.0,0.0,0.0,0.518400041199,0.0,0.0,0.0,2.07360016479,1,472.9757762536017,238.83311047804773,363.84353248711653,-15.914725734209904,-6.27536072165893,0.15125135473400012,0,Fixed-Wing
1970-01-01 00:00:24.370646112,4678,1538770118798638400,base_link,0,1,40.592141,-79.8960613,364.125448182,0.518400041199,0.0,0.0,0.0,0.518400041199,0.0,0.0,0.0,2.07360016479,1,466.14409961933643,237.51116650653302,364.10400641145225,-17.078892705040786,-3.304802094750125,0.6511734153045148,0,Fixed-Wing
1970-01-01 00:00:24.794585728,4680,1538770119224440160,base_link,0,1,40.592139,-79.8961451,364.285363115,0.518400041199,0.0,0.0,0.0,0.518400041199,0.0,0.0,0.0,2.07360016479,1,459.04990990166453,237.28862747860904,364.2644434223678,-17.735163928810984,-0.5563378338978364,0.4010855082924293,0,Fixed-Wing
1970-01-01 00:00:25.174089536,4682,1538770119603919232,base_link,0,1,40.592147,-79.8962298,364.175272965,0.518400041199,0.0,0.0,0.0,0.518400041199,0.0,0.0,0.0,2.07360016479,1,451.8794421266545,238.17660439760837,364.1548313846623,-17.925855735049698,2.21990344918796,-0.2740252988209215,0,Fixed-Wing
1970-01-01 00:00:25.589568800,4684,1538770120019235744,base_link,0,1,40.5921667,-79.8963137,364.035178768,0.518400041199,0.0,0.0,0.0,0.518400041199,0.0,0.0,0.0,2.07360016479,1,444.7766218819717,240.36390401990087,364.01515346656527,-17.75673986875927,5.468153363047396,-0.3491886844406467,0,Fixed-Wing
1970-01-01 00:00:26.000655136,4686,1538770120429871712,base_link,0,1,40.5921987,-79.8963939,363.925083251,0.518400041199,0.0,0.0,0.0,0.518400041199,0.0,0.0,0.0,2.07360016479,1,437.9869567512854,243.91717419934938,363.9053918937737,-16.973865784064603,8.883019995771333,-0.2743991299941489,0,Fixed-Wing
1970-01-01 00:00:26.378756096,4688,1538770120808565760,base_link,0,1,40.5922411,-79.8964677,364.064989981,0.518400041199,0.0,0.0,0.0,0.518400041199,0.0,0.0,0.0,2.07360016479,1,431.7390492011453,248.6254363810208,364.0455417495591,-15.619495534178398,11.77044947131279,0.35036850801463404,0,Fixed-Wing
1970-01-01 00:00:26.775461696,4690,1538770121204990912,base_link,0,1,40.59229,-79.8965348,364.484900892,0.518400041199,0.0,0.0,0.0,0.518400041199,0.0,0.0,0.0,2.07360016479,1,426.05832405733514,254.0555881617036,364.4656196003389,-14.201564332149562,13.575141886724033,1.0501762488651925,0,Fixed-Wing
1970-01-01 00:00:27.154150176,4692,1538770121583938880,base_link,0,1,40.592341,-79.8965974,365.034815565,0.518400041199,0.0,0.0,0.0,0.518400041199,0.0,0.0,0.0,2.07360016479,1,420.75855502529816,259.7189818829057,365.0156569287077,-13.249190719254855,14.158236533865939,1.3750692572099328,0,Fixed-Wing
1970-01-01 00:00:27.570717472,4694,1538770122000560512,base_link,0,1,40.5923912,-79.8966577,365.404732952,0.518400041199,0.0,0.0,0.0,0.518400041199,0.0,0.0,0.0,2.07360016479,1,415.6534956452246,265.2935418161618,365.38567856976283,-12.762425107744503,13.93615595041104,0.9250379144743267,0,Fixed-Wing
1970-01-01 00:00:28.006216416,4696,1538770122435751296,base_link,0,1,40.5924374,-79.8967202,365.714649774,0.547600014114,0.0,0.0,0.0,0.547600014114,0.0,0.0,0.0,2.19040005646,1,410.3622203869496,270.4238834483465,365.6957215427168,-13.227956656445995,12.82562963194318,0.7750938682422196,0,Fixed-Wing
1970-01-01 00:00:28.398098560,4698,1538770122827937184,base_link,0,1,40.5924771,-79.8967865,365.674565429,0.640000019073,0.0,0.0,0.0,0.640000019073,0.0,0.0,0.0,2.56000007629,1,404.749275750562,274.8323560071246,365.6558064403833,-14.032116028938553,11.020988529645983,-0.0997860095786058,0,Fixed-Wing
1970-01-01 00:00:28.796045984,4700,1538770123225797472,base_link,0,1,40.5925091,-79.8968581,365.374478874,0.640000019073,0.0,0.0,0.0,0.640000019073,0.0,0.0,0.0,2.56000007629,1,398.68769027188296,278.38569373996864,365.3559466284204,-15.153698506973715,8.883188876304805,-0.749636411270062,0,Fixed-Wing
1970-01-01 00:00:29.222925536,4702,1538770123652668704,base_link,0,1,40.5925301,-79.8969347,364.864391782,0.547600014114,0.0,0.0,0.0,0.547600014114,0.0,0.0,0.0,2.19040005646,1,392.20288246676216,280.7174280074792,364.8461585564886,-16.211735807425356,5.829233657187422,-1.2744478769916026,0,Fixed-Wing
1970-01-01 00:00:29.606959168,4704,1538770124036803168,base_link,0,1,40.5925383,-79.8970146,364.264306634,0.547600014114,0.0,0.0,0.0,0.547600014114,0.0,0.0,0.0,2.19040005646,1,385.4387830598742,281.6276784063885,364.246444923749,-16.909952593049535,2.2755861745151558,-1.4992578448367704,0,Fixed-Wing
1970-01-01 00:00:29.974543136,4706,1538770124404097568,base_link,0,1,40.5925317,-79.8970935,363.614228653,0.547600014114,0.0,0.0,0.0,0.547600014114,0.0,0.0,0.0,2.19040005646,1,378.75942310665783,280.894361530039,363.59679891045084,-16.698107666156748,-1.8332601088217877,-1.6240866117296404,0,Fixed-Wing
1970-01-01 00:00:30.393474816,4708,1538770124823171904,base_link,0,1,40.5925089,-79.8971665,363.08416343,0.50409996953,0.0,0.0,0.0,0.50409996953,0.0,0.0,0.0,2.01639987812,1,372.57963053165395,278.36203251524006,363.0672084250774,-15.449211076315882,-6.330711749541785,-1.3239530442553076,0,Fixed-Wing
1970-01-01 00:00:30.796478048,4710,1538770125225926752,base_link,0,1,40.5924722,-79.8972287,362.934115021,0.422499969006,0.0,0.0,0.0,0.422499969006,0.0,0.0,0.0,1.68999987602,1,367.314217997493,274.2861425308123,362.91764197943183,-13.163300977635217,-10.189546644003132,-0.3739095706964519,0,Fixed-Wing
1970-01-01 00:00:31.203488512,4712,1538770125631610208,base_link,0,1,40.5924284,-79.897281,363.484079689,0.422499969006,0.0,0.0,0.0,0.422499969006,0.0,0.0,0.0,1.68999987602,1,362.8869736240688,269.4218550460488,363.46806752873994,-11.067917245008788,-12.160505903055467,1.3760397925738845,0,Fixed-Wing
1970-01-01 00:00:31.607687072,4714,1538770126037376704,base_link,0,1,40.5923843,-79.897329,364.324048888,0.422499969006,0.0,0.0,0.0,0.422499969006,0.0,0.0,0.0,1.68999987602,1,358.82376223929873,264.5242832368318,364.3084717684257,-10.1578506995379,-12.243715258025409,2.100973832172356,0,Fixed-Wing
1970-01-01 00:00:31.997936864,4716,1538770126427743328,base_link,0,1,40.5923417,-79.8973764,365.104018087,0.422499969006,0.0,0.0,0.0,0.422499969006,0.0,0.0,0.0,1.68999987602,1,354.81132694381904,259.79329097138896,365.08886003369383,-10.030912697727016,-11.827273686317652,1.9509365217811927,0,Fixed-Wing
1970-01-01 00:00:32.390653920,4718,1538770126820470688,base_link,0,1,40.5923013,-79.8974258,365.473984336,0.422499969006,0.0,0.0,0.0,0.422499969006,0.0,0.0,0.0,1.68999987602,1,350.6295389247757,255.3065906499765,365.45923881112935,-10.454287097584103,-11.21655451382715,0.9259307398008514,0,Fixed-Wing
1970-01-01 00:00:32.795218368,4720,1538770127225078592,base_link,0,1,40.5922627,-79.8974782,365.533946777,0.422499969006,0.0,0.0,0.0,0.422499969006,0.0,0.0,0.0,1.68999987602,1,346.19375017935886,251.01976251119373,365.5196137677792,-11.089277801180623,-10.71688280150789,0.15093475026653624,0,Fixed-Wing
1970-01-01 00:00:33.198498912,4722,1538770127628368096,base_link,0,1,40.592227,-79.8975352,365.383903317,0.422499969006,0.0,0.0,0.0,0.422499969006,0.0,0.0,0.0,1.68999987602,1,341.3685107596726,247.05496296998842,365.36998518359064,-12.062887448685357,-9.911825396068842,-0.37406491433544037,0,Fixed-Wing
1970-01-01 00:00:33.580772704,4724,1538770128009308800,base_link,0,1,40.5921948,-79.8975978,365.043852684,0.422499969006,0.0,0.0,0.0,0.422499969006,0.0,0.0,0.0,1.68999987602,1,336.0691627728303,243.47882153171733,365.03035341240974,-13.248138124688548,-8.940197142227746,-0.8490645693222987,0,Fixed-Wing
1970-01-01 00:00:33.995782400,4726,1538770128425358752,base_link,0,1,40.592166,-79.8976646,364.783796351,0.422499969006,0.0,0.0,0.0,0.422499969006,0.0,0.0,0.0,1.68999987602,1,330.4142404399783,240.28024967122798,364.77071369015965,-14.137058433607365,-7.996289716153347,-0.6490879465861484,0,Fixed-Wing
1970-01-01 00:00:34.384937024,4728,1538770128814797536,base_link,0,1,40.5921396,-79.8977341,364.803736268,0.422499969006,0.0,0.0,0.0,0.422499969006,0.0,0.0,0.0,1.68999987602,1,324.53074375387035,237.3482086170274,364.79106528370625,-14.708484316794323,-7.329974360950102,0.05087809349984624,0,Fixed-Wing
1970-01-01 00:00:34.798266112,4730,1538770129226053888,base_link,0,1,40.5921146,-79.8978043,365.073674895,0.422499969006,0.0,0.0,0.0,0.422499969006,0.0,0.0,0.0,1.68999987602,1,318.5879886436212,234.57165224204644,365.06140604455146,-14.856627784636649,-6.9412694652367835,0.6758400749117273,0,Fixed-Wing
1970-01-01 00:00:35.234072800,4732,1538770129663915232,base_link,0,1,40.5920902,-79.8978745,365.56361328,0.422499969006,0.0,0.0,0.0,0.422499969006,0.0,0.0,0.0,1.68999987602,1,312.64523657856665,231.86173984445338,365.55173739504426,-14.856620171783366,-6.774662437389991,1.225806924610807,0,Fixed-Wing
1970-01-01 00:00:35.592756384,4734,1538770130020919072,base_link,0,1,40.5920647,-79.8979429,365.903553969,0.422499969006,0.0,0.0,0.0,0.422499969006,0.0,0.0,0.0,1.68999987602,1,306.85485902330544,229.029674986278,365.89206144763466,-14.475690563568177,-7.080038244769181,0.8507952425592649,0,Fixed-Wing
1970-01-01 00:00:36.018000000,4736,1538770130442288352,base_link,0,1,40.5920379,-79.8980092,366.013497352,0.422499969006,0.0,0.0,0.0,0.422499969006,0.0,0.0,0.0,1.68999987602,1,301.2422504233664,226.0532451968591,366.0023784304024,-14.03127595251846,-7.4409442570227196,0.2757876306358542,0,Fixed-Wing
1970-01-01 00:00:36.412288960,4738,1538770130842011840,base_link,0,1,40.5920099,-79.8980732,365.993443591,0.422499969006,0.0,0.0,0.0,0.422499969006,0.0,0.0,0.0,1.68999987602,1,295.82434680926315,222.94355980871626,365.982687602912,-13.544522006122989,-7.774077424002205,-0.04922620726742713,0,Fixed-Wing
1970-01-01 00:00:36.795958880,4740,1538770131225209248,base_link,0,1,40.5919811,-79.8981356,365.813391804,0.422499969006,0.0,0.0,0.0,0.422499969006,0.0,0.0,0.0,1.68999987602,1,290.5418856572636,219.7450362120636,365.80298954244756,-13.205921776367767,-7.996169058673095,-0.44923728950851316,0,Fixed-Wing
1970-01-01 00:00:37.212951520,4742,1538770131642601536,base_link,0,1,40.5919512,-79.8981964,365.493342116,0.422499969006,0.0,0.0,0.0,0.422499969006,0.0,0.0,0.0,1.68999987602,1,285.3948695094302,216.42435932460876,365.48328571160573,-12.867315191567712,-8.301546941565652,-0.7992455903067481,0,Fixed-Wing
1970-01-01 00:00:37.577105792,4744,1538770132005898432,base_link,0,1,40.591921,-79.8982565,365.013293275,0.422499969006,0.0,0.0,0.0,0.422499969006,0.0,0.0,0.0,1.68999987602,1,280.3071032773908,213.07036749418342,365.00357536199834,-12.719192994221029,-8.384832841488633,-1.199254887057945,0,Fixed-Wing
1970-01-01 00:00:37.992790080,4746,1538770132422084544,base_link,0,1,40.5918899,-79.8983158,364.563245633,0.422499969006,0.0,0.0,0.0,0.422499969006,0.0,0.0,0.0,1.68999987602,1,275.2870636748328,209.61643599434177,364.5538607654442,-12.54987938350586,-8.634677642745363,-1.1242668167160699,0,Fixed-Wing
1970-01-01 00:00:38.394129344,4748,1538770132823207776,base_link,0,1,40.5918583,-79.8983747,364.283198613,0.422499969006,0.0,0.0,0.0,0.422499969006,0.0,0.0,0.0,1.68999987602,1,270.30089207756936,206.1069889282681,364.2741413362095,-12.465210851968644,-8.773464129561923,-0.6992863355759203,0,Fixed-Wing
1970-01-01 00:00:38.774096672,4750,1538770133203468512,base_link,0,1,40.5918274,-79.8984339,364.073151002,0.422499969006,0.0,0.0,0.0,0.422499969006,0.0,0.0,0.0,1.68999987602,1,265.2893192954039,202.6752835149091,364.0644140682199,-12.52871270294131,-8.579113398913012,-0.5243089945665758,0,Fixed-Wing
1970-01-01 00:00:39.164972672,4752,1538770133594803424,base_link,0,1,40.5917974,-79.8984937,364.10310241,0.422499969006,0.0,0.0,0.0,0.422499969006,0.0,0.0,0.0,1.68999987602,1,260.2269543552097,199.34353460050585,364.09467897661204,-12.655690875895138,-8.329226524543945,0.0756609469138168,0,Fixed-Wing
1970-01-01 00:00:39.630107264,4754,1538770134059816352,base_link,0,1,40.5917682,-79.8985533,364.283053696,0.422499969006,0.0,0.0,0.0,0.422499969006,0.0,0.0,0.0,1.68999987602,1,255.1815191900657,196.10063621686362,364.2749345896064,-12.613367178934437,-8.107104084784085,0.4506311464408328,0,Fixed-Wing
1970-01-01 00:00:40.042932832,4756,1538770134472160896,base_link,0,1,40.5917397,-79.8986125,364.493005104,0.422499969006,0.0,0.0,0.0,0.422499969006,0.0,0.0,0.0,1.68999987602,1,250.16994072153986,192.93547979767132,364.4851810054004,-12.528726918593525,-7.912752574810691,0.5256068413653201,0,Fixed-Wing
1970-01-01 00:00:40.368087200,4758,1538770134797905824,base_link,0,1,40.5917113,-79.8986712,364.622956988,0.422499969006,0.0,0.0,0.0,0.422499969006,0.0,0.0,0.0,1.68999987602,1,245.2006827580438,189.78143079934102,364.61542043543716,-12.422927507508774,-7.8849845085968395,0.32559287721649427,0,Fixed-Wing
1970-01-01 00:00:40.834810496,4760,1538770135264410784,base_link,0,1,40.5916835,-79.8987299,364.652908627,0.422499969006,0.0,0.0,0.0,0.422499969006,0.0,0.0,0.0,1.68999987602,1,240.23141447766696,186.69401350007598,364.64565223462347,-12.422953299259357,-7.718408176019524,0.07557817534770787,0,Fixed-Wing
1970-01-01 00:00:41.170463840,4762,1538770135600330848,base_link,0,1,40.5916556,-79.8987881,364.542860825,0.422499969006,0.0,0.0,0.0,0.422499969006,0.0,0.0,0.0,1.68999987602,1,235.30446578982782,183.59549155633943,364.5358779917274,-12.317156169364894,-7.746169301378619,-0.27443080470115316,0,Fixed-Wing
1970-01-01 00:00:41.617584096,4764,1538770136046324608,base_link,0,1,40.5916281,-79.8988465,364.542812657,0.422499969006,0.0,0.0,0.0,0.422499969006,0.0,0.0,0.0,1.68999987602,1,230.3605843387387,180.541396541129,364.5360974248264,-12.359487336694388,-7.635103923707424,0.0005485731474826016,0,Fixed-Wing
1970-01-01 00:00:42.004866816,4766,1538770136431152160,base_link,0,1,40.5916014,-79.8989056,364.792763447,0.422499969006,0.0,0.0,0.0,0.422499969006,0.0,0.0,0.0,1.68999987602,1,225.3574449387846,177.57615191309665,364.7863101350417,-12.507629616366984,-7.412981842898593,0.6255208289237288,0,Fixed-Wing
1970-01-01 00:00:42.406373472,4768,1538770136836211392,base_link,0,1,40.5915757,-79.8989656,365.032712907,0.422499969006,0.0,0.0,0.0,0.422499969006,0.0,0.0,0.0,1.68999987602,1,220.27810603593568,174.72196029058034,365.0265157928812,-12.698125039934094,-7.135354187592494,0.6005036357851498,0,Fixed-Wing
1970-01-01 00:00:42.762927392,4770,1538770137192602240,base_link,0,1,40.5915509,-79.8990269,365.062660671,0.422499969006,0.0,0.0,0.0,0.422499969006,0.0,0.0,0.0,1.68999987602,1,215.08869846306723,171.96771023165604,365.0567154427154,-12.973291899562875,-6.885504650979356,0.07549780337401724,0,Fixed-Wing
1970-01-01 00:00:43.201008064,4772,1538770137630501440,base_link,0,1,40.591526,-79.8990882,364.972608482,0.422499969006,0.0,0.0,0.0,0.422499969006,0.0,0.0,0.0,1.68999987602,1,209.89928337690924,169.202355339156,364.9669100297102,-12.97331068245804,-6.913266249090782,-0.22450960359492364,0,Fixed-Wing
1970-01-01 00:00:43.588780224,4774,1538770138018588032,base_link,0,1,40.5915004,-79.8991493,364.912556795,0.422499969006,0.0,0.0,0.0,0.422499969006,0.0,0.0,0.0,1.68999987602,1,204.72679914596094,166.35926872769363,364.90710118729703,-12.930984285145758,-7.107592145793334,-0.1495194894419102,0,Fixed-Wing
1970-01-01 00:00:44.062806528,4776,1538770138491779200,base_link,0,1,40.5914742,-79.8992097,364.752506079,0.422499969006,0.0,0.0,0.0,0.422499969006,0.0,0.0,0.0,1.68999987602,1,199.61356987364434,163.44955335611144,364.7472877178151,-12.782849480925588,-7.274161131135692,-0.39952668198793123,0,Fixed-Wing
1970-01-01 00:00:44.379017312,4778,1538770138808335424,base_link,0,1,40.5914469,-79.8992692,364.602456746,0.422499969006,0.0,0.0,0.0,0.422499969006,0.0,0.0,0.0,1.68999987602,1,194.57653200255987,160.41768627001514,364.59747096990355,-12.592374311160716,-7.579535073376961,-0.37453531541080415,0,Fixed-Wing
1970-01-01 00:00:44.742938112,4780,1538770139172757312,base_link,0,1,40.5914186,-79.8993276,364.402408959,0.422499969006,0.0,0.0,0.0,0.422499969006,0.0,0.0,0.0,1.68999987602,1,189.63261477109552,157.274771496962,364.3976503321768,-12.35957678606713,-7.857149432517805,-0.49954285231698264,0,Fixed-Wing
1970-01-01 00:00:45.197334976,4782,1538770139625117856,base_link,0,1,40.5913894,-79.8993856,364.182361962,0.422499969006,0.0,0.0,0.0,0.422499969006,0.0,0.0,0.0,1.68999987602,1,184.72255855803002,154.03191343403276,364.1778265468021,-12.27492572146363,-8.107003284765591,-0.5495498463143691,0,Fixed-Wing
1970-01-01 00:00:45.592739264,4784,1538770140022641344,base_link,0,1,40.5913598,-79.8994433,363.952315444,0.47609999671,0.0,0.0,0.0,0.47609999671,0.0,0.0,0.0,1.90439998684,1,179.83789644760213,150.74463827412626,363.94799814911596,-12.211441575842128,-8.21804408399478,-0.574560939398967,0,Fixed-Wing
1970-01-01 00:00:46.040451360,4786,1538770140470011200,base_link,0,1,40.5913301,-79.8995011,363.872268871,0.422499969006,0.0,0.0,0.0,0.422499969006,0.0,0.0,0.0,1.68999987602,1,174.94476899707993,147.44626460952472,363.86816475272906,-12.232604555725777,-8.2457898601813,-0.19957999831728615,0,Fixed-Wing
1970-01-01 00:00:46.401210240,4788,1538770140826729696,base_link,0,1,40.5913,-79.8995587,363.942222676,0.422499969006,0.0,0.0,0.0,0.422499969006,0.0,0.0,0.0,1.68999987602,1,170.0685738583943,144.10347709185862,363.9383268319012,-12.190274516910032,-8.35682254977062,0.17540212839305597,0,Fixed-Wing
1970-01-01 00:00:46.793813280,4790,1538770141223424288,base_link,0,1,40.5912702,-79.8996165,364.052176157,0.422499969006,0.0,0.0,0.0,0.422499969006,0.0,0.0,0.0,1.68999987602,1,165.17544301618295,140.7940089302394,364.04848281010493,-12.232613034800263,-8.273525617349787,0.2753851262696647,0,Fixed-Wing
1970-01-01 00:00:47.147152992,4792,1538770141576502528,base_link,0,1,40.5912413,-79.8996748,364.002128759,0.47609999671,0.0,0.0,0.0,0.47609999671,0.0,0.0,0.0,1.90439998684,1,160.23997267826252,137.5844866467742,363.99863134110734,-12.338459921752458,-8.023665294520322,-0.12462649153036758,0,Fixed-Wing
1970-01-01 00:00:47.563544800,4794,1538770141992962240,base_link,0,1,40.5912128,-79.8997337,363.862080587,0.47609999671,0.0,0.0,0.0,0.47609999671,0.0,0.0,0.0,1.90439998684,1,155.25370045231713,134.41938568536068,363.8587739612758,-12.465462419271125,-7.912613932789963,-0.349637330925558,0,Fixed-Wing
1970-01-01 00:00:48.008013920,4796,1538770142436582400,base_link,0,1,40.5911842,-79.8997926,364.022032463,0.47609999671,0.0,0.0,0.0,0.47609999671,0.0,0.0,0.0,1.90439998684,1,150.26743149343233,131.24318916518456,364.0189113925727,-12.465454251762612,-7.940352344274275,0.4003365723522409,0,Fixed-Wing
1970-01-01 00:00:48.351627232,4798,1538770142781214624,base_link,0,1,40.5911554,-79.8998511,364.331984837,0.47609999671,0.0,0.0,0.0,0.47609999671,0.0,0.0,0.0,1.90439998684,1,145.31502497747846,128.04478903991497,364.3290435197399,-12.380799625891216,-7.995860385617217,0.7753167498748965,0,Fixed-Wing
1970-01-01 00:00:48.773509152,4800,1538770143202799648,base_link,0,1,40.5911271,-79.8999093,364.601937313,0.47609999671,0.0,0.0,0.0,0.47609999671,0.0,0.0,0.0,1.90439998684,1,140.38800914509198,124.90191779189611,364.5991686551506,-12.317324027795697,-7.857040621836277,0.6753010207588727,0,Fixed-Wing
1970-01-01 00:00:49.182421984,4802,1538770143611478592,base_link,0,1,40.5910994,-79.8999674,364.731889646,0.47609999671,0.0,0.0,0.0,0.47609999671,0.0,0.0,0.0,1.90439998684,1,135.469450345068,121.82567845003629,364.7292868385968,-12.296181816878173,-7.690463771533543,0.32528976604459414,0,Fixed-Wing
1970-01-01 00:00:49.590759744,4804,1538770144020460736,base_link,0,1,40.5910729,-79.9000259,364.881841076,0.47609999671,0.0,0.0,0.0,0.47609999671,0.0,0.0,0.0,1.90439998684,1,130.5170222141472,118.88270487922966,364.87939704878625,-12.380853662362892,-7.357305174176024,0.37526895826682766,0,Fixed-Wing
1970-01-01 00:00:49.994952896,4806,1538770144424773568,base_link,0,1,40.5910483,-79.9000854,364.911790696,0.47609999671,0.0,0.0,0.0,0.47609999671,0.0,0.0,0.0,1.90439998684,1,125.47992613854281,116.15073038449714,364.9094980629676,-12.592519819914141,-6.8298167150388025,0.07525121855706253,0,Fixed-Wing
1970-01-01 00:00:50.392814112,4808,1538770144822640896,base_link,0,1,40.5910261,-79.9001464,364.741737789,0.47609999671,0.0,0.0,0.0,0.47609999671,0.0,0.0,0.0,1.90439998684,1,120.3158313707544,113.68527936988806,364.7395890415284,-12.910010994278633,-6.163519674928371,-0.42476512020838597,0,Fixed-Wing
1970-01-01 00:00:50.774847360,4810,1538770145204365376,base_link,0,1,40.5910067,-79.9002097,364.371681371,0.47609999671,0.0,0.0,0.0,0.47609999671,0.0,0.0,0.0,1.90439998684,1,114.95701179956457,111.53077220911024,364.36966944448176,-13.396814483721101,-5.386173643905796,-0.9247828089174596,0,Fixed-Wing
1970-01-01 00:00:51.186794240,4812,1538770145616575680,base_link,0,1,40.5909913,-79.9002758,363.941620431,0.47609999671,0.0,0.0,0.0,0.47609999671,0.0,0.0,0.0,1.90439998684,1,109.36113993123591,109.82047409513217,363.9397365123059,-13.98943485571167,-4.275670460712111,-1.0748135212030268,0,Fixed-Wing
1970-01-01 00:00:51.577481280,4814,1538770146007303968,base_link,0,1,40.590981,-79.9003442,363.69155502,0.47609999671,0.0,0.0,0.0,0.47609999671,0.0,0.0,0.0,1.90439998684,1,103.5705479820183,108.6765477939843,363.6897872569772,-14.476226539079601,-2.859765706969807,-0.6248622032332322,0,Fixed-Wing
1970-01-01 00:00:51.992723200,4816,1538770146422603200,base_link,0,1,40.590976,-79.9004144,363.761485563,0.47609999671,0.0,0.0,0.0,0.47609999671,0.0,0.0,0.0,1.90439998684,1,97.62756754795411,108.12120699718358,363.7598208582747,-14.85719108431648,-1.388327696267117,0.1750809393273013,0,Fixed-Wing
1970-01-01 00:00:52.370080960,4818,1538770146799919552,base_link,0,1,40.5909778,-79.9004857,364.131412149,0.47609999671,0.0,0.0,0.0,0.47609999671,0.0,0.0,0.0,1.90439998684,1,91.5914573493292,108.32103093825654,364.1298334503819,-15.090011421362403,0.49955111053797524,0.925015292500456,0,Fixed-Wing
1970-01-01 00:00:52.800086080,4820,1538770147227091968,base_link,0,1,40.5909861,-79.9005565,364.521336536,0.47609999671,0.0,0.0,0.0,0.47609999671,0.0,0.0,0.0,1.90439998684,1,85.59766774324171,109.24270104004552,364.5198252122829,-14.98421179151237,2.304134932111128,0.974962342911502,0,Fixed-Wing
1970-01-01 00:00:53.208341952,4822,1538770147637953280,base_link,0,1,40.5910008,-79.9006258,364.881259787,0.47609999671,0.0,0.0,0.0,0.47609999671,0.0,0.0,0.0,1.90439998684,1,79.7308578473068,110.87511213803378,364.87979615375855,-14.666768071396053,4.080956328234925,0.8999116052360023,0,Fixed-Wing
1970-01-01 00:00:53.600113312,4824,1538770148029594112,base_link,0,1,40.5910215,-79.9006932,365.241182477,0.47609999671,0.0,0.0,0.0,0.47609999671,0.0,0.0,0.0,1.90439998684,1,74.02489332399404,113.17384395119842,365.23974704677806,-14.264661676702554,5.7467289651547,0.8998614849728022,0,Fixed-Wing
1970-01-01 00:00:53.992471840,4826,1538770148422267168,base_link,0,1,40.5910475,-79.9007588,365.481104801,0.47609999671,0.0,0.0,0.0,0.47609999671,0.0,0.0,0.0,1.90439998684,1,68.47130921814194,116.06115729027545,365.47967930640726,-13.883717299577498,7.218157029944538,0.5998201522203349,0,Fixed-Wing
1970-01-01 00:00:54.415060000,4828,1538770148843896576,base_link,0,1,40.5910789,-79.9008217,365.671027636,0.608399955368,0.0,0.0,0.0,0.608399955368,0.0,0.0,0.0,2.43359982147,1,63.14629967380871,119.5481589265543,365.669592442336,-13.312290895742391,8.717351537045221,0.4747745312675729,0,Fixed-Wing
1970-01-01 00:00:54.805422560,4830,1538770149234897440,base_link,0,1,40.5911169,-79.9008802,365.810952215,0.608399955368,0.0,0.0,0.0,0.608399955368,0.0,0.0,0.0,2.43359982147,1,58.19378304668008,123.7681123476043,365.809483375214,-12.381074899010844,10.549698932893694,0.34972121207369106,0,Fixed-Wing
1970-01-01 00:00:55.175754496,4832,1538770149605435072,base_link,0,1,40.5911622,-79.9009309,366.00088171,0.608399955368,0.0,0.0,0.0,0.608399955368,0.0,0.0,0.0,2.43359982147,1,53.90159697977957,128.79875755523767,365.99935068787704,-10.730277387397003,12.576392932207112,0.4746599751081064,0,Fixed-Wing
1970-01-01 00:00:55.571723072,4834,1538770150000898496,base_link,0,1,40.5912131,-79.9009734,366.330817239,0.608399955368,0.0,0.0,0.0,0.608399955368,0.0,0.0,0.0,2.43359982147,1,50.3036065574437,134.45130665969614,366.32919863451525,-8.994818646513357,14.131125466450518,0.8246054360003963,0,Fixed-Wing
1970-01-01 00:00:55.974494784,4836,1538770150402290016,base_link,0,1,40.5912687,-79.9010079,366.590758977,0.518400041199,0.0,0.0,0.0,0.518400041199,0.0,0.0,0.0,2.07360016479,1,47.38287852010849,140.62580721539734,366.5890292374464,-7.3016923137225325,15.43598125958096,0.6495651399379869,0,Fixed-Wing
1970-01-01 00:00:56.374410624,4838,1538770150804325664,base_link,0,1,40.5913278,-79.901034,366.830707829,0.518400041199,0.0,0.0,0.0,0.518400041199,0.0,0.0,0.0,2.07360016479,1,45.17327616324495,147.1889967616686,366.8288456601217,-5.523909223747439,16.40768673116032,0.5995305649033384,0,Fixed-Wing
1970-01-01 00:00:56.745440480,4840,1538770151175272768,base_link,0,1,40.5913893,-79.9010521,367.130663848,0.518400041199,0.0,0.0,0.0,0.518400041199,0.0,0.0,0.0,2.07360016479,1,43.64093632158441,154.01871873020664,367.1286506763108,-3.8307825654564476,17.074006126237922,0.7494994242328546,0,Fixed-Wing
1970-01-01 00:00:57.203089920,4842,1538770151632708800,base_link,0,1,40.5914529,-79.9010629,367.400626444,0.518400041199,0.0,0.0,0.0,0.518400041199,0.0,0.0,0.0,2.07360016479,1,42.726596749866914,161.08165459596512,367.39844456959116,-2.285808927637512,17.65703066635953,0.6744729299245682,0,Fixed-Wing
1970-01-01 00:00:57.595396960,4844,1538770152025209984,base_link,0,1,40.5915176,-79.9010676,367.580594813,0.518400041199,0.0,0.0,0.0,0.518400041199,0.0,0.0,0.0,2.07360016479,1,42.32866729895468,168.26674946726325,367.57822963360945,-0.9948062181717742,17.962422835845707,0.4494547945868199,0,Fixed-Wing
1970-01-01 00:00:58.019225888,4846,1538770152448716960,base_link,0,1,40.5915826,-79.9010673,367.520568165,0.518400041199,0.0,0.0,0.0,0.518400041199,0.0,0.0,0.0,2.07360016479,1,42.354023091398005,175.48515635272526,367.51800783009617,0.0633883718118135,18.045701413880263,-0.15055187412541887,0,Fixed-Wing
1970-01-01 00:00:58.384546368,4848,1538770152810804032,base_link,0,1,40.5916483,-79.9010638,367.170544504,0.518400041199,0.0,0.0,0.0,0.518400041199,0.0,0.0,0.0,2.07360016479,1,42.65027939168337,182.78129310298266,367.16777678860944,0.7406277897270903,18.240022675246692,-0.8755622813768821,0,Fixed-Wing
1970-01-01 00:00:58.754481920,4850,1538770153184129824,base_link,0,1,40.5917144,-79.9010571,366.810523954,0.518400041199,0.0,0.0,0.0,0.518400041199,0.0,0.0,0.0,2.07360016479,1,43.2174374003734,190.12185138220852,366.8075373249046,1.4178702089964155,18.35107455425995,-0.9005828990613394,0,Fixed-Wing
1970-01-01 00:00:59.195487456,4852,1538770153625281376,base_link,0,1,40.591781,-79.9010486,366.520505048,0.518400041199,0.0,0.0,0.0,0.518400041199,0.0,0.0,0.0,2.07360016479,1,43.93697696227263,197.51793823935333,366.51728821553274,1.7988174254431353,18.48989356972455,-0.7256100752533603,0,Fixed-Wing
1970-01-01 00:00:59.579734368,4854,1538770154009509184,base_link,0,1,40.5918483,-79.9010405,366.180485468,0.518400041199,0.0,0.0,0.0,0.518400041199,0.0,0.0,0.0,2.07360016479,1,44.6226514556365,204.9917594561524,366.1770274864932,1.7141562356755493,18.68422606804151,-0.8506369364524323,0,Fixed-Wing
1970-01-01 00:01:00.003559296,4856,1538770154433456640,base_link,0,1,40.5919152,-79.9010333,365.890465159,0.518400041199,0.0,0.0,0.0,0.518400041199,0.0,0.0,0.0,2.07360016479,1,45.23213399519571,212.42116026590668,365.88675920042266,1.5236796845035452,18.573176993788284,-0.7256580161611091,0,Fixed-Wing
1970-01-01 00:01:00.390584352,4858,1538770154820084160,base_link,0,1,40.5919819,-79.9010271,365.470443937,0.518400041199,0.0,0.0,0.0,0.518400041199,0.0,0.0,0.0,2.07360016479,1,45.75695774762961,219.82834503973638,365.46648264209915,1.3120364204474002,18.517637875911415,-1.0506730090311114,0,Fixed-Wing
1970-01-01 00:01:00.765876896,4860,1538770155195768960,base_link,0,1,40.5920489,-79.901021,364.960422511,0.518400041199,0.0,0.0,0.0,0.518400041199,0.0,0.0,0.0,2.07360016479,1,46.273313865499574,227.26884141205377,364.9561960859958,1.2908677044900738,18.600915414773738,-1.275694065612162,0,Fixed-Wing
1970-01-01 00:01:01.167235136,4862,1538770155596931616,base_link,0,1,40.5921157,-79.9010153,364.620400782,0.518400041199,0.0,0.0,0.0,0.518400041199,0.0,0.0,0.0,2.07360016479,1,46.75580763759265,234.68713229257736,364.6159015502236,1.2062133214995714,18.54540265676247,-0.8507214518051335,0,Fixed-Wing
1970-01-01 00:01:01.602484448,4864,1538770156032258400,base_link,0,1,40.5921823,-79.9010074,364.460381394,0.518400041199,0.0,0.0,0.0,0.518400041199,0.0,0.0,0.0,2.07360016479,1,47.42454607210671,242.08322004943352,364.45560013521157,1.6718168294906197,18.48989581896357,-0.4007465244659293,0,Fixed-Wing
1970-01-01 00:01:02.022350464,4866,1538770156452112160,base_link,0,1,40.5922486,-79.9009938,364.570367945,0.518400041199,0.0,0.0,0.0,0.518400041199,0.0,0.0,0.0,2.07360016479,1,48.57582671820465,249.44600557664808,364.5652936477927,2.878151247598029,18.406641701806606,0.2742289824456711,0,Fixed-Wing
1970-01-01 00:01:02.405122240,4868,1538770156833521120,base_link,0,1,40.5923138,-79.900971,364.720364322,0.518400041199,0.0,0.0,0.0,0.518400041199,0.0,0.0,0.0,2.07360016479,1,50.50594414696239,256.68664082985566,364.7149870747701,4.825209130734561,18.101271360770152,0.37422701847058837,0,Fixed-Wing
1970-01-01 00:01:02.807338304,4870,1538770157237027968,base_link,0,1,40.5923768,-79.9009385,364.790371482,0.518400041199,0.0,0.0,0.0,0.518400041199,0.0,0.0,0.0,2.07360016479,1,53.257224255378866,263.68296421778473,364.7846857998667,6.878079904642853,17.49050238603091,0.17424376347564008,0,Fixed-Wing
1970-01-01 00:01:03.159521728,4872,1538770157589188384,base_link,0,1,40.5924375,-79.900896,364.750389769,0.518400041199,0.0,0.0,0.0,0.518400041199,0.0,0.0,0.0,2.07360016479,1,56.85506158308645,270.42387005303146,364.74439015461263,8.994435916640427,16.851969678647464,-0.1007373502314908,0,Fixed-Wing
1970-01-01 00:01:03.584448384,4874,1538770158012016224,base_link,0,1,40.5924939,-79.9008433,364.630420205,0.518400041199,0.0,0.0,0.0,0.518400041199,0.0,0.0,0.0,2.07360016479,1,61.31638733019173,276.6872558419619,364.6241100436098,11.153119188177401,15.658190453993214,-0.30069501534433585,0,Fixed-Wing
1970-01-01 00:01:03.997674944,4876,1538770158426290304,base_link,0,1,40.5925449,-79.9007813,364.530462324,0.518400041199,0.0,0.0,0.0,0.518400041199,0.0,0.0,0.0,2.07360016479,1,66.56501169726032,282.3509690284539,364.5238508149301,13.121331294373816,14.159035183114234,-0.25064368543476473,0,Fixed-Wing
1970-01-01 00:01:04.397365376,4878,1538770158823809248,base_link,0,1,40.5925891,-79.9007107,364.430515987,0.518400041199,0.0,0.0,0.0,0.518400041199,0.0,0.0,0.0,2.07360016479,1,72.54167629619317,287.2595364978432,364.42361968826117,14.941400022831742,12.271203927404548,-0.25057343163723683,0,Fixed-Wing
1970-01-01 00:01:04.773017056,4880,1538770159202649024,base_link,0,1,40.5926239,-79.9006319,364.490581849,0.518400041199,0.0,0.0,0.0,0.518400041199,0.0,0.0,0.0,2.07360016479,1,79.21252416760895,291.1242307403071,364.4834306564137,16.67682783405234,9.661566528745457,0.14952480369726767,0,Fixed-Wing
1970-01-01 00:01:05.183371072,4882,1538770159613236640,base_link,0,1,40.5926488,-79.9005468,364.580658186,0.518400041199,0.0,0.0,0.0,0.518400041199,0.0,0.0,0.0,2.07360016479,1,86.41671028671593,293.88951978556855,364.57328646759674,18.010150120140345,6.913101633875042,0.22463559683466172,0,Fixed-Wing
1970-01-01 00:01:05.594816704,4884,1538770160024611360,base_link,0,1,40.5926623,-79.9004575,364.620743475,0.518400041199,0.0,0.0,0.0,0.518400041199,0.0,0.0,0.0,2.07360016479,1,93.97646100706706,295.3888205911557,364.6131955811212,18.89904606757165,3.748186420705523,0.09977103781798548,0,Fixed-Wing
1970-01-01 00:01:05.993025088,4886,1538770160422794752,base_link,0,1,40.592665,-79.900366,364.710835441,0.518400041199,0.0,0.0,0.0,0.518400041199,0.0,0.0,0.0,2.07360016479,1,101.72246878301159,295.6887679469621,364.7031549559855,19.36468055795157,0.7498552670488507,0.22489450150695572,0,Fixed-Wing
1970-01-01 00:01:06.389853312,4888,1538770160819693952,base_link,0,1,40.5926565,-79.9002761,364.640930384,0.518400041199,0.0,0.0,0.0,0.518400041199,0.0,0.0,0.0,2.07360016479,1,109.33304230188114,294.7449269714749,364.633167957645,19.02610084040915,-2.359561146397952,-0.17496443397361142,0,Fixed-Wing
1970-01-01 00:01:06.765821472,4890,1538770161195621056,base_link,0,1,40.5926363,-79.900191,364.691025259,0.518400041199,0.0,0.0,0.0,0.518400041199,0.0,0.0,0.0,2.07360016479,1,116.53729191069277,292.501779800058,364.68323897219386,18.01030884162436,-5.607769792570935,0.12517534580356926,0,Fixed-Wing
1970-01-01 00:01:07.185452736,4892,1538770161615379520,base_link,0,1,40.5926063,-79.9001136,364.911116337,0.518400041199,0.0,0.0,0.0,0.518400041199,0.0,0.0,0.0,2.07360016479,1,123.08971669757445,289.17032290122233,364.9033594202638,16.38077530363637,-8.328496498400414,0.5502914900738313,0,Fixed-Wing
1970-01-01 00:01:07.630804032,4894,1538770162058010528,base_link,0,1,40.5925686,-79.9000475,365.611199095,0.518400041199,0.0,0.0,0.0,0.518400041199,0.0,0.0,0.0,2.07360016479,1,128.68555979579162,284.98377288644264,365.6035207835205,13.989362931691629,-10.466191878591369,1.7503727766180457,0,Fixed-Wing
1970-01-01 00:01:08.003769760,4896,1538770162433648064,base_link,0,1,40.5925282,-79.8999892,366.641275043,0.518400041199,0.0,0.0,0.0,0.518400041199,0.0,0.0,0.0,2.07360016479,1,133.62110557448523,280.49738729054434,366.6336947492428,12.338648520384915,-11.215767713810754,2.5753898449835293,0,Fixed-Wing
1970-01-01 00:01:08.400978080,4898,1538770162830543840,base_link,0,1,40.5924879,-79.8999359,367.791345878,0.518400041199,0.0,0.0,0.0,0.518400041199,0.0,0.0,0.0,2.07360016479,1,138.13338071171228,276.0221061358085,367.7838653146595,11.28049043448502,-11.18800709671544,2.8753760944601354,0,Fixed-Wing
1970-01-01 00:01:08.771718880,4900,1538770163201401056,base_link,0,1,40.5924491,-79.8998847,368.781413975,0.518400041199,0.0,0.0,0.0,0.518400041199,0.0,0.0,0.0,2.07360016479,1,142.46787816385353,271.71339461218474,368.77402366160095,10.836053999408135,-10.771590306228997,2.475352548683967,0,Fixed-Wing
1970-01-01 00:01:09.191284032,4902,1538770163620985504,base_link,0,1,40.5924123,-79.8998339,369.431480858,0.518400041199,0.0,0.0,0.0,0.518400041199,0.0,0.0,0.0,2.07360016479,1,146.7685072883059,267.6267743110233,369.4241663750819,10.751384661899344,-10.216371966394131,1.6253283404563716,0,Fixed-Wing
1970-01-01 00:01:09.590904704,4904,1538770164020592768,base_link,0,1,40.5923776,-79.899782,369.691548012,0.518400041199,0.0,0.0,0.0,0.518400041199,0.0,0.0,0.0,2.07360016479,1,151.16224996051272,263.77335164400233,369.6842919737769,10.984164457639057,-9.633388083261027,0.6503026164417782,0,Fixed-Wing
1970-01-01 00:01:10.004432672,4906,1538770164434183840,base_link,0,1,40.5923446,-79.8997288,369.531615804,0.518400041199,0.0,0.0,0.0,0.518400041199,0.0,0.0,0.0,2.07360016479,1,155.66603657736007,260.108705642797,369.52440246012407,11.259269504902038,-9.161454677556424,-0.3997167890882976,0,Fixed-Wing
1970-01-01 00:01:10.395320800,4908,1538770164825192736,base_link,0,1,40.5923126,-79.8996746,369.011684216,0.518400041199,0.0,0.0,0.0,0.518400041199,0.0,0.0,0.0,2.07360016479,1,160.2544723349015,256.55510235345724,369.00450167834646,11.470888653302113,-8.883852755926211,-1.2997292091828587,0,Fixed-Wing
1970-01-01 00:01:10.825579968,4910,1538770165254996704,base_link,0,1,40.5922808,-79.8996197,368.331753274,0.518400041199,0.0,0.0,0.0,0.518400041199,0.0,0.0,0.0,2.07360016479,1,164.90216656575546,253.02370793007213,368.3245938501833,11.619032244070658,-8.828331562660425,-1.699739824960944,0,Fixed-Wing
1970-01-01 00:01:11.171426624,4912,1538770165601048704,base_link,0,1,40.5922488,-79.8995628,368.091824466,0.518400041199,0.0,0.0,0.0,0.518400041199,0.0,0.0,0.0,2.07360016479,1,169.71918923505214,249.47012779208853,368.0846791878615,12.042345932187878,-8.88379487854863,-0.5997761597216555,0,Fixed-Wing
1970-01-01 00:01:11.612925088,4914,1538770166042639008,base_link,0,1,40.5922168,-79.8995048,367.831896795,0.518400041199,0.0,0.0,0.0,0.518400041199,0.0,0.0,0.0,2.07360016479,1,174.62933768917625,245.91655246343208,367.8247574997406,12.275156320074679,-8.883782855441154,-0.6497928489274585,0,Fixed-Wing
1970-01-01 00:01:11.997152896,4916,1538770166426000032,base_link,0,1,40.5921856,-79.8994457,367.291969929,0.518400041199,0.0,0.0,0.0,0.518400041199,0.0,0.0,0.0,2.07360016479,1,179.6326025512787,242.45181421133307,367.2848248538619,12.507943266248942,-8.66169405060164,-1.3498079930568896,0,Fixed-Wing
1970-01-01 00:01:12.403524800,4918,1538770166832953408,base_link,0,1,40.5921553,-79.899385,366.712044337,0.518400041199,0.0,0.0,0.0,0.518400041199,0.0,0.0,0.0,2.07360016479,1,184.771318017723,239.0870289667247,366.7048800055923,12.846563851243344,-8.411815904742628,-1.449836748530842,0,Fixed-Wing
1970-01-01 00:01:12.851599136,4920,1538770167281149632,base_link,0,1,40.5921257,-79.8993229,366.192119898,0.518400041199,0.0,0.0,0.0,0.518400041199,0.0,0.0,0.0,2.07360016479,1,190.02855616217,235.79998983487667,366.1849239907841,13.142865360973685,-8.217454024174623,-1.29986728934294,0,Fixed-Wing
1970-01-01 00:01:13.177953696,4922,1538770167605932576,base_link,0,1,40.5920968,-79.8992603,365.792195695,0.518400041199,0.0,0.0,0.0,0.518400041199,0.0,0.0,0.0,2.07360016479,1,195.32812800934403,232.59069715038154,365.784958052545,13.24869776572419,-8.023091307139937,-0.9998973473942208,0,Fixed-Wing
1970-01-01 00:01:13.588968768,4924,1538770168018825984,base_link,0,1,40.5920686,-79.8991968,365.452272134,0.518400041199,0.0,0.0,0.0,0.518400041199,0.0,0.0,0.0,2.07360016479,1,200.70389449813018,229.45914955294762,365.4449815422781,13.439181036297253,-7.828731990774967,-0.849926401955271,0,Fixed-Wing
1970-01-01 00:01:13.992334656,4926,1538770168422141952,base_link,0,1,40.5920406,-79.8991336,365.1823482,0.518400041199,0.0,0.0,0.0,0.518400041199,0.0,0.0,0.0,2.07360016479,1,206.05426958291602,226.3498184508216,365.1749986241261,13.375703637150947,-7.773191724459873,-0.6749454838339872,0,Fixed-Wing
1970-01-01 00:01:14.401991712,4928,1538770168831836736,base_link,0,1,40.5920127,-79.8990703,365.012424341,0.422499969006,0.0,0.0,0.0,0.422499969006,0.0,0.0,0.0,1.68999987602,1,211.41311733979813,223.25160045635485,365.00500910802145,13.396884946718716,-7.745409441501651,-0.42496635335040545,0,Fixed-Wing
1970-01-01 00:01:14.794610336,4930,1538770169224307712,base_link,0,1,40.5919854,-79.8990067,364.852500553,0.422499969006,0.0,0.0,0.0,0.422499969006,0.0,0.0,0.0,1.68999987602,1,216.79736468179098,220.22001901806146,364.84501049023635,13.460382798283147,-7.578820966366555,-0.39998954464573494,0,Fixed-Wing
1970-01-01 00:01:15.173690752,4932,1538770169603220128,base_link,0,1,40.5919578,-79.8989428,364.612577211,0.422499969006,0.0,0.0,0.0,0.422499969006,0.0,0.0,0.0,1.68999987602,1,222.20701136497914,217.15512394360235,364.60500658992567,13.523880040069692,-7.662103599334802,-0.5999992507898178,0,Fixed-Wing
1970-01-01 00:01:15.580181664,4934,1538770170009916512,base_link,0,1,40.5919304,-79.8988788,364.372653903,0.422499969006,0.0,0.0,0.0,0.422499969006,0.0,0.0,0.0,1.68999987602,1,227.62512708870665,214.11244377683062,364.3649956168816,13.545052270904035,-7.606567302001543,-0.6000169323139174,0,Fixed-Wing
1970-01-01 00:01:15.996892544,4936,1538770170426172512,base_link,0,1,40.5919025,-79.8988148,364.122730818,0.422499969006,0.0,0.0,0.0,0.422499969006,0.0,0.0,0.0,1.68999987602,1,233.04324820003237,211.01424126720036,364.11498065596334,13.54506573966385,-7.745370730087861,-0.6250264643324638,0,Fixed-Wing
1970-01-01 00:01:16.444440864,4938,1538770170874159328,base_link,0,1,40.5918749,-79.8987506,363.942807827,0.422499969006,0.0,0.0,0.0,0.422499969006,0.0,0.0,0.0,1.68999987602,1,238.47830630427015,207.9493614970349,363.93495796495205,13.58740748096354,-7.662065339270252,-0.4500488516733165,0,Fixed-Wing
1970-01-01 00:01:16.786334848,4940,1538770171212679616,base_link,0,1,40.5918474,-79.8986874,363.812883788,0.422499969006,0.0,0.0,0.0,0.422499969006,0.0,0.0,0.0,1.68999987602,1,243.82871324796494,204.89558995535862,363.80493099816886,13.375783283029529,-7.634295254023728,-0.3250617283777315,0,Fixed-Wing
1970-01-01 00:01:17.163776512,4942,1538770171593665952,base_link,0,1,40.5918194,-79.8986275,363.602956602,0.422499969006,0.0,0.0,0.0,0.422499969006,0.0,0.0,0.0,1.68999987602,1,248.8997553194166,201.7862843366454,363.59490759174554,12.677383324421001,-7.773128017042756,-0.5250493276950596,0,Fixed-Wing
1970-01-01 00:01:17.593404896,4944,1538770172020930304,base_link,0,1,40.5917895,-79.8985721,363.023025624,0.422499969006,0.0,0.0,0.0,0.422499969006,0.0,0.0,0.0,1.68999987602,1,253.58983757598884,198.46595837768768,363.01489656828426,11.725000453922618,-8.300669635675652,-1.4500021836149908,0,Fixed-Wing
1970-01-01 00:01:18.012106912,4946,1538770172441784992,base_link,0,1,40.591757,-79.8985223,362.033090024,0.422499969006,0.0,0.0,0.0,0.422499969006,0.0,0.0,0.0,1.68999987602,1,257.80583761170914,194.85687091459792,362.02490374621743,10.539815642527003,-9.022560762911061,-2.4749387437390453,0,Fixed-Wing
1970-01-01 00:01:18.392701952,4948,1538770172822530720,base_link,0,1,40.5917203,-79.8984808,360.753147709,0.422499969006,0.0,0.0,0.0,0.422499969006,0.0,0.0,0.0,1.68999987602,1,261.3191919159858,190.781333850545,360.74494216724867,8.783232054130739,-10.188664358506035,-3.1998479500827894,0,Fixed-Wing
