time,field.header.seq,field.header.stamp,field.header.frame_id,field.status.status,field.status.service,lat,lon,alt,field.position_covariance0,field.position_covariance1,field.position_covariance2,field.position_covariance3,field.position_covariance4,field.position_covariance5,field.position_covariance6,field.position_covariance7,field.position_covariance8,field.position_covariance_type,x,y,z,vel_x,vel_y,vel_z,track_id,uav_category
1970-01-01 00:00:00.000000000,1286,1531943810933254299,base_link,0,1,40.5914601,-79.8995372,349.262177802,0.435600034618,0.0,0.0,0.0,0.435600034618,0.0,0.0,0.0,1.74240013847,1,150.84213538335456,157.58445845919215,349.2584453234757,19.151957996058442,-0.9434323702406614,1.0496967922261171,0,Fixed-Wing
1970-01-01 00:00:00.403964252,1288,1531943811337205271,base_link,0,1,40.5914567,-79.8994467,349.682271542,0.396899993992,0.0,0.0,0.0,0.396899993992,0.0,0.0,0.0,1.58759997597,1,158.5036272042238,157.20705060409819,349.67836287914747,19.151957996058442,-0.9434323702406614,1.0496967922261171,0,Fixed-Wing
1970-01-01 00:00:00.808898989,1290,1531943811741930763,base_link,0,1,40.5914552,-79.8993577,350.452362974,0.396899993992,0.0,0.0,0.0,0.396899993992,0.0,0.0,0.0,1.58759997597,1,166.03813943138297,157.04065542900202,350.44826701256534,18.834538373098447,-0.4159494624151518,1.924582309681023,0,Fixed-Wing
1970-01-01 00:00:01.232925711,1292,1531943812166114795,base_link,0,1,40.5914552,-79.8992725,351.632449915,0.47609999671,0.0,0.0,0.0,0.47609999671,0.0,0.0,0.0,1.90439998684,1,173.25096370641018,157.0408486885902,351.62816238628676,18.030392876226955,0.0004831042832853534,2.949465608734747,0,Fixed-Wing
1970-01-01 00:00:01.621720889,1294,1531943812554350491,base_link,0,1,40.5914608,-79.8991897,352.802532083,0.372100017452,0.0,0.0,0.0,0.372100017452,0.0,0.0,0.0,1.48840006981,1,180.26059800312794,157.66293595683078,352.79803519972336,17.522464913789882,1.555074326226302,2.9244115255253837,0,Fixed-Wing
1970-01-01 00:00:02.005123943,1296,1531943812937755753,base_link,0,1,40.5914734,-79.8991092,353.602608991,0.372100017452,0.0,0.0,0.0,0.372100017452,0.0,0.0,0.0,1.48840006981,1,187.07549175108605,159.06238129122875,353.59788132150356,17.035658571477413,3.4982897441935803,1.9994303571424794,0,Fixed-Wing
1970-01-01 00:00:02.440557354,1298,1531943813373047982,base_link,0,1,40.5914973,-79.8990333,354.262676498,0.372100017452,0.0,0.0,0.0,0.372100017452,0.0,0.0,0.0,1.48840006981,1,193.50092471431452,161.71670945909312,354.2576905048712,16.062096664129754,6.635206663044614,1.6493703916579123,0,Fixed-Wing
1970-01-01 00:00:02.878633837,1300,1531943813810908371,base_link,0,1,40.5915379,-79.8989678,355.142726427,0.372100017452,0.0,0.0,0.0,0.372100017452,0.0,0.0,0.0,1.48840006981,1,199.0458772798854,166.22559791104274,355.1374538571336,13.86109926224541,11.271178545858549,2.199204954197704,0,Fixed-Wing
1970-01-01 00:00:03.206326349,1302,1531943814139022351,base_link,0,1,40.5915927,-79.898919,356.142753394,0.372100017452,0.0,0.0,0.0,0.372100017452,0.0,0.0,0.0,1.48840006981,1,203.17701185571903,172.3113981014403,356.1371888585421,10.326881203072821,15.213093264866874,2.499106336185178,0,Fixed-Wing
1970-01-01 00:00:03.605233932,1304,1531943814537613426,base_link,0,1,40.5916564,-79.8988921,357.242754306,0.372100017452,0.0,0.0,0.0,0.372100017452,0.0,0.0,0.0,1.48840006981,1,205.45412794777698,179.3855191266642,357.2369214256777,5.692263695753023,17.683666823878585,2.749077128204544,0,Fixed-Wing
1970-01-01 00:00:04.006369583,1306,1531943814932618242,base_link,0,1,40.5917233,-79.8988931,358.622725422,0.372100017452,0.0,0.0,0.0,0.372100017452,0.0,0.0,0.0,1.48840006981,1,205.36931062015393,186.81495344332086,358.61668147918294,-0.21202370686475708,18.57186789386145,3.4490810937619902,0,Fixed-Wing
1970-01-01 00:00:04.426776263,1308,1531943815359907427,base_link,0,1,40.5917871,-79.8989203,360.212671107,0.372100017452,0.0,0.0,0.0,0.372100017452,0.0,0.0,0.0,1.48840006981,1,203.06649895151082,193.90007456296274,360.20648882254477,-5.756496695663406,17.711164516386944,3.9741507494602413,0,Fixed-Wing
1970-01-01 00:00:04.803982850,1310,1531943815733057746,base_link,0,1,40.5918408,-79.8989681,362.14259999,0.372100017452,0.0,0.0,0.0,0.372100017452,0.0,0.0,0.0,1.48840006981,1,199.01980019573736,199.8635352811815,362.1363605493285,-10.115811176899793,14.907272872806153,4.824233075399888,0,Fixed-Wing
1970-01-01 00:00:05.210953098,1312,1531943816143149042,base_link,0,1,40.5918831,-79.8990258,364.362523531,0.348099969053,0.0,0.0,0.0,0.348099969053,0.0,0.0,0.0,1.39239987621,1,194.13504480685384,204.56099216239608,364.35628513389975,-12.210758977003426,11.742556016604908,5.5492981513490784,0,Fixed-Wing
1970-01-01 00:00:05.609584355,1314,1531943816542262725,base_link,0,1,40.5919183,-79.8990835,366.56245004,0.348099969053,0.0,0.0,0.0,0.348099969053,0.0,0.0,0.0,1.39239987621,1,189.25031160170624,208.46998267488198,366.55623136709875,-12.210703522793136,9.771572410766755,5.499356892484946,0,Fixed-Wing
1970-01-01 00:00:06.047463564,1316,1531943816980555017,base_link,0,1,40.5919502,-79.8991382,368.392380994,0.348099969053,0.0,0.0,0.0,0.348099969053,0.0,0.0,0.0,1.39239987621,1,184.61954893889424,212.0124999362943,368.3861807897632,-11.57583589220998,8.855474022183733,4.574450419997325,0,Fixed-Wing
1970-01-01 00:00:06.433025747,1318,1531943817366304845,base_link,0,1,40.5919809,-79.8991899,369.652315521,0.348099969053,0.0,0.0,0.0,0.348099969053,0.0,0.0,0.0,1.39239987621,1,180.24274551294775,215.42174597861114,369.64612581062886,-10.94099652268788,8.522326790564003,3.1495712168265526,0,Fixed-Wing
1970-01-01 00:00:06.842622508,1320,1531943817775883367,base_link,0,1,40.5920129,-79.8992375,370.362253703,0.348099969053,0.0,0.0,0.0,0.348099969053,0.0,0.0,0.0,1.39239987621,1,176.21301847576305,218.9753534824893,370.3560551292998,-10.073385804774807,8.883197063967005,1.7746591407068817,0,Fixed-Wing
1970-01-01 00:00:07.211543497,1322,1531943818144717477,base_link,0,1,40.5920457,-79.8992844,369.97219228,0.348099969053,0.0,0.0,0.0,0.348099969053,0.0,0.0,0.0,1.39239987621,1,172.24252237192582,222.61776886585895,369.96597561010225,-9.925322167292613,9.105196227773027,-0.9751086004483844,0,Fixed-Wing
1970-01-01 00:00:07.626512777,1324,1531943818559634150,base_link,0,1,40.5920785,-79.8993309,369.102131278,0.348099969053,0.0,0.0,0.0,0.348099969053,0.0,0.0,0.0,1.39239987621,1,168.3058806472843,226.26016963485864,369.0958910665863,-9.840694047404376,9.105159695227425,-2.1750101703490663,0,Fixed-Wing
1970-01-01 00:00:08.020104982,1326,1531943818953375184,base_link,0,1,40.5921122,-79.8993775,367.802069814,0.348099969053,0.0,0.0,0.0,0.348099969053,0.0,0.0,0.0,1.39239987621,1,164.36076491332676,230.00250298996264,367.7957981559483,-9.861877111261084,9.354968053215064,-3.2499316579166426,0,Fixed-Wing
1970-01-01 00:00:08.423616048,1328,1531943819356766219,base_link,0,1,40.5921475,-79.8994247,366.34200709,0.348099969053,0.0,0.0,0.0,0.348099969053,0.0,0.0,0.0,1.39239987621,1,160.36485299004522,233.92251383718423,366.3356940952158,-9.988855839038738,9.799120699389283,-3.6499225339969383,0,Fixed-Wing
1970-01-01 00:00:08.835139718,1330,1531943819768368481,base_link,0,1,40.592184,-79.8994731,364.97194266,0.348099969053,0.0,0.0,0.0,0.348099969053,0.0,0.0,0.0,1.39239987621,1,156.26735875350562,237.97578916927233,364.9655809154759,-10.242788133446664,10.132251096993793,-3.4249661399817026,0,Fixed-Wing
1970-01-01 00:00:09.207505099,1332,1531943820139532053,base_link,0,1,40.5922212,-79.8995229,363.881876529,0.348099969053,0.0,0.0,0.0,0.348099969053,0.0,0.0,0.0,1.39239987621,1,152.05135685586518,242.1068099353446,363.87546068752016,-10.539029883836843,10.326596704985425,-2.7250485029028946,0,Fixed-Wing
1970-01-01 00:00:09.592500602,1334,1531943820525594614,base_link,0,1,40.5922593,-79.8995731,362.981809634,0.348099969053,0.0,0.0,0.0,0.348099969053,0.0,0.0,0.0,1.39239987621,1,147.80150094898127,246.33778551153208,362.9753311458878,-10.623657078929972,10.576460617861573,-2.250115718376897,0,Fixed-Wing
1970-01-01 00:00:09.997410223,1336,1531943820930625962,base_link,0,1,40.5922979,-79.8996232,362.321742651,0.348099969053,0.0,0.0,0.0,0.348099969053,0.0,0.0,0.0,1.39239987621,1,143.5601210162977,250.62429813402818,362.31519349902754,-10.602469103316873,10.715290391879012,-1.6501914744393094,0,Fixed-Wing
1970-01-01 00:00:10.421729818,1338,1531943821354566042,base_link,0,1,40.5923362,-79.8996718,361.991677336,0.348099969053,0.0,0.0,0.0,0.348099969053,0.0,0.0,0.0,1.39239987621,1,139.445739000777,254.8775121986076,361.9850503782038,-10.285003675961734,10.63205169666662,-0.8252814635239252,0,Fixed-Wing
1970-01-01 00:00:10.866366570,1340,1531943821799438311,base_link,0,1,40.5923758,-79.899717,361.721614965,0.348099969053,0.0,0.0,0.0,0.348099969053,0.0,0.0,0.0,1.39239987621,1,135.61919174968324,259.2751038512762,361.7148927221873,-9.565483320527244,10.992962282660306,-0.6753316718616583,0,Fixed-Wing
1970-01-01 00:00:11.244772313,1342,1531943822177827222,base_link,0,1,40.5924168,-79.8997575,361.57155682,0.348099969053,0.0,0.0,0.0,0.348099969053,0.0,0.0,0.0,1.39239987621,1,132.19053283018974,263.82818243022405,361.5647192934483,-8.570854494692993,11.381643645332462,-0.3753988474540627,0,Fixed-Wing
1970-01-01 00:00:11.606765243,1344,1531943822539802616,base_link,0,1,40.5924595,-79.8997934,361.151502674,0.348099969053,0.0,0.0,0.0,0.348099969053,0.0,0.0,0.0,1.39239987621,1,129.15128744261483,268.5700467326053,361.1445289388908,-7.59741070844674,11.853564301255282,-1.0503787263616096,0,Fixed-Wing
1970-01-01 00:00:11.997860817,1346,1531943822931062796,base_link,0,1,40.5925053,-79.8998215,360.601455212,0.348099969053,0.0,0.0,0.0,0.348099969053,0.0,0.0,0.0,1.39239987621,1,126.77235470027705,273.65617953338585,360.59431241768465,-5.94678177852994,12.714155942526684,-1.3754140772132397,0,Fixed-Wing
1970-01-01 00:00:12.396016568,1348,1531943823329030293,base_link,0,1,40.5925551,-79.8998385,360.011417424,0.348099969053,0.0,0.0,0.0,0.348099969053,0.0,0.0,0.0,1.39239987621,1,125.33309819929994,279.18653553616514,360.0040627776426,-3.59780845516067,13.8246112304094,-1.475487617500461,0,Fixed-Wing
1970-01-01 00:00:12.809565281,1350,1531943823742564671,base_link,0,1,40.5926078,-79.8998431,359.211391084,0.348099969053,0.0,0.0,0.0,0.348099969053,0.0,0.0,0.0,1.39239987621,1,124.94356719858199,285.03895066501786,359.2037845849538,-0.9737374310825043,14.629684576308508,-2.0005104345068982,0,Fixed-Wing
1970-01-01 00:00:13.190957790,1352,1531943824123615295,base_link,0,1,40.5926615,-79.8998326,358.341379723,0.348099969053,0.0,0.0,0.0,0.348099969053,0.0,0.0,0.0,1.39239987621,1,125.83233580642803,291.0024349600431,358.3334858319443,2.221716010884109,14.907331809370731,-2.175545644551576,0,Fixed-Wing
1970-01-01 00:00:13.604984042,1354,1531943824538330596,base_link,0,1,40.5927128,-79.8998042,357.661387584,0.348099969053,0.0,0.0,0.0,0.348099969053,0.0,0.0,0.0,1.39239987621,1,128.23644800469899,296.69942708026895,357.65318277925894,6.0097245961522345,14.241162992987757,-1.7006003261832292,0,Fixed-Wing
1970-01-01 00:00:14.001373810,1356,1531943824933904309,base_link,0,1,40.5927585,-79.8997585,357.201415368,0.348099969053,0.0,0.0,0.0,0.348099969053,0.0,0.0,0.0,1.39239987621,1,132.10511384915665,301.7745623128487,357.1928930458107,9.670770064913162,12.686664564977054,-1.150617901464702,0,Fixed-Wing
1970-01-01 00:00:14.469365387,1358,1531943825402272746,base_link,0,1,40.5927951,-79.8996966,356.941463386,0.348099969053,0.0,0.0,0.0,0.348099969053,0.0,0.0,0.0,1.39239987621,1,137.3452169964783,305.83915794009704,356.9326364657526,13.099046206530051,10.160549217318314,-0.6505812713777126,0,Fixed-Wing
1970-01-01 00:00:14.846075185,1360,1531943825778847441,base_link,0,1,40.5928201,-79.8996232,356.961527878,0.348099969053,0.0,0.0,0.0,0.348099969053,0.0,0.0,0.0,1.39239987621,1,143.5588837317953,308.6155828668446,356.95243027156636,15.532730060761859,6.940420327988542,0.049479937640209644,0,Fixed-Wing
1970-01-01 00:00:15.207043741,1362,1531943826140105114,base_link,0,1,40.5928325,-79.8995436,357.401603858,0.348099969053,0.0,0.0,0.0,0.348099969053,0.0,0.0,0.0,1.39239987621,1,150.2974481952783,309.9927853416988,357.39228430208084,16.844853009804062,3.4426877385196537,1.099533369449531,0,Fixed-Wing
1970-01-01 00:00:15.609175027,1364,1531943826542445709,base_link,0,1,40.5928359,-79.899463,358.091684556,0.348099969053,0.0,0.0,0.0,0.348099969053,0.0,0.0,0.0,1.39239987621,1,157.12069384664986,310.3705374553262,358.08218239117105,17.05653639881202,0.944292936971888,1.724585698548401,0,Fixed-Wing
1970-01-01 00:00:16.042436903,1366,1531943826975075113,base_link,0,1,40.5928347,-79.8993841,358.85176542,0.348099969053,0.0,0.0,0.0,0.348099969053,0.0,0.0,0.0,1.39239987621,1,163.80003886154446,310.23745552869804,358.84210195698785,16.696818081563976,-0.3326740442213223,1.8996231993960595,0,Fixed-Wing
1970-01-01 00:00:16.409114620,1368,1531943827342063194,base_link,0,1,40.5928318,-79.8993072,359.681844954,0.348099969053,0.0,0.0,0.0,0.348099969053,0.0,0.0,0.0,1.39239987621,1,170.31008074810978,309.9155901467432,359.6720269187765,16.273599408468012,-0.804589030401708,2.074620502075216,0,Fixed-Wing
1970-01-01 00:00:16.812774537,1370,1531943827745375979,base_link,0,1,40.5928293,-79.899232,360.371922603,0.348099969053,0.0,0.0,0.0,0.348099969053,0.0,0.0,0.0,1.39239987621,1,176.67620546445616,309.63814107545073,360.3619451655776,15.913839760688079,-0.6935585240677598,1.7246360881645573,0,Fixed-Wing
1970-01-01 00:00:17.239293632,1372,1531943828172188607,base_link,0,1,40.592828,-79.8991578,360.911998749,0.348099969053,0.0,0.0,0.0,0.348099969053,0.0,0.0,0.0,1.39239987621,1,182.95766886528452,309.4939508232965,360.9018514968442,15.702206048011455,-0.36044228947387413,1.349640986375243,0,Fixed-Wing
1970-01-01 00:00:17.602821412,1374,1531943828535958656,base_link,0,1,40.5928292,-79.8990841,361.242073369,0.348099969053,0.0,0.0,0.0,0.348099969053,0.0,0.0,0.0,1.39239987621,1,189.19679250452842,309.6273854317184,361.2317378729796,15.596366434214586,0.3335556671555576,0.8246396611698203,0,Fixed-Wing
1970-01-01 00:00:18.056294805,1376,1531943828989527023,base_link,0,1,40.592833,-79.8990101,361.402147237,0.348099969053,0.0,0.0,0.0,0.348099969053,0.0,0.0,0.0,1.39239987621,1,195.46130047168663,310.04955378596594,361.3916025603449,15.659821384417466,1.0553232682165907,0.39962475312362056,0,Fixed-Wing
1970-01-01 00:00:18.413564399,1378,1531943829346814793,base_link,0,1,40.5928387,-79.8989351,361.382221352,0.348099969053,0.0,0.0,0.0,0.348099969053,0.0,0.0,0.0,1.39239987621,1,201.81045223404965,310.6827204058864,361.3714483486114,15.871411300362272,1.5827701435629038,-0.0503808691033176,0,Fixed-Wing
1970-01-01 00:00:18.805859483,1380,1531943829739008599,base_link,0,1,40.5928453,-79.8988586,361.472296635,0.348099969053,0.0,0.0,0.0,0.348099969053,0.0,0.0,0.0,1.39239987621,1,208.28658704211207,311.4158484775544,361.4612798997599,16.18883955249746,1.8326506589839868,0.22455810624643874,0,Fixed-Wing
1970-01-01 00:00:19.212226526,1382,1531943830145438969,base_link,0,1,40.5928524,-79.8987809,361.352372946,0.348099969053,0.0,0.0,0.0,0.348099969053,0.0,0.0,0.0,1.39239987621,1,214.86429877882298,312.20450099751343,361.3410996890835,16.44275838662651,1.9714489408705789,-0.3004227375878671,0,Fixed-Wing
1970-01-01 00:00:19.616862333,1384,1531943830550190391,base_link,0,1,40.5928587,-79.8987012,361.332451634,0.384400005913,0.0,0.0,0.0,0.384400005913,0.0,0.0,0.0,1.53760002365,1,221.6113261050996,312.90432736150944,361.32091348162083,16.86600820993214,1.7494040901116898,-0.050460851027888234,0,Fixed-Wing
1970-01-01 00:00:20.003681175,1386,1531943830936728180,base_link,0,1,40.5928637,-79.8986209,361.202531479,0.384400005913,0.0,0.0,0.0,0.384400005913,0.0,0.0,0.0,1.53760002365,1,228.40914594401082,313.45978790716026,361.19072652371455,16.99297774683644,1.3885229257564102,-0.3254372918162309,0,Fixed-Wing
1970-01-01 00:00:20.438197552,1388,1531943831371224365,base_link,0,1,40.592866,-79.8985399,361.092613157,0.384400005913,0.0,0.0,0.0,0.384400005913,0.0,0.0,0.0,1.53760002365,1,235.2662335727098,313.71541614490536,361.0805467224711,17.141133516897167,0.639011485800313,-0.2754240263861062,0,Fixed-Wing
1970-01-01 00:00:20.835122358,1390,1531943831768284082,base_link,0,1,40.5928657,-79.8984579,361.392696935,0.384400005913,0.0,0.0,0.0,0.384400005913,0.0,0.0,0.0,1.53760002365,1,242.208000968701,313.6823375398935,361.38037268028035,17.352813354742633,-0.08268886380969181,0.7494955661831751,0,Fixed-Wing
1970-01-01 00:00:21.190082562,1392,1531943832123228509,base_link,0,1,40.5928653,-79.8983757,361.832780969,0.384400005913,0.0,0.0,0.0,0.384400005913,0.0,0.0,0.0,1.53760002365,1,249.16670602151734,313.6381676294572,361.8201912379265,17.39515358033471,-0.11041456274375568,1.0994446954810753,0,Fixed-Wing
1970-01-01 00:00:21.584929804,1394,1531943832518211718,base_link,0,1,40.5928652,-79.8982937,361.992864688,0.384400005913,0.0,0.0,0.0,0.384400005913,0.0,0.0,0.0,1.53760002365,1,256.1084686319603,313.6273055344845,361.9800009350091,17.352801391978655,-0.027152725804633803,0.3994872901321821,0,Fixed-Wing
1970-01-01 00:00:22.007818176,1396,1531943832940520065,base_link,0,1,40.5928648,-79.8982113,362.102948949,0.384400005913,0.0,0.0,0.0,0.384400005913,0.0,0.0,0.0,1.53760002365,1,263.08409295152774,313.5831329240914,362.089803878612,17.43744783499384,-0.11042131201140047,0.2744819694249738,0,Fixed-Wing
1970-01-01 00:00:22.443846492,1398,1531943833377032343,base_link,0,1,40.5928642,-79.8981287,362.383033509,0.384400005913,0.0,0.0,0.0,0.384400005913,0.0,0.0,0.0,1.53760002365,1,270.07665669919226,313.51676535489486,362.3695998795597,17.479792488356125,-0.16590357691045962,0.6994253055285549,0,Fixed-Wing
1970-01-01 00:00:22.832617305,1400,1531943833765899475,base_link,0,1,40.5928628,-79.8980464,362.743118103,0.384400005913,0.0,0.0,0.0,0.384400005913,0.0,0.0,0.0,1.53760002365,1,277.0438312852388,313.3615654356634,362.72939373577253,17.416325455011798,-0.38796391141681824,0.8994014458983345,0,Fixed-Wing
1970-01-01 00:00:23.223611902,1402,1531943834156467773,base_link,0,1,40.592862,-79.8979646,362.903201952,0.384400005913,0.0,0.0,0.0,0.384400005913,0.0,0.0,0.0,1.53760002365,1,283.9686677281221,313.27299197969666,362.8891778464559,17.310489886893723,-0.2214131591996555,0.3994233300503381,0,Fixed-Wing
1970-01-01 00:00:23.635667209,1404,1531943834568521192,base_link,0,1,40.5928622,-79.8978828,362.9532854,0.384400005913,0.0,0.0,0.0,0.384400005913,0.0,0.0,0.0,1.53760002365,1,290.89349533704194,313.29547191834115,362.93894858029705,17.310467804027695,0.0561946486062396,0.12441532618525657,0,Fixed-Wing
1970-01-01 00:00:23.986664378,1406,1531943834919494298,base_link,0,1,40.5928624,-79.8978015,363.093368349,0.384400005913,0.0,0.0,0.0,0.384400005913,0.0,0.0,0.0,1.53760002365,1,297.7759994217213,313.31796103234217,363.07871328001346,17.204668779836215,0.0562175848759455,0.34937943169359037,0,Fixed-Wing
1970-01-01 00:00:24.444478626,1408,1531943835377768092,base_link,0,1,40.592862,-79.8977204,363.183451352,0.384400005913,0.0,0.0,0.0,0.384400005913,0.0,0.0,0.0,1.53760002365,1,304.6415729878828,313.27382191450465,363.168474707352,17.16234639836194,-0.11033758836686859,0.2243828129361642,0,Fixed-Wing
1970-01-01 00:00:24.805992253,1410,1531943835738959547,base_link,0,1,40.592861,-79.8976385,363.22353543,0.47609999671,0.0,0.0,0.0,0.47609999671,0.0,0.0,0.0,1.90439998684,1,311.57487164078003,313.1630580562583,363.20822980436066,17.33164345522348,-0.27688403384272886,0.09937855000575277,0,Fixed-Wing
1970-01-01 00:00:25.248978814,1412,1531943836182032187,base_link,0,1,40.5928591,-79.8975559,362.913620607,0.384400005913,0.0,0.0,0.0,0.384400005913,0.0,0.0,0.0,1.53760002365,1,318.56741631225947,312.95233881429823,362.89798043563155,17.479744802304378,-0.5267493805824908,-0.775551683292053,0,Fixed-Wing
1970-01-01 00:00:25.611716179,1414,1531943836544727536,base_link,0,1,40.5928579,-79.8974722,362.323706631,0.384400005913,0.0,0.0,0.0,0.384400005913,0.0,0.0,0.0,1.53760002365,1,325.6530641663824,312.81935311676204,362.3077156844033,17.712481230793536,-0.3324334937422912,-1.4755253919718248,0,Fixed-Wing
1970-01-01 00:00:25.992545132,1416,1531943836925651432,base_link,0,1,40.5928577,-79.8973869,361.813793889,0.384400005913,0.0,0.0,0.0,0.384400005913,0.0,0.0,0.0,1.53760002365,1,332.8741590814366,312.7974365182929,361.79743178966066,18.051067563885724,-0.05478642842823833,-1.2755917446202634,0,Fixed-Wing
1970-01-01 00:00:26.417407287,1418,1531943837350515635,base_link,0,1,40.5928583,-79.8972997,361.623882773,0.384400005913,0.0,0.0,0.0,0.384400005913,0.0,0.0,0.0,1.53760002365,1,340.25611144463466,312.8643918734144,361.6071284195069,18.453173989401186,0.16737290580991007,-0.47571442180033957,0,Fixed-Wing
1970-01-01 00:00:26.810111016,1420,1531943837739254997,base_link,0,1,40.5928599,-79.8972119,361.71397187,0.384400005913,0.0,0.0,0.0,0.384400005913,0.0,0.0,0.0,1.53760002365,1,347.6888666348162,313.042423033437,361.69680850281605,18.580169309792655,0.44503673415862227,0.22417947167170377,0,Fixed-Wing
1970-01-01 00:00:27.215780897,1422,1531943838149040987,base_link,0,1,40.592862,-79.8971241,362.054060774,0.384400005913,0.0,0.0,0.0,0.384400005913,0.0,0.0,0.0,1.53760002365,1,355.1216329323412,313.2760000993276,362.0364770073066,18.580197075583026,0.5838886550258746,0.8490927201497176,0,Fixed-Wing
1970-01-01 00:00:27.638796653,1424,1531943838571963689,base_link,0,1,40.5928643,-79.8970372,362.414148687,0.384400005913,0.0,0.0,0.0,0.384400005913,0.0,0.0,0.0,1.53760002365,1,362.4782096001778,313.5317923566508,362.396139089685,18.38974061858437,0.6394214968195634,0.8990720417821514,0,Fixed-Wing
1970-01-01 00:00:27.995825783,1426,1531943838928979698,base_link,0,1,40.5928664,-79.8969509,362.614236081,0.384400005913,0.0,0.0,0.0,0.384400005913,0.0,0.0,0.0,1.53760002365,1,369.7839850898825,313.76537101548877,362.5957962078277,18.262749419940338,0.5838926370260368,0.4990966289185291,0,Fixed-Wing
1970-01-01 00:00:28.433162814,1428,1531943839366221275,base_link,0,1,40.5928675,-79.8968652,362.784323287,0.384400005913,0.0,0.0,0.0,0.384400005913,0.0,0.0,0.0,1.53760002365,1,377.03897108512786,313.8879004213842,362.765453249991,18.13578742777634,0.3062951824341761,0.4241033758461117,0,Fixed-Wing
1970-01-01 00:00:28.803067285,1430,1531943839736086450,base_link,0,1,40.592867,-79.8967797,362.894410962,0.384400005913,0.0,0.0,0.0,0.384400005913,0.0,0.0,0.0,1.53760002365,1,384.27703166356963,313.8327492523081,362.8751123030644,18.093477799407996,-0.13786517016203934,0.2741222763728302,0,Fixed-Wing
1970-01-01 00:00:29.235763034,1432,1531943840168934005,base_link,0,1,40.592865,-79.8966942,362.854499268,0.384400005913,0.0,0.0,0.0,0.384400005913,0.0,0.0,0.0,1.53760002365,1,391.5150921546123,313.6110191431909,362.83477199784517,18.093477580930486,-0.5542740024477107,-0.10084143521528634,0,Fixed-Wing
1970-01-01 00:00:29.604710532,1434,1531943840538030973,base_link,0,1,40.5928608,-79.8966091,362.624588087,0.384400005913,0.0,0.0,0.0,0.384400005913,0.0,0.0,0.0,1.53760002365,1,398.7192919625448,313.1449696688604,362.6044381363138,18.00883370271367,-1.1650159218534168,-0.5757813940495302,0,Fixed-Wing
1970-01-01 00:00:30.009291105,1436,1531943840942593723,base_link,0,1,40.5928521,-79.8965242,362.344678575,0.435600034618,0.0,0.0,0.0,0.435600034618,0.0,0.0,0.0,1.74240013847,1,405.90658507166273,312.1791881453836,362.3241233988829,17.96657086498985,-2.4142304923715434,-0.7007220267897699,0,Fixed-Wing
1970-01-01 00:00:30.442062579,1438,1531943841375038833,base_link,0,1,40.5928373,-79.8964395,362.084771396,0.435600034618,0.0,0.0,0.0,0.435600034618,0.0,0.0,0.0,1.74240013847,1,413.07698712896416,310.5359942472596,362.06383694663765,17.92434714114302,-4.107604791866673,-0.6506559449381559,0,Fixed-Wing
1970-01-01 00:00:30.801709173,1440,1531943841734706355,base_link,0,1,40.592816,-79.8963558,361.714865898,0.384400005913,0.0,0.0,0.0,0.384400005913,0.0,0.0,0.0,1.53760002365,1,420.16276960033576,308.17095694084003,361.69358427258663,17.712817742787795,-5.912046401756824,-0.9255460721158708,0,Fixed-Wing
1970-01-01 00:00:31.232538308,1442,1531943842165562177,base_link,0,1,40.5927864,-79.896275,361.244960885,0.435600034618,0.0,0.0,0.0,0.435600034618,0.0,0.0,0.0,1.74240013847,1,427.00310050221145,304.88417327764586,361.2233839890756,17.099245574473585,-8.21619915956317,-1.175391985018934,0,Fixed-Wing
1970-01-01 00:00:31.639681013,1444,1531943842572853200,base_link,0,1,40.5927451,-79.8962004,361.025054391,0.384400005913,0.0,0.0,0.0,0.384400005913,0.0,0.0,0.0,1.53760002365,1,433.31866369441246,300.2980652747445,361.0032702797887,15.787447641595682,-11.464209567868396,-0.5502333766299625,0,Fixed-Wing
1970-01-01 00:00:32.017619011,1446,1531943842950794558,base_link,0,1,40.5926965,-79.8961329,360.645143675,0.384400005913,0.0,0.0,0.0,0.384400005913,0.0,0.0,0.0,1.53760002365,1,439.03321515516774,294.90123804972353,360.6232217606642,14.285057284089408,-13.490820161687436,-0.9500334197199265,0,Fixed-Wing
1970-01-01 00:00:32.408664028,1448,1531943843340933858,base_link,0,1,40.5926397,-79.8960751,360.145226451,0.384400005913,0.0,0.0,0.0,0.384400005913,0.0,0.0,0.0,1.53760002365,1,443.9266587237296,288.59373240063405,360.1232555318114,12.23247741724353,-15.767305646951353,-1.2497999656351044,0,Fixed-Wing
1970-01-01 00:00:32.776941447,1450,1531943843709465802,base_link,0,1,40.5925751,-79.8960326,359.655296818,0.435600034618,0.0,0.0,0.0,0.435600034618,0.0,0.0,0.0,1.74240013847,1,447.52492746019993,281.4199455103749,359.63339614125374,8.994839818492652,-17.93280844086717,-1.2245352068875708,0,Fixed-Wing
1970-01-01 00:00:33.205185991,1452,1531943844138278308,base_link,0,1,40.5925052,-79.8960086,359.69535046,0.384400005913,0.0,0.0,0.0,0.384400005913,0.0,0.0,0.0,1.53760002365,1,449.557139909256,273.6575124936487,359.6736456672757,5.080061216977653,-19.40428764520823,0.10061450821290689,0,Fixed-Wing
1970-01-01 00:00:33.637417407,1454,1531943844570523803,base_link,0,1,40.5924346,-79.8959988,359.795389869,0.348099969053,0.0,0.0,0.0,0.348099969053,0.0,0.0,0.0,1.39239987621,1,450.3872493067589,265.8172731887778,359.7739589681324,2.0750815487139813,-19.598785374530156,0.2507600568364157,0,Fixed-Wing
1970-01-01 00:00:34.014440361,1456,1531943844947143530,base_link,0,1,40.592365,-79.8960003,360.005417305,0.348099969053,0.0,0.0,0.0,0.348099969053,0.0,0.0,0.0,1.39239987621,1,450.260746856409,258.0880327659403,359.9843135292321,-0.3162268748888315,-19.321313835563977,0.525837762756281,0,Fixed-Wing
1970-01-01 00:00:34.386149722,1458,1531943845317547051,base_link,0,1,40.5922979,-79.8960114,360.635433883,0.348099969053,0.0,0.0,0.0,0.348099969053,0.0,0.0,0.0,1.39239987621,1,449.32155688607753,250.6363902491246,360.6146941340231,-2.347757758236072,-18.627383259087775,1.575805749945666,0,Fixed-Wing
1970-01-01 00:00:34.807875640,1460,1531943845741077651,base_link,0,1,40.5922343,-79.8960263,361.305445127,0.348099969053,0.0,0.0,0.0,0.348099969053,0.0,0.0,0.0,1.39239987621,1,448.0606501618794,243.57341184064938,361.2850682475781,-3.1519752527844944,-17.6558128584986,1.675780274212133,0,Fixed-Wing
1970-01-01 00:00:35.235256087,1462,1531943846168467506,base_link,0,1,40.5921725,-79.8960409,361.885455945,0.348099969053,0.0,0.0,0.0,0.348099969053,0.0,0.0,0.0,1.39239987621,1,446.8251194363408,236.71032463883563,361.8654246368576,-3.088541123792502,-17.156131062411117,1.4507567781966988,0,Fixed-Wing
1970-01-01 00:00:35.602101547,1464,1531943846535329190,base_link,0,1,40.5921118,-79.8960533,362.255468577,0.348099969053,0.0,0.0,0.0,0.348099969053,0.0,0.0,0.0,1.39239987621,1,445.77580858971646,229.9693976045241,362.23575779107705,-2.6230344858708996,-16.85075889058147,0.9257472539276415,0,Fixed-Wing
1970-01-01 00:00:35.997380269,1466,1531943846930415146,base_link,0,1,40.5920516,-79.8960623,362.405484503,0.348099969053,0.0,0.0,0.0,0.348099969053,0.0,0.0,0.0,1.39239987621,1,445.01430950659693,223.28400564119846,362.386064931455,-1.903571627423292,-16.711934054414037,0.37573309563352203,0,Fixed-Wing
1970-01-01 00:00:36.402641312,1468,1531943847335532895,base_link,0,1,40.5919906,-79.8960668,362.675505394,0.348099969053,0.0,0.0,0.0,0.348099969053,0.0,0.0,0.0,1.39239987621,1,444.63377768799444,216.50979841732746,362.656346438494,-0.9512415566622388,-16.93395166914811,0.6756412707799215,0,Fixed-Wing
1970-01-01 00:00:36.784298317,1470,1531943847717060525,base_link,0,1,40.5919296,-79.8960673,362.665530404,0.348099969053,0.0,0.0,0.0,0.348099969053,0.0,0.0,0.0,1.39239987621,1,444.5918526690286,209.73560166893554,362.64660126614297,-0.10480285315072242,-16.933925482872624,-0.024360677514873808,0,Fixed-Wing
1970-01-01 00:00:37.207671917,1472,1531943848133595838,base_link,0,1,40.5918677,-79.8960658,362.365557862,0.348099969053,0.0,0.0,0.0,0.348099969053,0.0,0.0,0.0,1.39239987621,1,444.7192269982968,202.86145874526886,362.34684273459425,0.31840637058123883,-17.18376781064422,-0.7493270161228051,0,Fixed-Wing
1970-01-01 00:00:37.604774314,1474,1531943848537975141,base_link,0,1,40.5918047,-79.8960635,362.02558662,0.348099969053,0.0,0.0,0.0,0.348099969053,0.0,0.0,0.0,1.39239987621,1,444.9143315715801,195.8651617746792,362.0070771144397,0.48771631944867133,-17.489124682441044,-0.8493354868538096,0,Fixed-Wing
1970-01-01 00:00:38.004129932,1476,1531943848934162156,base_link,0,1,40.5917406,-79.8960612,361.69561586,0.348099969053,0.0,0.0,0.0,0.348099969053,0.0,0.0,0.0,1.39239987621,1,445.1094444786655,188.74670835862025,361.6773079043753,0.48773715202704987,-17.794487550048974,-0.824346773084486,0,Fixed-Wing
1970-01-01 00:00:38.410335108,1478,1531943849343436256,base_link,0,1,40.5916754,-79.8960593,361.515645172,0.348099969053,0.0,0.0,0.0,0.348099969053,0.0,0.0,0.0,1.39239987621,1,445.2707126710947,181.50610045813187,361.49753664155685,0.4031331912527855,-18.09984551551078,-0.44938658878669396,0,Fixed-Wing
1970-01-01 00:00:38.793270001,1480,1531943849725284986,base_link,0,1,40.5916095,-79.8960583,361.455673877,0.348099969053,0.0,0.0,0.0,0.348099969053,0.0,0.0,0.0,1.39239987621,1,445.3558027541416,174.18775515483367,361.4377639692619,0.21270553235552522,-18.294171047423617,-0.1494178595854102,0,Fixed-Wing
1970-01-01 00:00:39.183493643,1482,1531943850116719398,base_link,0,1,40.5915435,-79.8960597,361.735700184,0.348099969053,0.0,0.0,0.0,0.348099969053,0.0,0.0,0.0,1.39239987621,1,445.2377400391424,166.85830162102326,361.71799493432434,-0.295129488020388,-18.32193905516342,0.7005126152392352,0,Fixed-Wing
1970-01-01 00:00:39.577254369,1484,1531943850510092512,base_link,0,1,40.5914774,-79.8960626,362.205725016,0.348099969053,0.0,0.0,0.0,0.348099969053,0.0,0.0,0.0,1.39239987621,1,444.99270501129274,159.5177394757407,362.188225108072,-0.6125309105149452,-18.34970801521496,1.175466703699073,0,Fixed-Wing
1970-01-01 00:00:40.012117810,1486,1531943850945115919,base_link,0,1,40.591412,-79.8960663,362.495748753,0.348099969053,0.0,0.0,0.0,0.348099969053,0.0,0.0,0.0,1.39239987621,1,444.6799263718118,152.2549046338317,362.4784485633912,-0.7818742753318796,-18.155407729557545,0.7254915303314983,0,Fixed-Wing
1970-01-01 00:00:40.415188256,1488,1531943851348112670,base_link,0,1,40.5913471,-79.8960701,362.615772198,0.348099969053,0.0,0.0,0.0,0.348099969053,0.0,0.0,0.0,1.39239987621,1,444.3586662086179,145.04759102103347,362.5986627456278,-0.8030761234433977,-18.016617494877302,0.3005076586329917,0,Fixed-Wing
1970-01-01 00:00:40.803733499,1490,1531943851736576570,base_link,0,1,40.5912821,-79.8960728,362.835796835,0.348099969053,0.0,0.0,0.0,0.348099969053,0.0,0.0,0.0,1.39239987621,1,444.13053635014205,137.82917970944868,362.81886370725897,-0.570271896039178,-18.044359175738215,0.5504514873153694,0,Fixed-Wing
1970-01-01 00:00:41.189054782,1492,1531943852121661440,base_link,0,1,40.5912173,-79.8960744,363.035822537,0.348099969053,0.0,0.0,0.0,0.348099969053,0.0,0.0,0.0,1.39239987621,1,443.99552673738907,130.63298359080932,363.01905060736703,-0.33749281379717616,-17.98882633016287,0.5004209613312393,0,Fixed-Wing
1970-01-01 00:00:41.605092830,1494,1531943852538118235,base_link,0,1,40.591153,-79.8960755,363.325848561,0.348099969053,0.0,0.0,0.0,0.348099969053,0.0,0.0,0.0,1.39239987621,1,443.9028486722487,123.49231754850273,363.3092256686151,-0.23167373303063474,-17.850013979473378,0.7253705563437338,0,Fixed-Wing
1970-01-01 00:00:42.002399835,1496,1531943852935488151,base_link,0,1,40.5910887,-79.8960779,363.605873272,0.348099969053,0.0,0.0,0.0,0.348099969053,0.0,0.0,0.0,1.39239987621,1,443.70011455483996,116.35164420246039,363.5893990481725,-0.5067884155934033,-17.8500322371239,0.7003686647919273,0,Fixed-Wing
1970-01-01 00:00:42.454664599,1498,1531943853387454359,base_link,0,1,40.5910244,-79.8960836,363.765894616,0.348099969053,0.0,0.0,0.0,0.348099969053,0.0,0.0,0.0,1.39239987621,1,443.21800060847875,109.21095163698612,363.7495804323732,-1.2051733873646935,-17.850080281259654,0.4004164219827462,0,Fixed-Wing
1970-01-01 00:00:42.798097204,1500,1531943853730820917,base_link,0,1,40.5909601,-79.8960938,363.495911361,0.348099969053,0.0,0.0,0.0,0.348099969053,0.0,0.0,0.0,1.39239987621,1,442.35489498360135,102.07022931115958,363.4797755632209,-2.1575644874783872,-17.850154675258903,-0.6744497862754376,0,Fixed-Wing
1970-01-01 00:00:43.204844012,1502,1531943854137950568,base_link,0,1,40.5908958,-79.8961123,362.985919605,0.348099969053,0.0,0.0,0.0,0.348099969053,0.0,0.0,0.0,1.39239987621,1,440.78910931186033,94.92946261049292,362.97000259191395,-3.91410212490601,-17.850265602098457,-1.2743145541711705,0,Fixed-Wing
1970-01-01 00:00:43.581513931,1504,1531943854514568199,base_link,0,1,40.5908326,-79.8961412,362.435916725,0.348099969053,0.0,0.0,0.0,0.348099969053,0.0,0.0,0.0,1.39239987621,1,438.3428663890418,87.91080265855553,362.42026889183813,-6.1150416656923126,-17.54502696484924,-1.3742071360294656,0,Fixed-Wing
1970-01-01 00:00:43.982794537,1506,1531943854916013443,base_link,0,1,40.5907726,-79.8961827,361.905899571,0.348099969053,0.0,0.0,0.0,0.348099969053,0.0,0.0,0.0,1.39239987621,1,434.8299065642127,81.24745019080507,361.8905804205845,-8.781587265250634,-16.656840411638065,-1.324098699004395,0,Fixed-Wing
1970-01-01 00:00:44.431443746,1508,1531943855364659037,base_link,0,1,40.5907182,-79.8962368,361.50586712,0.348099969053,0.0,0.0,0.0,0.348099969053,0.0,0.0,0.0,1.39239987621,1,430.2502197363002,75.20593340665346,361.490932363227,-11.44815811515559,-15.10239498884256,-0.9990277333284774,0,Fixed-Wing
1970-01-01 00:00:44.788503725,1510,1531943855721018032,base_link,0,1,40.5906727,-79.8963025,361.285818997,0.348099969053,0.0,0.0,0.0,0.348099969053,0.0,0.0,0.0,1.39239987621,1,424.6884451485901,70.1527317577845,361.2713141658382,-13.903150427860648,-12.631835677372253,-0.5489947114611834,0,Fixed-Wing
1970-01-01 00:00:45.225617682,1512,1531943856158851501,base_link,0,1,40.5906375,-79.8963767,361.185757786,0.348099969053,0.0,0.0,0.0,0.348099969053,0.0,0.0,0.0,1.39239987621,1,418.40701091228055,66.24333422037441,361.1717094013146,-15.702133143458143,-9.772589878961412,-0.24898887983755566,0,Fixed-Wing
1970-01-01 00:00:45.606388911,1514,1531943856539510763,base_link,0,1,40.5906129,-79.8964557,361.125687156,0.348099969053,0.0,0.0,0.0,0.348099969053,0.0,0.0,0.0,1.39239987621,1,411.7191475198481,63.51107450288896,361.1121012067914,-16.718112055716002,-6.830017517093289,-0.14900670318797313,0,Fixed-Wing
1970-01-01 00:00:45.983821619,1516,1531943856917103533,base_link,0,1,40.5905993,-79.8965367,361.215609811,0.348099969053,0.0,0.0,0.0,0.348099969053,0.0,0.0,0.0,1.39239987621,1,404.86190567740556,62.00038846483443,361.2024770742568,-17.141519015597392,-3.7763657813015548,0.22591877117719456,0,Fixed-Wing
1970-01-01 00:00:46.406108594,1518,1531943857338354488,base_link,0,1,40.5905954,-79.8966171,361.375528972,0.348099969053,0.0,0.0,0.0,0.348099969053,0.0,0.0,0.0,1.39239987621,1,398.05540276211815,61.56691947722888,361.3628282335777,-17.014683430001252,-1.0835722385818078,0.4008408205263423,0,Fixed-Wing
1970-01-01 00:00:46.776888428,1520,1531943857709520429,base_link,0,1,40.5905978,-79.8966951,361.66544793,0.348099969053,0.0,0.0,0.0,0.348099969053,0.0,0.0,0.0,1.39239987621,1,391.45205015747064,61.83309818198836,361.653152702178,-16.50685462756573,0.6653852137664337,0.7257440401769358,0,Fixed-Wing
1970-01-01 00:00:47.240349423,1522,1531943858173585194,base_link,0,1,40.5906032,-79.8967698,362.335369011,0.348099969053,0.0,0.0,0.0,0.348099969053,0.0,0.0,0.0,1.39239987621,1,385.1280759011697,62.432457879317525,362.3234523562131,-15.808473356966768,1.498260654212393,1.6755941426296763,0,Fixed-Wing
1970-01-01 00:00:47.600558635,1524,1531943858530465100,base_link,0,1,40.5906092,-79.8968419,362.925292515,0.348099969053,0.0,0.0,0.0,0.348099969053,0.0,0.0,0.0,1.39239987621,1,379.0242050921547,63.098464864403184,362.91373439929487,-15.258265632966468,1.6648634628438337,1.4755686176072285,0,Fixed-Wing
1970-01-01 00:00:48.009319633,1526,1531943858942440941,base_link,0,1,40.5906152,-79.896912,363.39521808,0.348099969053,0.0,0.0,0.0,0.348099969053,0.0,0.0,0.0,1.39239987621,1,373.0896440739209,63.764484240005004,363.3840027132171,-14.835030305281283,1.6648944362691958,1.1755620453164264,0,Fixed-Wing
1970-01-01 00:00:48.406846913,1528,1531943859339844606,base_link,0,1,40.5906201,-79.8969812,363.535145043,0.348099969053,0.0,0.0,0.0,0.348099969053,0.0,0.0,0.0,1.39239987621,1,367.23126286372036,64.30835126678065,363.5242636965105,-14.644598400149357,1.3595418093217468,0.35062002588107516,0,Fixed-Wing
1970-01-01 00:00:48.811309505,1530,1531943859744471740,base_link,0,1,40.5906232,-79.8970506,363.375072573,0.348099969053,0.0,0.0,0.0,0.348099969053,0.0,0.0,0.0,1.39239987621,1,361.355943285643,64.65232482197675,363.3645228208482,-14.686940403206156,0.8598543514627416,-0.39931525249487926,0,Fixed-Wing
1970-01-01 00:00:49.237539655,1532,1531943860170569604,base_link,0,1,40.5906243,-79.8971215,363.164999423,0.384400005913,0.0,0.0,0.0,0.384400005913,0.0,0.0,0.0,1.53760002365,1,355.3536447506183,64.77419174082479,363.15478517080015,-15.00435843440655,0.30463911800168963,-0.5242956277745684,0,Fixed-Wing
1970-01-01 00:00:49.635758391,1534,1531943860568613974,base_link,0,1,40.5906239,-79.8971946,362.634924661,0.384400005913,0.0,0.0,0.0,0.384400005913,0.0,0.0,0.0,1.53760002365,1,349.1650886383949,64.72947299615063,362.6250521498862,-15.469959309322412,-0.11178652143215902,-1.324210062854101,0,Fixed-Wing
1970-01-01 00:00:50.040869399,1536,1531943860973840500,base_link,0,1,40.5906216,-79.8972708,361.844847537,0.384400005913,0.0,0.0,0.0,0.384400005913,0.0,0.0,0.0,1.53760002365,1,342.71408822215307,64.47374527893496,361.835326995088,-16.12600938473644,-0.639260161474257,-1.9741302799445826,0,Fixed-Wing
1970-01-01 00:00:50.380242009,1538,1531943861313415156,base_link,0,1,40.5906175,-79.8973503,361.044767803,0.435600034618,0.0,0.0,0.0,0.435600034618,0.0,0.0,0.0,1.74240013847,1,335.98372478591335,64.01811636144959,361.03560942324515,-16.82435233800802,-1.1389669392715431,-1.9991090120235078,0,Fixed-Wing
1970-01-01 00:00:50.814245683,1540,1531943861747442382,base_link,0,1,40.5906117,-79.8974328,360.524685725,0.435600034618,0.0,0.0,0.0,0.435600034618,0.0,0.0,0.0,1.74240013847,1,328.99940983287405,63.373696316726665,360.51589734954285,-17.45917240915041,-1.6109011034552323,-1.2991600119546298,0,Fixed-Wing
1970-01-01 00:00:51.272442072,1542,1531943862205578996,base_link,0,1,40.5906055,-79.8975159,360.544603213,0.348099969053,0.0,0.0,0.0,0.348099969053,0.0,0.0,0.0,1.39239987621,1,321.96432891731166,62.68486513344533,360.53618013750304,-17.58607557691511,-1.721918680725376,0.0507022799395659,0,Fixed-Wing
1970-01-01 00:00:51.614375524,1544,1531943862546877031,base_link,0,1,40.5906002,-79.8975981,360.774521252,0.384400005913,0.0,0.0,0.0,0.384400005913,0.0,0.0,0.0,1.53760002365,1,315.0054453510142,62.095992919891415,360.76645092254375,-17.395599822760044,-1.472044369780577,0.5756237174079297,0,Fixed-Wing
1970-01-01 00:00:52.003336303,1546,1531943862936188398,base_link,0,1,40.5905963,-79.8976798,360.98443922,0.384400005913,0.0,0.0,0.0,0.384400005913,0.0,0.0,0.0,1.53760002365,1,308.0888819977388,61.662601940232406,360.9767104560262,-17.28980907584904,-1.0833772367531234,0.5256002156861207,0,Fixed-Wing
1970-01-01 00:00:52.472050407,1548,1531943863404659913,base_link,0,1,40.5905944,-79.8977613,361.204356558,0.384400005913,0.0,0.0,0.0,0.384400005913,0.0,0.0,0.0,1.53760002365,1,301.18924056908037,61.45132274402803,361.1969588981395,-17.247508177139647,-0.5281491367157862,0.5505701775418329,0,Fixed-Wing
1970-01-01 00:00:52.810504034,1550,1531943863743825403,base_link,0,1,40.5905943,-79.8978425,361.414273452,0.384400005913,0.0,0.0,0.0,0.384400005913,0.0,0.0,0.0,1.53760002365,1,294.3149874469259,61.43994498481291,361.4071963421023,-17.18404328138265,-0.028441767174342117,0.5255449969947693,0,Fixed-Wing
1970-01-01 00:00:53.279391869,1552,1531943864212549496,base_link,0,1,40.5905952,-79.8979233,361.754190344,0.384400005913,0.0,0.0,0.0,0.384400005913,0.0,0.0,0.0,1.53760002365,1,287.4745987874734,61.53962844069463,361.74742378982535,-17.099389955060445,0.2491855900372141,0.8504899489873843,0,Fixed-Wing
1970-01-01 00:00:53.583777670,1554,1531943864516943681,base_link,0,1,40.5905973,-79.8980037,362.094107148,0.384400005913,0.0,0.0,0.0,0.384400005913,0.0,0.0,0.0,1.53760002365,1,280.66806793558203,61.772582245983926,362.0876410396984,-17.014753265051365,0.5823306476383399,0.8504644567203413,0,Fixed-Wing
1970-01-01 00:00:54.032959401,1556,1531943864966224868,base_link,0,1,40.5905995,-79.898083,362.464025048,0.384400005913,0.0,0.0,0.0,0.384400005913,0.0,0.0,0.0,1.53760002365,1,273.95466193011623,62.016651238580494,362.45784802227956,-16.781962682116404,0.6101160457571853,0.9254318540064556,0,Fixed-Wing
1970-01-01 00:00:54.441609639,1558,1531943865374622564,base_link,0,1,40.5906018,-79.8981615,362.703943735,0.384400005913,0.0,0.0,0.0,0.384400005913,0.0,0.0,0.0,1.53760002365,1,267.3089764900151,62.271832692264894,362.6980457869364,-16.61267692763706,0.6378946289578229,0.6004388710465312,0,Fixed-Wing
1970-01-01 00:00:54.824186706,1560,1531943865757402828,base_link,0,1,40.5906031,-79.8982399,362.723862957,0.384400005913,0.0,0.0,0.0,0.384400005913,0.0,0.0,0.0,1.53760002365,1,260.67175175295085,62.415965891155366,362.7182379063722,-16.591527126401385,0.360299669506751,0.050475629593810634,0,Fixed-Wing
1970-01-01 00:00:55.230491438,1562,1531943866163655913,base_link,0,1,40.5906038,-79.8983189,362.59378183,0.384400005913,0.0,0.0,0.0,0.384400005913,0.0,0.0,0.0,1.53760002365,1,253.98372848154318,62.49347039501018,362.5884254496052,-16.718511716185436,0.19374333837822863,-0.3245011255634177,0,Fixed-Wing
1970-01-01 00:00:55.642274064,1564,1531943866575492427,base_link,0,1,40.5906042,-79.8983984,362.503700329,0.384400005913,0.0,0.0,0.0,0.384400005913,0.0,0.0,0.0,1.53760002365,1,247.2533790674988,62.53766418588418,362.49860758406965,-16.824317285762024,0.11047425831611685,-0.22452389537859008,0,Fixed-Wing
1970-01-01 00:00:56.033610589,1566,1531943866966947191,base_link,0,1,40.5906042,-79.898478,362.503618906,0.384400005913,0.0,0.0,0.0,0.384400005913,0.0,0.0,0.0,1.53760002365,1,240.51456890353913,62.53744373254969,362.49878345799914,-16.84546720418279,-0.0005510823611122886,0.0004396441566475329,0,Fixed-Wing
1970-01-01 00:00:56.457686201,1568,1531943867385682448,base_link,0,1,40.5906039,-79.8985573,362.583537926,0.384400005913,0.0,0.0,0.0,0.384400005913,0.0,0.0,0.0,1.53760002365,1,233.8011602386734,62.50391525296064,362.5789520632338,-16.781969330001324,-0.0838134462288528,0.2004029758114612,0,Fixed-Wing
1970-01-01 00:00:56.806183033,1570,1531943867736608852,base_link,0,1,40.5906031,-79.8986363,362.833457475,0.384400005913,0.0,0.0,0.0,0.384400005913,0.0,0.0,0.0,1.53760002365,1,227.11315660507273,62.41486909425626,362.8291137838737,-16.718462626208723,-0.22259480674131987,0.625346457052424,0,Fixed-Wing
1970-01-01 00:00:57.203956198,1572,1531943868137274463,base_link,0,1,40.5906015,-79.8987151,363.043377577,0.384400005913,0.0,0.0,0.0,0.384400005913,0.0,0.0,0.0,1.53760002365,1,220.44208522278032,62.23698716488212,363.0392693399368,-16.67613591315906,-0.44466369204383055,0.5253402961803886,0,Fixed-Wing
1970-01-01 00:00:57.605542506,1574,1531943868538900963,base_link,0,1,40.5905992,-79.8987938,363.293298087,0.384400005913,0.0,0.0,0.0,0.384400005913,0.0,0.0,0.0,1.53760002365,1,213.77948249467056,61.98137518590127,363.2894188025498,-16.654966235897582,-0.6389708426491849,0.6253158148195467,0,Fixed-Wing
1970-01-01 00:00:58.054569487,1576,1531943868987256976,base_link,0,1,40.590597,-79.8988724,363.713218666,0.384400005913,0.0,0.0,0.0,0.384400005913,0.0,0.0,0.0,1.53760002365,1,207.12534983723498,61.73687626067081,363.70956099313133,-16.633793017734817,-0.6111907779291903,1.0502583275585602,0,Fixed-Wing
1970-01-01 00:00:58.446454538,1578,1531943869378987213,base_link,0,1,40.5905956,-79.8989504,364.233139531,0.384400005913,0.0,0.0,0.0,0.384400005913,0.0,0.0,0.0,1.53760002365,1,200.52201168864443,61.58122746337909,364.2296940768905,-16.506818490765987,-0.38908600277403893,1.30021243974723,0,Fixed-Wing
1970-01-01 00:00:58.802370593,1580,1531943869735687547,base_link,0,1,40.5905952,-79.8990273,364.693061109,0.384400005913,0.0,0.0,0.0,0.384400005913,0.0,0.0,0.0,1.53760002365,1,194.01179178468922,61.536638700744845,364.6898171416359,-16.27404441078001,-0.11146159638795479,1.150201268246195,0,Fixed-Wing
1970-01-01 00:00:59.184893738,1582,1531943870118069637,base_link,0,1,40.5905957,-79.899103,365.052983543,0.384400005913,0.0,0.0,0.0,0.384400005913,0.0,0.0,0.0,1.53760002365,1,187.60315557354303,61.59200434421905,365.0499304775108,-16.020108667813698,0.1384013065646523,0.9002000711807359,0,Fixed-Wing
1970-01-01 00:00:59.609726036,1584,1531943870542535923,base_link,0,1,40.5905976,-79.899178,365.152906112,0.384400005913,0.0,0.0,0.0,0.384400005913,0.0,0.0,0.0,1.53760002365,1,181.2537685024294,61.80284774943976,365.1500343291327,-15.871999517828666,0.5270597600239839,0.2502364821801371,0,Fixed-Wing
1970-01-01 00:00:59.985205266,1586,1531943870918376781,base_link,0,1,40.5906002,-79.8992526,364.892828804,0.384400005913,0.0,0.0,0.0,0.384400005913,0.0,0.0,0.0,1.53760002365,1,174.93823329519458,62.09143051568017,364.89013029887633,-15.787377685651155,0.7213901870087259,-0.6496999783929825,0,Fixed-Wing
1970-01-01 00:01:00.406149486,1588,1531943871336651432,base_link,0,1,40.5906034,-79.8993272,364.422751253,0.384400005913,0.0,0.0,0.0,0.384400005913,0.0,0.0,0.0,1.53760002365,1,168.62269203946255,62.44664796916774,364.42021911476434,-15.787392805495564,0.887961497280424,-1.1746693033694209,0,Fixed-Wing
1970-01-01 00:01:00.808098373,1590,1531943871740206349,base_link,0,1,40.5906064,-79.8994022,364.122673388,0.384400005913,0.0,0.0,0.0,0.384400005913,0.0,0.0,0.0,1.53760002365,1,162.27329374298853,62.77966118858325,364.1203024321185,-15.87202757863403,0.8324560463544761,-0.7497223572965943,0,Fixed-Wing
1970-01-01 00:01:01.201959963,1592,1531943872135182966,base_link,0,1,40.5906088,-79.8994772,364.062595785,0.384400005913,0.0,0.0,0.0,0.384400005913,0.0,0.0,0.0,1.53760002365,1,155.92390386229184,63.046050751426264,364.0603803427358,-15.872006541136674,0.6659123102188469,-0.14979136775514978,0,Fixed-Wing
1970-01-01 00:01:01.581406202,1594,1531943872514425847,base_link,0,1,40.5906101,-79.8995517,364.102519167,0.384400005913,0.0,0.0,0.0,0.384400005913,0.0,0.0,0.0,1.53760002365,1,149.61684856408849,63.1902899672651,364.10045313940464,-15.766179873870048,0.36056468736351205,0.10017272569493244,0,Fixed-Wing
1970-01-01 00:01:01.996613601,1596,1531943872929767997,base_link,0,1,40.5906101,-79.8996255,364.332443819,0.384400005913,0.0,0.0,0.0,0.384400005913,0.0,0.0,0.0,1.53760002365,1,143.36906137487898,63.19016948021141,364.3305210807695,-15.618023305867968,-0.00030118977417685445,0.5751166551214932,0,Fixed-Wing
1970-01-01 00:01:02.436306615,1598,1531943873369278837,base_link,0,1,40.5906087,-79.8996983,364.582370091,0.384400005913,0.0,0.0,0.0,0.384400005913,0.0,0.0,0.0,1.53760002365,1,137.20593546532416,63.03458267314309,364.5805842542644,-15.406389682841393,-0.38893104154945046,0.6251001119769836,0,Fixed-Wing
1970-01-01 00:01:02.826869789,1600,1531943873759638525,base_link,0,1,40.5906062,-79.8997701,364.792297856,0.384400005913,0.0,0.0,0.0,0.384400005913,0.0,0.0,0.0,1.53760002365,1,131.12746859021485,62.756844435740476,364.790642438256,-15.194761672318595,-0.6942813724795858,0.5250968885167563,0,Fixed-Wing
1970-01-01 00:01:03.197531720,1602,1531943874130108650,base_link,0,1,40.5906035,-79.8998417,364.832225917,0.384400005913,0.0,0.0,0.0,0.384400005913,0.0,0.0,0.0,1.53760002365,1,125.06592959678063,62.4568992747881,364.8306950098301,-15.152445882341414,-0.7497935464778909,0.10012216763476439,0,Fixed-Wing
1970-01-01 00:01:03.657548353,1604,1531943874590765691,base_link,0,1,40.590601,-79.8999131,364.482154106,0.384400005913,0.0,0.0,0.0,0.384400005913,0.0,0.0,0.0,1.53760002365,1,119.02131410893288,62.179165972876575,364.4807414093775,-15.110141031573955,-0.6942690348930841,-0.8748030818463778,0,Fixed-Wing
1970-01-01 00:01:04.009019114,1606,1531943874941830633,base_link,0,1,40.5905992,-79.8999854,363.962081091,0.384400005913,0.0,0.0,0.0,0.384400005913,0.0,0.0,0.0,1.53760002365,1,112.90050204744992,61.97917144412324,363.9607814632894,-15.300614846834081,-0.49994007742617924,-1.2997796356040465,0,Fixed-Wing
1970-01-01 00:01:04.432284073,1608,1531943875364945162,base_link,0,1,40.5905983,-79.9000596,363.502005767,0.384400005913,0.0,0.0,0.0,0.384400005913,0.0,0.0,0.0,1.53760002365,1,106.61883919117216,61.87912736610309,363.5008150532538,-15.70270464051516,-0.25008706199713343,-1.14980966769468,0,Fixed-Wing
1970-01-01 00:01:04.795532498,1610,1531943875728802860,base_link,0,1,40.5905991,-79.900135,362.921928513,0.384400005913,0.0,0.0,0.0,0.384400005913,0.0,0.0,0.0,1.53760002365,1,100.23558252805344,61.967875036679715,362.92084029325656,-15.956665666222662,0.22184865544092985,-1.4498027932347308,0,Fixed-Wing
1970-01-01 00:01:05.198536378,1612,1531943876131629974,base_link,0,1,40.5906024,-79.9002113,362.3818493,0.348099969053,0.0,0.0,0.0,0.348099969053,0.0,0.0,0.0,1.39239987621,1,93.77613169111518,62.33425840763809,362.3808556000994,-16.147133482498518,0.9158737090778457,-1.3498368729821995,0,Fixed-Wing
1970-01-01 00:01:05.664250754,1614,1531943876597491996,base_link,0,1,40.5906099,-79.9002874,361.981768537,0.348099969053,0.0,0.0,0.0,0.348099969053,0.0,0.0,0.0,1.39239987621,1,87.33361071204743,63.167068640122324,361.9808579565174,-16.104812752489774,2.0818330116570087,-0.9999016180552525,0,Fixed-Wing
1970-01-01 00:01:06.036217903,1616,1531943876969262187,base_link,0,1,40.5906233,-79.9003612,361.941687651,0.348099969053,0.0,0.0,0.0,0.348099969053,0.0,0.0,0.0,1.39239987621,1,81.08580372053629,64.65509876304196,361.940844493441,-15.6180728070432,3.719731232160123,-0.1000244054335828,0,Fixed-Wing
1970-01-01 00:01:06.401448654,1618,1531943877334676073,base_link,0,1,40.5906425,-79.9004314,362.241608011,0.348099969053,0.0,0.0,0.0,0.348099969053,0.0,0.0,0.0,1.39239987621,1,75.14276694215319,66.78724420052984,362.2408155068447,-14.85621774581627,5.329870580690982,0.7498581716283892,0,Fixed-Wing
1970-01-01 00:01:06.810956154,1620,1531943877743943191,base_link,0,1,40.5906665,-79.900497,362.64153106,0.348099969053,0.0,0.0,0.0,0.348099969053,0.0,0.0,0.0,1.39239987621,1,69.58915751676557,69.45245049108948,362.64077294206083,-13.882739410073619,6.662399454449559,0.9998011064380338,0,Fixed-Wing
1970-01-01 00:01:07.205282067,1622,1531943878138470638,base_link,0,1,40.5906947,-79.9005586,362.821456437,0.348099969053,0.0,0.0,0.0,0.348099969053,0.0,0.0,0.0,1.39239987621,1,64.37417839152809,72.58408150565941,362.82071805017273,-13.036241960712328,7.828353413734064,0.4498211618222679,0,Fixed-Wing
1970-01-01 00:01:07.662913957,1624,1531943878595655077,base_link,0,1,40.5907265,-79.900617,362.60138358,0.348099969053,0.0,0.0,0.0,0.348099969053,0.0,0.0,0.0,1.39239987621,1,59.430102928323414,76.11550215816783,362.6006518417232,-12.359045446307908,8.827735065777457,-0.5501146355199877,0,Fixed-Wing
1970-01-01 00:01:08.013874572,1626,1531943878946909128,base_link,0,1,40.5907639,-79.9006695,362.281314403,0.348099969053,0.0,0.0,0.0,0.348099969053,0.0,0.0,0.0,1.39239987621,1,54.98551055915638,80.26882132315987,362.28057143201323,-11.110453205996029,10.382337546257075,-0.8001270125263105,0,Fixed-Wing
1970-01-01 00:01:08.423430115,1628,1531943879356309442,base_link,0,1,40.5908072,-79.9007135,362.211251432,0.348099969053,0.0,0.0,0.0,0.348099969053,0.0,0.0,0.0,1.39239987621,1,51.260515479076844,85.07735971744177,362.21047696244045,-9.311626374759179,12.020234114049192,-0.17521996608508683,0,Fixed-Wing
1970-01-01 00:01:08.807752920,1630,1531943879740547544,base_link,0,1,40.5908539,-79.9007489,362.421195816,0.348099969053,0.0,0.0,0.0,0.348099969053,0.0,0.0,0.0,1.39239987621,1,48.26358464930301,90.26348647000637,362.4203732370025,-7.491634098280486,12.964117700524213,0.5246921523809722,0,Fixed-Wing
1970-01-01 00:01:09.207638336,1632,1531943880140223202,base_link,0,1,40.5909022,-79.9007778,362.561146168,0.348099969053,0.0,0.0,0.0,0.348099969053,0.0,0.0,0.0,1.39239987621,1,45.816933504231116,95.62730086148545,362.5602632537214,-6.116062126933001,13.408295711344406,0.34969269522303376,0,Fixed-Wing
1970-01-01 00:01:09.626841618,1634,1531943880559818927,base_link,0,1,40.5909515,-79.9007995,362.551103452,0.348099969053,0.0,0.0,0.0,0.348099969053,0.0,0.0,0.0,1.39239987621,1,43.97982157741674,101.10216986589117,362.5501488144211,-4.592355024196195,13.685906564657067,-0.025283759503020076,0,Fixed-Wing
1970-01-01 00:01:10.003945822,1636,1531943880936882908,base_link,0,1,40.591002,-79.9008105,362.861071148,0.348099969053,0.0,0.0,0.0,0.348099969053,0.0,0.0,0.0,1.39239987621,1,43.04855348198404,106.71031270021268,362.8600312728929,-2.3279549027532616,14.019060322723929,0.7746344924889561,0,Fixed-Wing
1970-01-01 00:01:10.461277929,1638,1531943881394516035,base_link,0,1,40.5910518,-79.9008135,363.481047298,0.348099969053,0.0,0.0,0.0,0.348099969053,0.0,0.0,0.0,1.39239987621,1,42.79455212161963,112.24072892752719,363.4799139754416,-0.634944668529175,13.824761777821813,1.5495634217552214,0,Fixed-Wing
1970-01-01 00:01:10.808041840,1640,1531943881740742864,base_link,0,1,40.5911008,-79.9008136,363.861026747,0.348099969053,0.0,0.0,0.0,0.348099969053,0.0,0.0,0.0,1.39239987621,1,42.786057648018875,117.68230135979499,363.85979516516113,-0.021234219836554432,13.60267283343242,0.949615134898838,0,Fixed-Wing
1970-01-01 00:01:11.232844140,1642,1531943882165697227,base_link,0,1,40.5911497,-79.9008118,364.031008184,0.348099969053,0.0,0.0,0.0,0.348099969053,0.0,0.0,0.0,1.39239987621,1,42.938411572924686,123.1127661145128,364.0296728242332,0.3808495836780357,13.574906207970272,0.42465486710500633,0,Fixed-Wing
1970-01-01 00:01:11.602734230,1644,1531943882533394445,base_link,0,1,40.5911991,-79.9008088,363.970990647,0.348099969053,0.0,0.0,0.0,0.348099969053,0.0,0.0,0.0,1.39239987621,1,43.192352637460914,128.5987533320146,363.96954506330326,0.634793942900852,13.713699526548334,-0.15030549906623297,0,Fixed-Wing
1970-01-01 00:01:12.043684962,1646,1531943882976587296,base_link,0,1,40.5912496,-79.9008055,363.770972969,0.348099969053,0.0,0.0,0.0,0.348099969053,0.0,0.0,0.0,1.39239987621,1,43.471688943106315,134.20689529965034,363.7694096732871,0.6982761735674482,14.01905815620988,-0.5002921980120778,0,Fixed-Wing
1970-01-01 00:01:12.432579900,1648,1531943883364606308,base_link,0,1,40.5913012,-79.9008031,363.48095393,0.348099969053,0.0,0.0,0.0,0.348099969053,0.0,0.0,0.0,1.39239987621,1,43.67483168140791,139.9371921485007,363.4792658027235,0.5078098733407005,14.324417113542928,-0.7252925868447444,0,Fixed-Wing
1970-01-01 00:01:12.843858171,1650,1531943883776966359,base_link,0,1,40.591354,-79.9008023,363.130932775,0.348099969053,0.0,0.0,0.0,0.348099969053,0.0,0.0,0.0,1.39239987621,1,43.74252092193248,145.80074918833367,363.1291125262506,0.16920744962234086,14.657536777430476,-0.8753022257263577,0,Fixed-Wing
1970-01-01 00:01:13.209014049,1652,1531943884142235260,base_link,0,1,40.5914077,-79.9008025,362.990910242,0.348099969053,0.0,0.0,0.0,0.348099969053,0.0,0.0,0.0,1.39239987621,1,43.72555348858873,151.76425726235723,362.9889506650172,-0.0424146600033279,14.907391251368162,-0.35037224365087827,0,Fixed-Wing
1970-01-01 00:01:13.597573989,1654,1531943884528963924,base_link,0,1,40.591462,-79.9008051,363.090885031,0.348099969053,0.0,0.0,0.0,0.348099969053,0.0,0.0,0.0,1.39239987621,1,43.505409705323274,157.79440130694687,363.0887802684781,-0.5503085546223381,15.073965769640392,0.24955092519160893,0,Fixed-Wing
1970-01-01 00:01:14.014354989,1656,1531943884947284075,base_link,0,1,40.5915162,-79.9008094,363.300858147,0.348099969053,0.0,0.0,0.0,0.348099969053,0.0,0.0,0.0,1.39239987621,1,43.14134970636976,163.81344236520252,363.298603739692,-0.9100658162957794,15.046210871133551,0.5245101608448586,0,Fixed-Wing
1970-01-01 00:01:14.415522730,1658,1531943885348655525,base_link,0,1,40.5915703,-79.900814,363.580831014,0.348099969053,0.0,0.0,0.0,0.348099969053,0.0,0.0,0.0,1.39239987621,1,42.75189363886596,169.8213803798506,363.57842171258494,-0.97355011537383,15.018455829456002,0.6994802303110529,0,Fixed-Wing
1970-01-01 00:01:14.819006894,1660,1531943885751655183,base_link,0,1,40.5916243,-79.9008173,363.790805261,0.348099969053,0.0,0.0,0.0,0.348099969053,0.0,0.0,0.0,1.39239987621,1,42.47249205931604,175.81821245544347,363.78823494365986,-0.6984393432355487,14.9906935498288,0.5244845628652297,0,Fixed-Wing
1970-01-01 00:01:15.211765484,1662,1531943886144940359,base_link,0,1,40.5916784,-79.900819,363.83078111,0.348099969053,0.0,0.0,0.0,0.348099969053,0.0,0.0,0.0,1.39239987621,1,42.32854105578265,181.82614614083263,363.8280429004768,-0.35984422324282056,15.01844500730973,0.09951068730381893,0,Fixed-Wing
1970-01-01 00:01:15.593223692,1664,1531943886526515110,base_link,0,1,40.5917328,-79.9008185,363.650759088,0.348099969053,0.0,0.0,0.0,0.348099969053,0.0,0.0,0.0,1.39239987621,1,42.37083406563471,187.86739023534034,363.647845093422,0.10572274527621077,15.10171332778644,-0.45045285074833147,0,Fixed-Wing
1970-01-01 00:01:16.007345600,1666,1531943886940406780,base_link,0,1,40.5917876,-79.9008151,363.520739866,0.348099969053,0.0,0.0,0.0,0.348099969053,0.0,0.0,0.0,1.39239987621,1,42.658632209555144,193.95305791638356,363.51764136193384,0.7194288126359146,15.212762022121002,-0.3254792218923897,0,Fixed-Wing
1970-01-01 00:01:16.402004529,1668,1531943887333424768,base_link,0,1,40.5918432,-79.9008093,363.610722769,0.348099969053,0.0,0.0,0.0,0.348099969053,0.0,0.0,0.0,1.39239987621,1,43.14960733130808,200.12757540505135,363.60742975913394,1.2273242768867356,15.43486599656479,0.22445023135383843,0,Fixed-Wing
1970-01-01 00:01:16.809956272,1670,1531943887743025964,base_link,0,1,40.5918989,-79.9008029,363.700706257,0.348099969053,0.0,0.0,0.0,0.348099969053,0.0,0.0,0.0,1.39239987621,1,43.69137567011646,206.31319869695488,363.69721200284397,1.3542955746802785,15.462627936674707,0.22443484905154543,0,Fixed-Wing
1970-01-01 00:01:17.206897675,1672,1531943888139299599,base_link,0,1,40.5919547,-79.9007979,363.630688294,0.348099969053,0.0,0.0,0.0,0.348099969053,0.0,0.0,0.0,1.39239987621,1,44.114622526925224,212.50992145460742,363.62698718509944,1.0580192752389574,15.49037403453315,-0.17554580637423856,0,Fixed-Wing
1970-01-01 00:01:17.609862343,1674,1531943888543077154,base_link,0,1,40.5920108,-79.9007954,363.440667679,0.348099969053,0.0,0.0,0.0,0.348099969053,0.0,0.0,0.0,1.39239987621,1,44.32622599071826,218.73995448399995,363.436753981291,0.5289597307074911,15.573642011595252,-0.4755390221614957,0,Fixed-Wing
1970-01-01 00:01:18.019410010,1676,1531943888949679861,base_link,0,1,40.5920676,-79.9007949,363.250644756,0.348099969053,0.0,0.0,0.0,0.348099969053,0.0,0.0,0.0,1.39239987621,1,44.368515458079955,225.04772285996214,363.2465107918074,0.10571388986943216,15.767962403383146,-0.47556398404053646,0,Fixed-Wing
1970-01-01 00:01:18.396104511,1678,1531943889329326841,base_link,0,1,40.5921247,-79.9007968,363.120619285,0.348099969053,0.0,0.0,0.0,0.348099969053,0.0,0.0,0.0,1.39239987621,1,44.20762944503252,231.38880760448728,363.11625899792915,-0.4021778311692127,15.85124562109292,-0.32559936675418616,0,Fixed-Wing
