time,field.header.seq,field.header.stamp,field.header.frame_id,field.status.status,field.status.service,lat,lon,alt,field.position_covariance0,field.position_covariance1,field.position_covariance2,field.position_covariance3,field.position_covariance4,field.position_covariance5,field.position_covariance6,field.position_covariance7,field.position_covariance8,field.position_covariance_type,x,y,z,vel_x,vel_y,vel_z,track_id,uav_category
1970-01-01 00:00:00.000000000,7283,1531946683981826437,base_link,0,1,40.5909398,-79.896087,347.855926937,0.324899991846,0.0,0.0,0.0,0.324899991846,0.0,0.0,0.0,1.29959996738,1,436.72420184369906,80.09244251374648,347.84049316323876,21.782484836238805,-0.9419119352665701,0.4983857067602367,0,Fixed-Wing
1970-01-01 00:00:00.406141633,7285,1531946684388542007,base_link,0,1,40.5909364,-79.895984,348.056034115,0.324899991846,0.0,0.0,0.0,0.324899991846,0.0,0.0,0.0,1.29959996738,1,445.4439919134635,79.71538386311605,348.04000294228337,21.782484836238805,-0.9419119352665701,0.4983857067602367,0,Fixed-Wing
1970-01-01 00:00:00.844139405,7287,1531946684826187868,base_link,0,1,40.5909398,-79.8958837,348.386135658,0.324899991846,0.0,0.0,0.0,0.324899991846,0.0,0.0,0.0,1.29959996738,1,453.93517056768326,80.09347729901401,348.3695019502618,21.211401742190507,0.944496882176818,0.8231054976578944,0,Fixed-Wing
1970-01-01 00:00:01.246867322,7289,1531946685229119786,base_link,0,1,40.5909542,-79.8957879,349.046227934,0.324899991846,0.0,0.0,0.0,0.324899991846,0.0,0.0,0.0,1.29959996738,1,462.0453372556285,81.69313411527258,349.02899238786443,20.259614220770928,3.9960251410364243,1.6474410899564391,0,Fixed-Wing
1970-01-01 00:00:01.641299175,7291,1531946685621631400,base_link,0,1,40.590979,-79.8956997,349.946308009,0.324899991846,0.0,0.0,0.0,0.324899991846,0.0,0.0,0.0,1.29959996738,1,469.5120478407564,84.44770470877486,349.9284920320729,18.65222772519406,6.8810592575348215,2.2469964532875535,0,Fixed-Wing
1970-01-01 00:00:02.062796574,7293,1531946686042522559,base_link,0,1,40.591016,-79.8956252,351.086368854,0.324899991846,0.0,0.0,0.0,0.324899991846,0.0,0.0,0.0,1.29959996738,1,475.8188750944458,88.55704883347721,351.06803032015137,15.754779406286575,10.265353336153666,2.8466253524213205,0,Fixed-Wing
1970-01-01 00:00:02.407325325,7295,1531946686389818799,base_link,0,1,40.5910644,-79.8955684,352.336406699,0.324899991846,0.0,0.0,0.0,0.324899991846,0.0,0.0,0.0,1.29959996738,1,480.6271827171401,93.93229927285398,352.3176310982051,12.011400164607393,13.427652529468942,3.121567122778529,0,Fixed-Wing
1970-01-01 00:00:02.823912426,7297,1531946686806365945,base_link,0,1,40.5911202,-79.8955306,353.536421905,0.324899991846,0.0,0.0,0.0,0.324899991846,0.0,0.0,0.0,1.29959996738,1,483.82693263804526,100.129235780177,353.51731024194476,7.99314015294361,15.480266660312497,2.9968603083087,0,Fixed-Wing
1970-01-01 00:00:03.228737979,7299,1531946687208258970,base_link,0,1,40.5911797,-79.8955138,354.556413987,0.324899991846,0.0,0.0,0.0,0.324899991846,0.0,0.0,0.0,1.29959996738,1,485.2488285285899,106.73695026923875,354.53708705115855,3.5519691903931108,16.50641122190129,2.5474550081281473,0,Fixed-Wing
1970-01-01 00:00:03.592624395,7301,1531946687575089727,base_link,0,1,40.5912396,-79.8955174,355.266384963,0.324899991846,0.0,0.0,0.0,0.324899991846,0.0,0.0,0.0,1.29959996738,1,484.9436823913527,113.38897003575198,355.24696613963306,-0.7622707718909649,16.61708808757478,1.7733145358483096,0,Fixed-Wing
1970-01-01 00:00:04.013722020,7303,1531946687996086185,base_link,0,1,40.5912953,-79.8955439,355.846334212,0.324899991846,0.0,0.0,0.0,0.324899991846,0.0,0.0,0.0,1.29959996738,1,482.6999013751492,119.57444378501842,355.82697210950903,-5.60508057765821,15.45163210012799,1.448884794550175,0,Fixed-Wing
1970-01-01 00:00:04.437019921,7305,1531946688418716473,base_link,0,1,40.5913419,-79.8955899,356.566267298,0.36000002861,0.0,0.0,0.0,0.36000002861,0.0,0.0,0.0,1.44000011444,1,478.80537984322245,124.74924056547079,356.54709896306264,-9.728715431780032,12.926908962140452,1.7989139809788584,0,Fixed-Wing
1970-01-01 00:00:04.807264426,7307,1531946688789843252,base_link,0,1,40.5913777,-79.8956476,357.586192946,0.36000002861,0.0,0.0,0.0,0.36000002861,0.0,0.0,0.0,1.44000011444,1,473.9204702264196,128.72461928821485,357.56730973139065,-12.2027558924111,9.930700860189223,2.548539060352958,0,Fixed-Wing
1970-01-01 00:00:05.217744117,7309,1531946689200198277,base_link,0,1,40.5914062,-79.8957072,358.916119738,0.348099969053,0.0,0.0,0.0,0.348099969053,0.0,0.0,0.0,1.39239987621,1,468.87478904417753,131.88931719484634,358.8975440829386,-12.604371545799399,7.9055784154146975,3.322993943593927,0,Fixed-Wing
1970-01-01 00:00:05.607989440,7311,1531946689590298858,base_link,0,1,40.5914308,-79.895763,360.296052088,0.324899991846,0.0,0.0,0.0,0.324899991846,0.0,0.0,0.0,1.29959996738,1,464.1508385425905,134.62093693922253,360.2777642427342,-11.800671730018117,6.823726853994358,3.4478610678559622,0,Fixed-Wing
1970-01-01 00:00:06.035645153,7313,1531946690017972212,base_link,0,1,40.5914543,-79.8958157,361.365988095,0.324899991846,0.0,0.0,0.0,0.324899991846,0.0,0.0,0.0,1.29959996738,1,459.6893124218344,137.23041280362014,361.3479671460798,-11.145122106647078,6.51860514897782,2.6734219892124216,0,Fixed-Wing
1970-01-01 00:00:06.419389567,7315,1531946690401585812,base_link,0,1,40.5914783,-79.8958649,362.015927493,0.324899991846,0.0,0.0,0.0,0.324899991846,0.0,0.0,0.0,1.29959996738,1,455.52405519145873,139.89542726201861,361.9981469092735,-10.405027154758505,6.6573434181300435,1.624182545598696,0,Fixed-Wing
1970-01-01 00:00:06.840305058,7317,1531946690822706872,base_link,0,1,40.5915026,-79.8959123,362.045868622,0.324899991846,0.0,0.0,0.0,0.324899991846,0.0,0.0,0.0,1.29959996738,1,451.51113736730343,142.59375564031515,362.02831305786435,-10.02447546952201,6.740563306362381,0.07535659333436245,0,Fixed-Wing
1970-01-01 00:00:07.192975688,7319,1531946691175276334,base_link,0,1,40.5915289,-79.8959571,361.525811586,0.324899991846,0.0,0.0,0.0,0.324899991846,0.0,0.0,0.0,1.29959996738,1,447.7182793690828,145.51419153541886,361.5084568787137,-9.474754686895857,7.295399326284768,-1.298627518412336,0,Fixed-Wing
1970-01-01 00:00:07.660512019,7321,1531946691643013081,base_link,0,1,40.5915578,-79.8959995,360.775755929,0.324899991846,0.0,0.0,0.0,0.324899991846,0.0,0.0,0.0,1.29959996738,1,444.1285690461472,148.72337165785433,360.7585776208779,-8.967281327903134,8.016697282208552,-1.8732370197141246,0,Fixed-Wing
1970-01-01 00:00:08.022309316,7323,1531946692004631156,base_link,0,1,40.5915889,-79.8960419,360.005699357,0.324899991846,0.0,0.0,0.0,0.324899991846,0.0,0.0,0.0,1.29959996738,1,440.5388468381333,152.17686736386298,359.98868797415514,-8.967311017441242,8.627010197067918,-1.923224002085202,0,Fixed-Wing
1970-01-01 00:00:08.438046030,7325,1531946692420553814,base_link,0,1,40.5916206,-79.8960841,359.345642749,0.324899991846,0.0,0.0,0.0,0.324899991846,0.0,0.0,0.0,1.29959996738,1,436.96606386040264,155.6969990393391,359.3287916114424,-8.92499594748756,8.79347028187041,-1.6484551117946582,0,Fixed-Wing
1970-01-01 00:00:08.838574983,7327,1531946692821006732,base_link,0,1,40.5916523,-79.8961271,358.895585332,0.324899991846,0.0,0.0,0.0,0.324899991846,0.0,0.0,0.0,1.29959996738,1,433.325573602936,159.2171330344707,358.8788950872236,-9.094132220534577,8.793476076489343,-1.1238646960840206,0,Fixed-Wing
1970-01-01 00:00:09.221279512,7329,1531946693203053509,base_link,0,1,40.5916834,-79.8961705,358.615527768,0.324899991846,0.0,0.0,0.0,0.324899991846,0.0,0.0,0.0,1.29959996738,1,429.65123977058454,162.67063935355776,358.59899837370546,-9.178675214211577,8.627036709084585,-0.6991964105951248,0,Fixed-Wing
1970-01-01 00:00:09.605304315,7331,1531946693587525564,base_link,0,1,40.5917136,-79.8962139,358.535470593,0.324899991846,0.0,0.0,0.0,0.324899991846,0.0,0.0,0.0,1.29959996738,1,425.9769287125066,166.0242053677172,358.51910066980093,-9.178618322902969,8.377380678469395,-0.19958858066838173,0,Fixed-Wing
1970-01-01 00:00:10.061997454,7333,1531946694044444057,base_link,0,1,40.5917427,-79.8962568,358.625414402,0.324899991846,0.0,0.0,0.0,0.324899991846,0.0,0.0,0.0,1.29959996738,1,422.344967678568,169.25562253633984,358.6092005193401,-9.072825780737476,8.072246569232602,0.22507406607639,0,Fixed-Wing
1970-01-01 00:00:10.419633992,7335,1531946694402163323,base_link,0,1,40.591771,-79.8962992,358.62535907,0.324899991846,0.0,0.0,0.0,0.324899991846,0.0,0.0,0.0,1.29959996738,1,418.75533722948956,172.3981996923148,358.6092971542487,-8.96708179889304,7.850319640617688,0.000241398980227731,0,Fixed-Wing
1970-01-01 00:00:10.852526814,7337,1531946694834605723,base_link,0,1,40.5917988,-79.8963411,358.445304469,0.324899991846,0.0,0.0,0.0,0.324899991846,0.0,0.0,0.0,1.29959996738,1,415.2080296282264,175.48524984323404,358.4293897318358,-8.861357144585044,7.711610321247561,-0.44941800998445164,0,Fixed-Wing
1970-01-01 00:00:11.249618457,7339,1531946695231920224,base_link,0,1,40.5918262,-79.8963823,358.115250763,0.324899991846,0.0,0.0,0.0,0.324899991846,0.0,0.0,0.0,1.29959996738,1,411.71997772399726,178.527879672744,358.0994771621213,-8.713333360551687,7.6006460698404315,-0.8241385961812503,0,Fixed-Wing
1970-01-01 00:00:11.663945862,7341,1531946695637647324,base_link,0,1,40.5918536,-79.8964232,357.735197373,0.324899991846,0.0,0.0,0.0,0.324899991846,0.0,0.0,0.0,1.29959996738,1,408.2573228664146,181.57051079828057,357.7195599255,-8.649890229577588,7.60064930738164,-0.9490528303455342,0,Fixed-Wing
1970-01-01 00:00:12.015535051,7343,1531946695994821275,base_link,0,1,40.5918813,-79.8964634,357.345144584,0.324899991846,0.0,0.0,0.0,0.324899991846,0.0,0.0,0.0,1.29959996738,1,404.8539285223495,184.64646178988244,357.32963523632424,-8.501854413719991,7.68388404944611,-0.9740519624087138,0,Fixed-Wing
1970-01-01 00:00:12.418496807,7345,1531946696400761565,base_link,0,1,40.591909,-79.8965031,357.035092317,0.324899991846,0.0,0.0,0.0,0.324899991846,0.0,0.0,0.0,1.29959996738,1,401.49287078076435,187.72241861385476,357.01970510696174,-8.396095399551276,7.683898619007972,-0.774221430690309,0,Fixed-Wing
1970-01-01 00:00:12.835215267,7347,1531946696816374700,base_link,0,1,40.5919364,-79.8965426,356.67504039,0.324899991846,0.0,0.0,0.0,0.324899991846,0.0,0.0,0.0,1.29959996738,1,398.148746133574,190.76506039467387,356.6597720073836,-8.35379565736318,7.600675924826412,-0.8991314264327397,0,Fixed-Wing
1970-01-01 00:00:13.217575536,7349,1531946697199958141,base_link,0,1,40.5919637,-79.8965822,356.13498841,0.324899991846,0.0,0.0,0.0,0.324899991846,0.0,0.0,0.0,1.29959996738,1,394.79614839517495,193.79659219152188,356.1198365095616,-8.374961875734494,7.5729226124823,-1.3487866909360706,0,Fixed-Wing
1970-01-01 00:00:13.628155083,7351,1531946697604631814,base_link,0,1,40.5919911,-79.8966221,355.51493609,0.324899991846,0.0,0.0,0.0,0.324899991846,0.0,0.0,0.0,1.29959996738,1,391.41815148943283,196.8392264109258,355.4998986802623,-8.438410304317939,7.600657036021673,-1.5486366366716895,0,Fixed-Wing
1970-01-01 00:00:14.041480668,7353,1531946698023967963,base_link,0,1,40.5920187,-79.8966621,355.014883594,0.324899991846,0.0,0.0,0.0,0.324899991846,0.0,0.0,0.0,1.29959996738,1,388.0316984782434,199.90407535676565,354.9999572487404,-8.459534091382263,7.6561505671572565,-1.2488794528315519,0,Fixed-Wing
1970-01-01 00:00:14.438824591,7355,1531946698421156836,base_link,0,1,40.5920467,-79.8967018,354.754831247,0.324899991846,0.0,0.0,0.0,0.324899991846,0.0,0.0,0.0,1.29959996738,1,384.67065788944655,203.01335522850582,354.74000974774805,-8.396052551002388,7.767141309129306,-0.6493622499258711,0,Fixed-Wing
1970-01-01 00:00:14.823738488,7357,1531946698805981987,base_link,0,1,40.5920741,-79.8967412,354.714779466,0.324899991846,0.0,0.0,0.0,0.324899991846,0.0,0.0,0.0,1.29959996738,1,381.3350338593656,206.05601346988857,354.7000601674897,-8.33256067787367,7.600717044162436,-0.09979610968029284,0,Fixed-Wing
1970-01-01 00:00:15.243439162,7359,1531946699225894634,base_link,0,1,40.5921004,-79.8967802,354.914728563,0.324899991846,0.0,0.0,0.0,0.324899991846,0.0,0.0,0.0,1.29959996738,1,378.03329556366276,208.97652533436386,354.9001102758008,-8.247912367610311,7.2955891016889005,0.4997354771055448,0,Fixed-Wing
1970-01-01 00:00:15.665131502,7361,1531946699647453118,base_link,0,1,40.5921255,-79.8968189,355.194678475,0.324899991846,0.0,0.0,0.0,0.324899991846,0.0,0.0,0.0,1.29959996738,1,374.75696795980923,211.7637801217156,355.1801610967005,-8.184435150216657,6.962706057654384,0.699581378773814,0,Fixed-Wing
1970-01-01 00:00:16.016831944,7363,1531946699999179300,base_link,0,1,40.5921498,-79.8968577,355.344628626,0.324899991846,0.0,0.0,0.0,0.324899991846,0.0,0.0,0.0,1.29959996738,1,371.4721737480525,214.46219001181828,355.3302127424538,-8.20558517295689,6.740766927053601,0.374836741724725,0,Fixed-Wing
1970-01-01 00:00:16.423654988,7365,1531946700404765021,base_link,0,1,40.5921739,-79.8968966,355.254578766,0.324899991846,0.0,0.0,0.0,0.324899991846,0.0,0.0,0.0,1.29959996738,1,368.1789033888305,217.13838243270624,355.24026279196454,-8.226759026014689,6.685266544315328,-0.22469961052692905,0,Fixed-Wing
1970-01-01 00:00:16.851800341,7367,1531946700833901949,base_link,0,1,40.5921986,-79.8969357,355.074528459,0.324899991846,0.0,0.0,0.0,0.324899991846,0.0,0.0,0.0,1.29959996738,1,364.868695822663,219.8812036449545,355.06030823427454,-8.269069041566308,6.851708697836336,-0.44953575633504844,0,Fixed-Wing
1970-01-01 00:00:17.223677909,7369,1531946701205993186,base_link,0,1,40.592224,-79.8969752,354.884477459,0.324899991846,0.0,0.0,0.0,0.324899991846,0.0,0.0,0.0,1.29959996738,1,361.52462403317196,222.70176075053826,354.8703492813373,-8.353663616107106,7.045896964327223,-0.4745272510871967,0,Fixed-Wing
1970-01-01 00:00:17.644426216,7371,1531946701626774597,base_link,0,1,40.5922497,-79.8970153,354.714425728,0.324899991846,0.0,0.0,0.0,0.324899991846,0.0,0.0,0.0,1.29959996738,1,358.129760746969,225.55563313677249,354.70038826379766,-8.48054339166191,7.129120251789178,-0.4245713781741813,0,Fixed-Wing
1970-01-01 00:00:18.057926221,7373,1531946702040437015,base_link,0,1,40.5922761,-79.897056,354.544373101,0.324899991846,0.0,0.0,0.0,0.324899991846,0.0,0.0,0.0,1.29959996738,1,354.6841028206454,228.48724106793895,354.53042329762167,-8.607431019613642,7.323307647950768,-0.4245812420711753,0,Fixed-Wing
1970-01-01 00:00:18.420068033,7375,1531946702402224387,base_link,0,1,40.5923027,-79.8970971,354.48431999,0.324899991846,0.0,0.0,0.0,0.324899991846,0.0,0.0,0.0,1.29959996738,1,351.20459032126865,231.4410632978467,354.47045569011436,-8.692001487281837,7.378800110683061,-0.1498021730732615,0,Fixed-Wing
1970-01-01 00:00:18.826754436,7377,1531946702809252776,base_link,0,1,40.5923294,-79.8971385,354.67426654,0.324899991846,0.0,0.0,0.0,0.324899991846,0.0,0.0,0.0,1.29959996738,1,347.6996968937489,234.4060003583829,354.6604854504688,-8.755404353403677,7.40656553022689,0.4747041316633889,0,Fixed-Wing
1970-01-01 00:00:19.226829639,7379,1531946703209190570,base_link,0,1,40.5923562,-79.8971796,354.944213364,0.324899991846,0.0,0.0,0.0,0.324899991846,0.0,0.0,0.0,1.29959996738,1,344.2202066758401,237.38204863767237,354.9305103968407,-8.691945827027036,7.434321927120526,0.6745362276721774,0,Fixed-Wing
1970-01-01 00:00:19.653566068,7381,1531946703635633931,base_link,0,1,40.5923833,-79.8972206,355.194160176,0.324899991846,0.0,0.0,0.0,0.324899991846,0.0,0.0,0.0,1.29959996738,1,340.7491819607848,240.3914141089597,355.1805303332455,-8.670798564757614,7.51754998922675,0.6245626821199041,0,Fixed-Wing
1970-01-01 00:00:20.029761588,7383,1531946704011891433,base_link,0,1,40.5924107,-79.897261,355.464107485,0.324899991846,0.0,0.0,0.0,0.324899991846,0.0,0.0,0.0,1.29959996738,1,337.32895295354683,243.43410018367402,355.4505434992441,-8.543908269644659,7.6007865732586355,0.6745067996927181,0,Fixed-Wing
1970-01-01 00:00:20.444567364,7385,1531946704426729320,base_link,0,1,40.5924394,-79.8973,355.564055696,0.324899991846,0.0,0.0,0.0,0.324899991846,0.0,0.0,0.0,1.29959996738,1,334.0272295130527,246.62115474134302,355.5505424911309,-8.247875258533666,7.961426481516918,0.24980263366279534,0,Fixed-Wing
1970-01-01 00:00:20.825343105,7387,1531946704807814809,base_link,0,1,40.59247,-79.897337,355.604005175,0.324899991846,0.0,0.0,0.0,0.324899991846,0.0,0.0,0.0,1.29959996738,1,330.89480827431385,250.0192153004168,355.59052239143546,-7.8249496361309605,8.488530344016091,0.09987185071783676,0,Fixed-Wing
1970-01-01 00:00:21.292613967,7389,1531946705273853598,base_link,0,1,40.5925023,-79.897372,355.623956004,0.324899991846,0.0,0.0,0.0,0.324899991846,0.0,0.0,0.0,1.29959996738,1,327.93169239158084,253.6060727070756,355.6104840807565,-7.402016134247804,8.960154596062127,0.049865328346551115,0,Fixed-Wing
1970-01-01 00:00:21.625258167,7391,1531946705607767488,base_link,0,1,40.5925371,-79.8974036,355.563909284,0.324899991846,0.0,0.0,0.0,0.324899991846,0.0,0.0,0.0,1.29959996738,1,325.25639319401466,257.4705712661536,355.55041894512885,-6.683035226438817,9.653716498825954,-0.15004580334256062,0,Fixed-Wing
1970-01-01 00:00:22.020171656,7393,1531946706002605198,base_link,0,1,40.592576,-79.8974299,355.263866296,0.324899991846,0.0,0.0,0.0,0.324899991846,0.0,0.0,0.0,1.29959996738,1,323.0297409288202,261.79039449730305,355.2503126831919,-5.562292075167483,10.791140987903006,-0.7496809037374507,0,Fixed-Wing
1970-01-01 00:00:22.427569021,7395,1531946706409951594,base_link,0,1,40.59262,-79.8974469,354.813830718,0.324899991846,0.0,0.0,0.0,0.324899991846,0.0,0.0,0.0,1.29959996738,1,321.5903582545207,266.6766120590652,354.80014682078047,-3.595652077128612,12.20602320630439,-1.124537516765519,0,Fixed-Wing
1970-01-01 00:00:22.849249291,7397,1531946706831772539,base_link,0,1,40.5926685,-79.8974506,354.343806886,0.324899991846,0.0,0.0,0.0,0.324899991846,0.0,0.0,0.0,1.29959996738,1,321.27687611442167,272.0626118534789,354.3299107462617,-0.7830945365091239,13.45450497215609,-1.1746739406232292,0,Fixed-Wing
1970-01-01 00:00:23.224880895,7399,1531946707207347381,base_link,0,1,40.592719,-79.8974378,353.953799106,0.324899991846,0.0,0.0,0.0,0.324899991846,0.0,0.0,0.0,1.29959996738,1,322.3602069678251,277.6707791124627,353.9396061188209,2.706216284806412,14.009490744678574,-0.9750010677691361,0,Fixed-Wing
1970-01-01 00:00:23.632337392,7401,1531946707614850331,base_link,0,1,40.5927677,-79.8974067,353.693810786,0.324899991846,0.0,0.0,0.0,0.324899991846,0.0,0.0,0.0,1.29959996738,1,324.9927483160059,283.0791250632715,353.6792460840334,6.576223915797628,13.510326822100712,-0.6503927805998364,0,Fixed-Wing
1970-01-01 00:00:24.040051067,7403,1531946708022547134,base_link,0,1,40.5928109,-79.8973591,353.57384161,0.324899991846,0.0,0.0,0.0,0.324899991846,0.0,0.0,0.0,1.29959996738,1,329.02213569940045,287.8767522238277,353.55885537185134,10.065617277010377,11.984719819930962,-0.30074220153801584,0,Fixed-Wing
1970-01-01 00:00:24.436729682,7405,1531946708418473552,base_link,0,1,40.592846,-79.8972981,353.703889482,0.324899991846,0.0,0.0,0.0,0.324899991846,0.0,0.0,0.0,1.29959996738,1,334.1859543364334,291.7749207042122,353.68845760728317,12.899484994286787,9.73782569691772,0.32375306119185154,0,Fixed-Wing
1970-01-01 00:00:24.845708181,7407,1531946708827828742,base_link,0,1,40.592873,-79.897229,353.903948984,0.324899991846,0.0,0.0,0.0,0.324899991846,0.0,0.0,0.0,1.29959996738,1,340.03552154675725,294.7736044329505,353.88807017649924,14.612520260006868,7.49086644601782,0.498642481904294,0,Fixed-Wing
1970-01-01 00:00:25.238995139,7409,1531946709221521204,base_link,0,1,40.5928915,-79.8971549,354.28401711,0.324899991846,0.0,0.0,0.0,0.324899991846,0.0,0.0,0.0,1.29959996738,1,346.30841509073497,296.8283770713699,354.26770576737704,15.67001125116838,5.132927912276979,0.9483492647679731,0,Fixed-Wing
1970-01-01 00:00:25.655799623,7411,1531946709638173136,base_link,0,1,40.5929027,-79.8970794,355.044089688,0.324899991846,0.0,0.0,0.0,0.324899991846,0.0,0.0,0.0,1.29959996738,1,352.69988283329616,298.07249731399014,355.0273704682651,15.966215708150617,3.1078764629094975,1.8976815606028252,0,Fixed-Wing
1970-01-01 00:00:26.033620939,7413,1531946710015194104,base_link,0,1,40.5929099,-79.8970057,356.144162083,0.324899991846,0.0,0.0,0.0,0.324899991846,0.0,0.0,0.0,1.29959996738,1,358.9390107072877,298.8724229381077,356.12705779217646,15.585662867941878,1.998255421065512,2.7470755908176185,0,Fixed-Wing
1970-01-01 00:00:26.456751657,7415,1531946710438562311,base_link,0,1,40.5929144,-79.896934,357.304233555,0.324899991846,0.0,0.0,0.0,0.324899991846,0.0,0.0,0.0,1.29959996738,1,365.0088466353613,299.3725074309474,357.28676178827,15.162762865149151,1.2492368273738381,2.897000329976434,0,Fixed-Wing
1970-01-01 00:00:26.875107501,7417,1531946710857646597,base_link,0,1,40.5929187,-79.8968652,358.374302151,0.324899991846,0.0,0.0,0.0,0.324899991846,0.0,0.0,0.0,1.29959996738,1,370.8331790413481,299.85037012858044,358.35647240542545,14.549482418680451,1.193725638084901,2.6721922329469643,0,Fixed-Wing
1970-01-01 00:00:27.221937824,7419,1531946711204170727,base_link,0,1,40.5929237,-79.8967988,359.274368011,0.324899991846,0.0,0.0,0.0,0.324899991846,0.0,0.0,0.0,1.29959996738,1,376.4543256161633,300.4059558753501,359.25618324855935,14.041913744317466,1.387881819105297,2.2475240390842717,0,Fixed-Wing
1970-01-01 00:00:27.658453325,7421,1531946711640837627,base_link,0,1,40.5929298,-79.8967333,359.704432502,0.324899991846,0.0,0.0,0.0,0.324899991846,0.0,0.0,0.0,1.29959996738,1,381.99924865876903,301.0836774386148,359.6858865087834,13.8515034338359,1.6929833811244657,1.0734208822720113,0,Fixed-Wing
1970-01-01 00:00:28.031481390,7423,1531946712013768622,base_link,0,1,40.5929364,-79.8966671,359.69449751,0.324899991846,0.0,0.0,0.0,0.324899991846,0.0,0.0,0.0,1.29959996738,1,387.6034006646592,301.81691159597136,359.6755791698715,13.999460435585672,1.8316567011644633,-0.025748263634116357,0,Fixed-Wing
1970-01-01 00:00:28.466581788,7425,1531946712448715667,base_link,0,1,40.5929429,-79.896599,359.45456451,0.324899991846,0.0,0.0,0.0,0.324899991846,0.0,0.0,0.0,1.29959996738,1,393.36838329544133,302.53904228138424,359.435259448894,14.401223622529749,1.8039196562003597,-0.6003310442293474,0,Fixed-Wing
1970-01-01 00:00:28.858001331,7427,1531946712839437536,base_link,0,1,40.5929487,-79.8965291,359.014633648,0.324899991846,0.0,0.0,0.0,0.324899991846,0.0,0.0,0.0,1.29959996738,1,399.2857357888145,303.18343938226207,358.9949307603001,14.781851389349274,1.6097371572119368,-1.0999637497598511,0,Fixed-Wing
1970-01-01 00:00:29.235684790,7429,1531946713217231158,base_link,0,1,40.5929534,-79.8964571,358.504705398,0.348099969053,0.0,0.0,0.0,0.348099969053,0.0,0.0,0.0,1.39239987621,1,405.38086498875185,303.70568987634397,358.48459368878065,15.225946761369462,1.3046086404651926,-1.274848297126923,0,Fixed-Wing
1970-01-01 00:00:29.649107477,7431,1531946713631594356,base_link,0,1,40.5929524,-79.8963814,357.884783297,0.324899991846,0.0,0.0,0.0,0.324899991846,0.0,0.0,0.0,1.29959996738,1,411.7892451862223,303.59495922914056,357.86426695212367,16.008463891840417,-0.2766108615365292,-1.5496081472875596,0,Fixed-Wing
1970-01-01 00:00:30.029201808,7433,1531946714011679082,base_link,0,1,40.5929418,-79.8963036,357.314867324,0.324899991846,0.0,0.0,0.0,0.324899991846,0.0,0.0,0.0,1.29959996738,1,418.37546375751475,302.4181445408118,357.29397902571316,16.45271331184795,-2.939743720719742,-1.424608621301672,0,Fixed-Wing
1970-01-01 00:00:30.447365209,7435,1531946714429835664,base_link,0,1,40.5929208,-79.8962262,356.904955252,0.324899991846,0.0,0.0,0.0,0.324899991846,0.0,0.0,0.0,1.29959996738,1,424.9278975486399,300.08639785287124,356.8837448155611,16.368317190404404,-5.824823357632425,-1.02478619215026,0,Fixed-Wing
1970-01-01 00:00:30.840332367,7437,1531946714822794209,base_link,0,1,40.5928881,-79.8961538,356.425042916,0.324899991846,0.0,0.0,0.0,0.324899991846,0.0,0.0,0.0,1.29959996738,1,431.0571277886567,296.4553179357765,356.4035920089898,15.311132916367223,-9.070624705466544,-1.1994464481986835,0,Fixed-Wing
1970-01-01 00:00:31.260378261,7439,1531946715242306378,base_link,0,1,40.5928406,-79.8960934,356.575124434,0.324899991846,0.0,0.0,0.0,0.324899991846,0.0,0.0,0.0,1.29959996738,1,436.1706363499308,291.1806395223926,356.5535699714579,12.773807833075457,-13.176418427086682,0.37465267708208966,0,Fixed-Wing
1970-01-01 00:00:31.658385954,7441,1531946715640638162,base_link,0,1,40.5927843,-79.8960463,357.005195997,0.324899991846,0.0,0.0,0.0,0.324899991846,0.0,0.0,0.0,1.29959996738,1,440.1583101491048,284.92865040200167,356.98365103015146,9.961414594551226,-15.617790924056564,1.0743646423129662,0,Fixed-Wing
1970-01-01 00:00:32.053336357,7443,1531946716035376400,base_link,0,1,40.5927237,-79.8960129,357.315255333,0.324899991846,0.0,0.0,0.0,0.324899991846,0.0,0.0,0.0,1.29959996738,1,442.98622850225763,278.1990635614073,357.2938126671397,7.064285740004858,-16.81085463487075,0.7747997486666773,0,Fixed-Wing
1970-01-01 00:00:32.445683605,7445,1531946716428152716,base_link,0,1,40.5926606,-79.8959944,357.585300463,0.324899991846,0.0,0.0,0.0,0.324899991846,0.0,0.0,0.0,1.29959996738,1,444.55279521750026,271.19176946458464,357.56405148100794,3.9133643639027293,-17.504581668355303,0.6750704796963821,0,Fixed-Wing
1970-01-01 00:00:32.800562675,7447,1531946716782971053,base_link,0,1,40.592597,-79.8959889,358.255332503,0.324899991846,0.0,0.0,0.0,0.324899991846,0.0,0.0,0.0,1.29959996738,1,445.01887022633855,264.12889986094274,358.23434817778366,1.1642793841760635,-17.6434121476296,1.6744356821072615,0,Fixed-Wing
1970-01-01 00:00:33.275151921,7449,1531946717257459835,base_link,0,1,40.5925353,-79.895993,359.155353935,0.324899991846,0.0,0.0,0.0,0.324899991846,0.0,0.0,0.0,1.29959996738,1,444.67225263097646,257.27698903621695,359.134674494177,-0.8658686108887329,-17.116426249339995,2.2490615229953597,0,Fixed-Wing
1970-01-01 00:00:33.622226872,7451,1531946717604401987,base_link,0,1,40.5924751,-79.8960005,359.915371278,0.324899991846,0.0,0.0,0.0,0.324899991846,0.0,0.0,0.0,1.29959996738,1,444.0377841447452,250.59163218125644,359.8950027823852,-1.5849349663043875,-16.70036585203667,1.899339235916485,0,Fixed-Wing
1970-01-01 00:00:34.049338839,7453,1531946718022042676,base_link,0,1,40.5924165,-79.8960083,360.675387665,0.324899991846,0.0,0.0,0.0,0.324899991846,0.0,0.0,0.0,1.29959996738,1,443.37790696721953,244.08395607533532,360.6553179780582,-1.648407186208973,-16.256510186857053,1.8993065300890346,0,Fixed-Wing
1970-01-01 00:00:34.443475096,7455,1531946718425531467,base_link,0,1,40.5923583,-79.896014,361.305406053,0.324899991846,0.0,0.0,0.0,0.324899991846,0.0,0.0,0.0,1.29959996738,1,442.8957948322724,237.62070518200193,361.2856144680612,-1.2043409514257835,-16.1455337170342,1.5745131047858856,0,Fixed-Wing
1970-01-01 00:00:34.854427812,7457,1531946718833309044,base_link,0,1,40.5922999,-79.8960163,361.685428027,0.324899991846,0.0,0.0,0.0,0.324899991846,0.0,0.0,0.0,1.29959996738,1,442.7014970834575,231.1352506400874,361.6658888071276,-0.48536578672347364,-16.20099957511771,0.9499448906512294,0,Fixed-Wing
1970-01-01 00:00:35.241665595,7459,1531946719223630210,base_link,0,1,40.5922408,-79.8960152,361.775453794,0.324899991846,0.0,0.0,0.0,0.324899991846,0.0,0.0,0.0,1.29959996738,1,442.7950150709608,224.5720656030271,361.75614312053773,0.23361275081255592,-16.395174356652543,0.22545992478398824,0,Fixed-Wing
1970-01-01 00:00:35.641008579,7461,1531946719619106719,base_link,0,1,40.5921808,-79.8960103,361.745483851,0.324899991846,0.0,0.0,0.0,0.324899991846,0.0,0.0,0.0,1.29959996738,1,443.2102252402129,217.9089483429392,361.7263760640161,1.037216394342606,-16.64481019826514,-0.07435964078424033,0,Fixed-Wing
1970-01-01 00:00:36.047658421,7463,1531946720029713703,base_link,0,1,40.5921199,-79.8960024,361.345517378,0.324899991846,0.0,0.0,0.0,0.324899991846,0.0,0.0,0.0,1.29959996738,1,443.87938587355103,211.1458869665247,361.3265911448382,1.6715977371104325,-16.894475749951283,-0.9986833249513688,0,Fixed-Wing
1970-01-01 00:00:36.456382367,7465,1531946720438735934,base_link,0,1,40.5920579,-79.8959938,360.775552103,0.324899991846,0.0,0.0,0.0,0.324899991846,0.0,0.0,0.0,1.29959996738,1,444.60780268472473,204.26066708488264,360.75679996394865,1.8196227222109298,-17.199633989593263,-1.423367725398,0,Fixed-Wing
1970-01-01 00:00:36.871465875,7467,1531946720853833209,base_link,0,1,40.5919946,-79.8959866,360.245585956,0.324899991846,0.0,0.0,0.0,0.324899991846,0.0,0.0,0.0,1.29959996738,1,445.2177128329387,197.23107473068654,360.2270131141514,1.5235869726961513,-17.560283864076265,-1.3234348453137381,0,Fixed-Wing
1970-01-01 00:00:37.224424706,7469,1531946721206346997,base_link,0,1,40.5919304,-79.8959807,359.645618874,0.324899991846,0.0,0.0,0.0,0.324899991846,0.0,0.0,0.0,1.29959996738,1,445.71757139965473,190.10152792654588,359.62722817454164,1.2486724522773658,-17.809975229672503,-1.4982936799540765,0,Fixed-Wing
1970-01-01 00:00:37.681602874,7471,1531946721663446696,base_link,0,1,40.5918656,-79.895977,359.005649809,0.324899991846,0.0,0.0,0.0,0.324899991846,0.0,0.0,0.0,1.29959996738,1,446.0311871010954,182.90533890726834,358.9874481461196,0.783428179621529,-17.976450916478996,-1.5982034723466292,0,Fixed-Wing
1970-01-01 00:00:38.033247226,7473,1531946722013961615,base_link,0,1,40.5918002,-79.8959758,358.615678453,0.324899991846,0.0,0.0,0.0,0.324899991846,0.0,0.0,0.0,1.29959996738,1,446.13318265545905,175.64251429432227,358.59767429710394,0.25479014959248875,-18.142910062516428,-0.9736751559175907,0,Fixed-Wing
1970-01-01 00:00:38.460098205,7475,1531946722442488878,base_link,0,1,40.5917348,-79.8959757,358.52570599,0.324899991846,0.0,0.0,0.0,0.324899991846,0.0,0.0,0.0,1.29959996738,1,446.1420767191584,168.3796930210498,358.50789755433266,0.022217829341509652,-18.14290171983969,-0.22426692872379017,0,Fixed-Wing
1970-01-01 00:00:38.865816757,7477,1531946722847518271,base_link,0,1,40.5916699,-79.8959758,358.485733133,0.324899991846,0.0,0.0,0.0,0.324899991846,0.0,0.0,0.0,1.29959996738,1,446.1340395615637,161.17239842827072,358.4681119041568,-0.020077233744393363,-18.004193211242928,-0.09938660388864794,0,Fixed-Wing
1970-01-01 00:00:39.257855987,7479,1531946723234243171,base_link,0,1,40.5916054,-79.8959767,358.405759309,0.324899991846,0.0,0.0,0.0,0.324899991846,0.0,0.0,0.0,1.29959996738,1,446.0582712536592,154.00951989656818,358.3883207776705,-0.18927313671467516,-17.89323960236652,-0.19932234478674263,0,Fixed-Wing
1970-01-01 00:00:39.633168112,7481,1531946723615145885,base_link,0,1,40.5915414,-79.8959776,358.295785295,0.36000002861,0.0,0.0,0.0,0.36000002861,0.0,0.0,0.0,1.44000011444,1,445.9824973855983,146.90216707101567,358.27852011469383,-0.18928702627170346,-17.754533527729645,-0.2742877130255437,0,Fixed-Wing
1970-01-01 00:00:40.073443989,7483,1531946724054284390,base_link,0,1,40.5914772,-79.8959769,358.315813027,0.36000002861,0.0,0.0,0.0,0.36000002861,0.0,0.0,0.0,1.44000011444,1,446.042185397936,139.77261507559052,358.29870428888603,0.14910372993487012,-17.809988197768604,0.050421107017015014,0,Fixed-Wing
1970-01-01 00:00:40.435067443,7485,1531946724417529542,base_link,0,1,40.591413,-79.8959744,358.325842627,0.36000002861,0.0,0.0,0.0,0.36000002861,0.0,0.0,0.0,1.44000011444,1,446.25425604148774,132.64307202708278,358.308871697164,0.5297633934324385,-17.809965847907986,0.025398709701417076,0,Fixed-Wing
1970-01-01 00:00:40.856659767,7487,1531946724839015159,base_link,0,1,40.5913488,-79.8959716,358.145872556,0.36000002861,0.0,0.0,0.0,0.36000002861,0.0,0.0,0.0,1.44000011444,1,446.49171103789155,125.51352681446868,358.1290296631198,0.5931748146541008,-17.809971253957173,-0.4492546664706866,0,Fixed-Wing
1970-01-01 00:00:41.260846904,7489,1531946725240503288,base_link,0,1,40.591284,-79.8959701,357.845901425,0.36000002861,0.0,0.0,0.0,0.36000002861,0.0,0.0,0.0,1.44000011444,1,446.61910732424667,118.31734190754484,357.82918750982145,0.3182424867481412,-17.976440643607567,-0.7490211467514265,0,Fixed-Wing
1970-01-01 00:00:41.643776308,7491,1531946725624976400,base_link,0,1,40.5912185,-79.8959716,357.555927532,0.324899991846,0.0,0.0,0.0,0.324899991846,0.0,0.0,0.0,1.29959996738,1,446.49253646451905,111.04340614353683,357.5393535644789,-0.3161805285068187,-18.170666290313594,-0.7240201276567689,0,Fixed-Wing
1970-01-01 00:00:42.050822786,7493,1531946726033079124,base_link,0,1,40.5911529,-79.895978,357.315948672,0.324899991846,0.0,0.0,0.0,0.324899991846,0.0,0.0,0.0,1.29959996738,1,445.9511470018717,103.75834189107962,357.2995354926975,-1.352418769977851,-18.198465827797328,-0.5990778986925909,0,Fixed-Wing
1970-01-01 00:00:42.475699388,7495,1531946726457451775,base_link,0,1,40.591088,-79.8959921,357.295961634,0.324899991846,0.0,0.0,0.0,0.324899991846,0.0,0.0,0.0,1.29959996738,1,444.7579026201476,96.55097930157399,357.27974509830926,-2.980785941275982,-18.004363070569045,-0.04943742477923178,0,Fixed-Wing
1970-01-01 00:00:42.850403673,7497,1531946726832565758,base_link,0,1,40.5910249,-79.8960134,357.125966462,0.324899991846,0.0,0.0,0.0,0.324899991846,0.0,0.0,0.0,1.29959996738,1,442.95509734407085,89.54347272075029,357.10997767396924,-4.503500459833214,-17.50511246433707,-0.42408777238759493,0,Fixed-Wing
1970-01-01 00:00:43.227215038,7499,1531946727209579106,base_link,0,1,40.5909652,-79.8960442,356.885960115,0.33639998064,0.0,0.0,0.0,0.33639998064,0.0,0.0,0.0,1.34559992256,1,440.34801164739895,82.91349618108507,356.8702414368938,-6.512634386858005,-16.562022971245483,-0.5988734713808715,0,Fixed-Wing
1970-01-01 00:00:43.681152341,7501,1531946727663537283,base_link,0,1,40.5909107,-79.8960854,356.805940905,0.324899991846,0.0,0.0,0.0,0.324899991846,0.0,0.0,0.0,1.29959996738,1,436.860455812695,76.8609430240329,356.7905376916849,-8.712094153320225,-15.119589612732467,-0.19910406185404658,0,Fixed-Wing
1970-01-01 00:00:44.049890659,7503,1531946728032058794,base_link,0,1,40.5908612,-79.896135,356.615910966,0.324899991846,0.0,0.0,0.0,0.324899991846,0.0,0.0,0.0,1.29959996738,1,432.6617273191785,71.36361033696082,356.6008575650118,-10.488640094517557,-13.732620273866605,-0.473830728714414,0,Fixed-Wing
1970-01-01 00:00:44.453212650,7505,1531946728435350435,base_link,0,1,40.5908185,-79.896192,356.275870558,0.36000002861,0.0,0.0,0.0,0.36000002861,0.0,0.0,0.0,1.44000011444,1,427.83646972828996,66.62139799122716,356.26119359350395,-12.053742058415823,-11.846290757543272,-0.8484981002513845,0,Fixed-Wing
1970-01-01 00:00:44.851203183,7507,1531946728833639286,base_link,0,1,40.5907853,-79.8962556,356.005819355,0.36000002861,0.0,0.0,0.0,0.36000002861,0.0,0.0,0.0,1.44000011444,1,422.45240779359966,62.93415439674493,355.99153828335335,-13.449664098728727,-9.210924465122769,-0.6736128573477611,0,Fixed-Wing
1970-01-01 00:00:45.236581781,7509,1531946729218966307,base_link,0,1,40.5907633,-79.896324,355.955758484,0.324899991846,0.0,0.0,0.0,0.324899991846,0.0,0.0,0.0,1.29959996738,1,416.66192673667473,60.49067919822795,355.94188144951795,-14.464920004708658,-6.103926933284484,-0.12404532923169811,0,Fixed-Wing
1970-01-01 00:00:45.664627567,7511,1531946729647119216,base_link,0,1,40.5907509,-79.896393,356.085692932,0.324899991846,0.0,0.0,0.0,0.324899991846,0.0,0.0,0.0,1.29959996738,1,410.8205999070402,59.1133087063526,356.07220720416484,-14.591935364501966,-3.440742450576934,0.32556044946664076,0,Fixed-Wing
1970-01-01 00:00:46.064371796,7513,1531946730046376782,base_link,0,1,40.5907464,-79.8964599,356.565626191,0.324899991846,0.0,0.0,0.0,0.324899991846,0.0,0.0,0.0,1.29959996738,1,405.1570273499057,58.61326818183721,356.5525068365064,-14.147896033929786,-1.2491269922345178,1.1998132265371544,0,Fixed-Wing
1970-01-01 00:00:46.485950578,7515,1531946730467966801,base_link,0,1,40.5907462,-79.8965229,357.045561636,0.324899991846,0.0,0.0,0.0,0.324899991846,0.0,0.0,0.0,1.29959996738,1,399.8235944461156,58.59077420514157,357.0327785580419,-13.323190171141858,-0.05619111267122259,1.1997435039057787,0,Fixed-Wing
1970-01-01 00:00:46.857812490,7517,1531946730839960200,base_link,0,1,40.5907485,-79.8965836,357.685498387,0.324899991846,0.0,0.0,0.0,0.324899991846,0.0,0.0,0.0,1.29959996738,1,394.6848696960555,58.84592644071506,357.6730325420053,-12.836799171796194,0.6373834298584362,1.5993874377069932,0,Fixed-Wing
1970-01-01 00:00:47.241042836,7519,1531946731223198229,base_link,0,1,40.5907508,-79.8966412,358.205438325,0.324899991846,0.0,0.0,0.0,0.324899991846,0.0,0.0,0.0,1.29959996738,1,389.80857729985576,59.10109487493304,358.19326956085047,-12.181229631386879,0.6374238949069183,1.299578875590024,0,Fixed-Wing
1970-01-01 00:00:47.640897358,7521,1531946731623359361,base_link,0,1,40.5907525,-79.8966982,358.615379138,0.324899991846,0.0,0.0,0.0,0.324899991846,0.0,0.0,0.0,1.29959996738,1,384.9830761622713,59.289636775685665,358.60350127930803,-12.054350450609693,0.4709873817238185,1.024779967769057,0,Fixed-Wing
1970-01-01 00:00:48.090640191,7523,1531946732072925470,base_link,0,1,40.5907523,-79.8967546,358.785321378,0.324899991846,0.0,0.0,0.0,0.324899991846,0.0,0.0,0.0,1.29959996738,1,380.20836603726343,59.267182863351735,358.77372972136754,-11.927471884449773,-0.056091029831555866,0.42523941840242263,0,Fixed-Wing
1970-01-01 00:00:48.456010735,7525,1531946732438274532,base_link,0,1,40.5907497,-79.8968111,358.905264536,0.324899991846,0.0,0.0,0.0,0.324899991846,0.0,0.0,0.0,1.29959996738,1,375.42520029233447,58.97820566937881,358.8939584817555,-11.94859445864467,-0.7218799185958097,0.3003376376124905,0,Fixed-Wing
1970-01-01 00:00:48.862316317,7527,1531946732844746273,base_link,0,1,40.590745,-79.896868,358.96520818,0.324899991846,0.0,0.0,0.0,0.324899991846,0.0,0.0,0.0,1.29959996738,1,370.6081788330064,58.45601952672948,358.9541882476069,-12.033167777453809,-1.3044478872712584,0.15045705812324311,0,Fixed-Wing
1970-01-01 00:00:49.252063548,7529,1531946733234511720,base_link,0,1,40.5907391,-79.8969256,358.955151618,0.324899991846,0.0,0.0,0.0,0.324899991846,0.0,0.0,0.0,1.29959996738,1,365.73189839623126,57.800570218298844,358.94441873691824,-12.181199756128017,-1.6373461410865349,-0.02440474102367748,0,Fixed-Wing
1970-01-01 00:00:49.664789841,7531,1531946733646490523,base_link,0,1,40.590733,-79.8969843,358.875094019,0.324899991846,0.0,0.0,0.0,0.324899991846,0.0,0.0,0.0,1.29959996738,1,360.76249020964894,57.12290851112931,358.86464985646927,-12.41383767307079,-1.6928338575149735,-0.19926677303944593,0,Fixed-Wing
1970-01-01 00:00:50.049580832,7533,1531946734031871233,base_link,0,1,40.5907273,-79.8970442,358.585035025,0.324899991846,0.0,0.0,0.0,0.324899991846,0.0,0.0,0.0,1.29959996738,1,355.69147757249664,56.48966433050933,358.5748809078231,-12.667650825237084,-1.5818765878114631,-0.7238577625605924,0,Fixed-Wing
1970-01-01 00:00:50.466573949,7535,1531946734447842682,base_link,0,1,40.5907229,-79.8971059,358.144973642,0.324899991846,0.0,0.0,0.0,0.324899991846,0.0,0.0,0.0,1.29959996738,1,350.4680647299,56.000783108870024,358.1351125762842,-13.04835439006736,-1.2212504787248533,-1.098563948967092,0,Fixed-Wing
1970-01-01 00:00:50.837397545,7537,1531946734819927036,base_link,0,1,40.5907201,-79.8971698,357.804909332,0.324899991846,0.0,0.0,0.0,0.324899991846,0.0,0.0,0.0,1.29959996738,1,345.05840103442154,55.68958146372324,357.79534551957613,-13.513618616175526,-0.7773977426277028,-0.8487556123925076,0,Fixed-Wing
1970-01-01 00:00:51.269260022,7539,1531946735249667994,base_link,0,1,40.5907187,-79.8972348,357.684843308,0.324899991846,0.0,0.0,0.0,0.324899991846,0.0,0.0,0.0,1.29959996738,1,339.55561804595766,55.533854596853615,357.6755757508456,-13.746235407541812,-0.3890137364596318,-0.29919105280511404,0,Fixed-Wing
1970-01-01 00:00:51.637210958,7541,1531946735619642771,base_link,0,1,40.5907189,-79.8973006,357.644775795,0.324899991846,0.0,0.0,0.0,0.324899991846,0.0,0.0,0.0,1.29959996738,1,333.98510468970255,55.555813055764276,357.63580173864113,-13.915429355740287,0.05485336165456015,-0.09935753163651148,0,Fixed-Wing
1970-01-01 00:00:52.029149788,7543,1531946736011663720,base_link,0,1,40.5907205,-79.8973665,357.644707594,0.324899991846,0.0,0.0,0.0,0.324899991846,0.0,0.0,0.0,1.29959996738,1,328.4061208195973,55.73324880036026,357.63602125807984,-13.936589135737314,0.44324363145741874,0.000548370867476754,0,Fixed-Wing
1970-01-01 00:00:52.443519517,7545,1531946736425710896,base_link,0,1,40.5907229,-79.8974325,357.59463896,0.324899991846,0.0,0.0,0.0,0.324899991846,0.0,0.0,0.0,1.29959996738,1,322.8186650240146,55.999529710301545,357.58623511261743,-13.95775244205191,0.6651834317764315,-0.12436835633807077,0,Fixed-Wing
1970-01-01 00:00:52.839685825,7547,1531946736822165628,base_link,0,1,40.5907257,-79.8974987,357.73456996,0.324899991846,0.0,0.0,0.0,0.324899991846,0.0,0.0,0.0,1.29959996738,1,317.21428561753373,56.31023666358257,357.72644415012576,-14.000028493976847,0.7761619768606166,0.35024939923941223,0,Fixed-Wing
1970-01-01 00:00:53.266323935,7549,1531946737248730552,base_link,0,1,40.5907286,-79.8975642,357.864501642,0.324899991846,0.0,0.0,0.0,0.324899991846,0.0,0.0,0.0,1.29959996738,1,311.6691662218915,56.63205545648779,357.85664594726416,-13.851993933837221,0.803919924721765,0.32525079722415895,0,Fixed-Wing
1970-01-01 00:00:53.639906728,7551,1531946737621963322,base_link,0,1,40.5907304,-79.8976288,358.174434719,0.324899991846,0.0,0.0,0.0,0.324899991846,0.0,0.0,0.0,1.29959996738,1,306.20025310502217,56.83172564658358,358.1668417480364,-13.661626723329094,0.49878642183044064,0.7748850915592056,0,Fixed-Wing
1970-01-01 00:00:54.073520051,7553,1531946738055221406,base_link,0,1,40.5907303,-79.8976927,358.704369322,0.324899991846,0.0,0.0,0.0,0.324899991846,0.0,0.0,0.0,1.29959996738,1,300.79061936755625,56.82040492483108,358.69703348370786,-13.513543779516787,-0.028279746179223506,1.3244462710871798,0,Fixed-Wing
1970-01-01 00:00:54.459530373,7555,1531946738441958664,base_link,0,1,40.5907297,-79.8977558,359.324304964,0.324899991846,0.0,0.0,0.0,0.324899991846,0.0,0.0,0.0,1.29959996738,1,295.44871765146485,56.75356547449647,359.31721904029524,-13.344345700582045,-0.16696839049194662,1.5492554722001515,0,Fixed-Wing
1970-01-01 00:00:54.843478371,7557,1531946738825789038,base_link,0,1,40.5907293,-79.8978183,359.794241141,0.324899991846,0.0,0.0,0.0,0.324899991846,0.0,0.0,0.0,1.29959996738,1,290.15760206186764,56.708940937238,359.78739815787867,-13.217479340107746,-0.11147439311954492,1.1745316592643422,0,Fixed-Wing
1970-01-01 00:00:55.274085340,7559,1531946739256409518,base_link,0,1,40.5907287,-79.8978811,359.964177103,0.324899991846,0.0,0.0,0.0,0.324899991846,0.0,0.0,0.0,1.29959996738,1,284.84107562972406,56.64210604876982,359.9575740088296,-13.280956933950458,-0.16695699471457034,0.42510804310376543,0,Fixed-Wing
1970-01-01 00:00:55.638392404,7561,1531946739620527372,base_link,0,1,40.5907281,-79.8979449,359.854112047,0.324899991846,0.0,0.0,0.0,0.324899991846,0.0,0.0,0.0,1.29959996738,1,279.43987834065314,56.57526928578892,359.84774811899933,-13.492469096781814,-0.16696167734391765,-0.27435073100554114,0,Fixed-Wing
1970-01-01 00:00:56.039980548,7563,1531946740021856225,base_link,0,1,40.5907281,-79.89801,359.514045415,0.324899991846,0.0,0.0,0.0,0.324899991846,0.0,0.0,0.0,1.29959996738,1,273.9286131325819,56.57506171794125,359.5079202166743,-13.76742442912334,-0.0005185151773296286,-0.8489076078784928,0,Fixed-Wing
1970-01-01 00:00:56.445530317,7565,1531946740426577664,base_link,0,1,40.5907287,-79.898077,359.133976591,0.324899991846,0.0,0.0,0.0,0.324899991846,0.0,0.0,0.0,1.29959996738,1,268.25649381805016,56.641483442423834,359.1280915306317,-14.169246274235485,0.16592488979241357,-0.9488316264378083,0,Fixed-Wing
1970-01-01 00:00:56.877706863,7567,1531946740859801523,base_link,0,1,40.5907293,-79.8981451,358.83390665,0.324899991846,0.0,0.0,0.0,0.324899991846,0.0,0.0,0.0,1.29959996738,1,262.4912545345726,56.7079069102343,358.8282605156972,-14.40186475418566,0.16592924471528772,-0.7489933225446941,0,Fixed-Wing
1970-01-01 00:00:57.252764339,7569,1531946741235095944,base_link,0,1,40.5907297,-79.8982135,358.623836495,0.324899991846,0.0,0.0,0.0,0.324899991846,0.0,0.0,0.0,1.29959996738,1,256.7006228136743,56.75212430324828,358.61842530436,-14.465296371076356,0.11045732582081026,-0.5241791685914459,0,Fixed-Wing
1970-01-01 00:00:57.642230476,7571,1531946741624707654,base_link,0,1,40.5907304,-79.8982815,358.483766629,0.348099969053,0.0,0.0,0.0,0.348099969053,0.0,0.0,0.0,1.39239987621,1,250.9438564538953,56.82966363594778,358.4785835031146,-14.380698954263087,0.1936972478953954,-0.34933202413477127,0,Fixed-Wing
1970-01-01 00:00:58.072393682,7573,1531946742054691768,base_link,0,1,40.5907315,-79.8983489,358.473697217,0.348099969053,0.0,0.0,0.0,0.348099969053,0.0,0.0,0.0,1.39239987621,1,245.2378889183454,56.95163114888658,358.46873461827397,-14.25380087419292,0.30468113106475736,-0.024603021744558626,0,Fixed-Wing
1970-01-01 00:00:58.438427005,7575,1531946742420999076,base_link,0,1,40.5907328,-79.8984158,358.46362824,0.348099969053,0.0,0.0,0.0,0.348099969053,0.0,0.0,0.0,1.39239987621,1,239.57424997692735,57.0958148412891,358.45887928353767,-14.148061865290181,0.3601782919385905,-0.024619133916297404,0,Fixed-Wing
1970-01-01 00:00:58.914351828,7577,1531946742896113915,base_link,0,1,40.5907343,-79.8984826,358.413559288,0.348099969053,0.0,0.0,0.0,0.348099969053,0.0,0.0,0.0,1.39239987621,1,233.91907492971842,57.26221319432071,358.4090184381812,-14.126918621497552,0.415671658685251,-0.12455496052198549,0,Fixed-Wing
1970-01-01 00:00:59.232798508,7579,1531946743215203812,base_link,0,1,40.5907357,-79.8985495,358.413490284,0.348099969053,0.0,0.0,0.0,0.348099969053,0.0,0.0,0.0,1.39239987621,1,228.2554365293464,57.417510800271344,358.4091529320666,-14.14806051372931,0.3879414205685474,0.00033597265485860335,0,Fixed-Wing
1970-01-01 00:00:59.679021463,7581,1531946743661471652,base_link,0,1,40.5907367,-79.8986164,358.493421456,0.348099969053,0.0,0.0,0.0,0.348099969053,0.0,0.0,0.0,1.39239987621,1,222.5918024812778,57.5283925279538,358.48928297800023,-14.148049641451207,0.27698826835681634,0.20016898302731104,0,Fixed-Wing
1970-01-01 00:01:00.063359246,7583,1531946744045720145,base_link,0,1,40.590737,-79.8986832,358.633353033,0.348099969053,0.0,0.0,0.0,0.348099969053,0.0,0.0,0.0,1.39239987621,1,216.93663857840593,57.56154276389259,358.62940882255316,-14.126890782369408,0.08281099726910805,0.3500415789507348,0,Fixed-Wing
1970-01-01 00:01:00.457029714,7585,1531946744439554563,base_link,0,1,40.5907369,-79.8987495,358.733285298,0.348099969053,0.0,0.0,0.0,0.348099969053,0.0,0.0,0.0,1.39239987621,1,211.32380351516704,57.55027722535493,358.7295293477091,-14.021151160192275,-0.028141895665523376,0.25010623003043636,0,Fixed-Wing
1970-01-01 00:01:00.845042457,7587,1531946744820410054,base_link,0,1,40.5907368,-79.8988159,358.733217468,0.348099969053,0.0,0.0,0.0,0.348099969053,0.0,0.0,0.0,1.39239987621,1,205.70249921744704,57.53901477208299,358.7296451199743,-14.042307744259482,-0.02813418851280856,0.0002892050830094076,0,Fixed-Wing
1970-01-01 00:01:01.246643856,7589,1531946745227885728,base_link,0,1,40.590737,-79.8988827,358.67314911,0.348099969053,0.0,0.0,0.0,0.348099969053,0.0,0.0,0.0,1.39239987621,1,200.04732884985265,57.56107078564838,358.6697561761257,-14.126906931579354,0.05509705820807214,-0.14960566720106122,0,Fixed-Wing
1970-01-01 00:01:01.643724166,7591,1531946745626005539,base_link,0,1,40.5907372,-79.8989505,358.583079737,0.348099969053,0.0,0.0,0.0,0.348099969053,0.0,0.0,0.0,1.39239987621,1,194.30749951005635,57.583128612023444,358.5798637863253,-14.338389405754265,0.05510158670002658,-0.22455582096067908,0,Fixed-Wing
1970-01-01 00:01:02.059701794,7593,1531946746042236791,base_link,0,1,40.5907373,-79.8990193,358.473009393,0.348099969053,0.0,0.0,0.0,0.348099969053,0.0,0.0,0.0,1.39239987621,1,188.4830118572743,57.59408330718051,358.4699678664973,-14.549870233173223,0.027365392886218292,-0.2745256695476958,0,Fixed-Wing
1970-01-01 00:01:02.507853728,7595,1531946746489851318,base_link,0,1,40.5907374,-79.8990888,358.362938342,0.348099969053,0.0,0.0,0.0,0.348099969053,0.0,0.0,0.0,1.39239987621,1,182.59926368633364,57.60504110224929,358.36006762301804,-14.697906060624371,0.0273731366253734,-0.2745364702513883,0,Fixed-Wing
1970-01-01 00:01:02.834656500,7597,1531946746817140497,base_link,0,1,40.5907372,-79.8991588,358.222866914,0.348099969053,0.0,0.0,0.0,0.348099969053,0.0,0.0,0.0,1.39239987621,1,176.67318659865674,57.582686588191905,358.2201630560792,-14.803645875409435,-0.05584272781576199,-0.34948881607063237,0,Fixed-Wing
1970-01-01 00:01:03.220627827,7599,1531946747203021637,base_link,0,1,40.590737,-79.899229,358.28279529,0.348099969053,0.0,0.0,0.0,0.348099969053,0.0,0.0,0.0,1.39239987621,1,170.7301834395135,57.560338204738656,358.28025324792907,-14.845928073960424,-0.055827413250786245,0.15010839507657736,0,Fixed-Wing
1970-01-01 00:01:03.647907137,7601,1531946747630391615,base_link,0,1,40.5907367,-79.8992983,358.592724636,0.324899991846,0.0,0.0,0.0,0.324899991846,0.0,0.0,0.0,1.29959996738,1,164.8633792110249,57.52689328038383,358.59033701269374,-14.655579219430354,-0.0835471441146529,0.7746052198401995,0,Fixed-Wing
1970-01-01 00:01:04.074698632,7603,1531946748057140754,base_link,0,1,40.5907364,-79.8993659,358.942655726,0.324899991846,0.0,0.0,0.0,0.324899991846,0.0,0.0,0.0,1.29959996738,1,159.14049430326162,57.49345639962459,358.9404135498765,-14.296061341561764,-0.08352705079847665,0.8745092257608024,0,Fixed-Wing
1970-01-01 00:01:04.456322840,7605,1531946748438567524,base_link,0,1,40.5907362,-79.8994317,359.332588619,0.324899991846,0.0,0.0,0.0,0.324899991846,0.0,0.0,0.0,1.29959996738,1,153.56999423072511,57.47113263702522,359.3304830000854,-13.915396172326846,-0.055765909089336346,0.9744135829275619,0,Fixed-Wing
1970-01-01 00:01:04.846048204,7607,1531946748828213394,base_link,0,1,40.5907357,-79.899496,359.742523177,0.324899991846,0.0,0.0,0.0,0.324899991846,0.0,0.0,0.0,1.29959996738,1,148.12648189290582,57.41550005056422,359.74054661363584,-13.598174268618727,-0.13897306716011926,1.0243600330503426,0,Fixed-Wing
1970-01-01 00:01:05.271251329,7609,1531946749253335329,base_link,0,1,40.5907355,-79.8995598,359.932458127,0.324899991846,0.0,0.0,0.0,0.324899991846,0.0,0.0,0.0,1.29959996738,1,142.7252923321027,57.393185945098764,359.93060473389517,-13.492449791170682,-0.055741785071281295,0.47477497616689734,0,Fixed-Wing
1970-01-01 00:01:05.655630860,7611,1531946749633790278,base_link,0,1,40.590736,-79.8996234,360.102392993,0.324899991846,0.0,0.0,0.0,0.324899991846,0.0,0.0,0.0,1.29959996738,1,137.3410322028416,57.44861248590598,360.10065713790425,-13.450159198977532,0.1384583545015346,0.4247996662830094,0,Fixed-Wing
1970-01-01 00:01:06.055522680,7613,1531946750037631684,base_link,0,1,40.5907374,-79.899687,360.152327487,0.324899991846,0.0,0.0,0.0,0.324899991846,0.0,0.0,0.0,1.29959996738,1,131.95676761679823,57.603988898186685,360.1507037276108,-13.450170332249275,0.38813828284114,0.12501895947795627,0,Fixed-Wing
1970-01-01 00:01:06.439893920,7615,1531946750420526222,base_link,0,1,40.5907395,-79.899751,360.052261286,0.324899991846,0.0,0.0,0.0,0.324899991846,0.0,0.0,0.0,1.29959996738,1,126.53863559305697,57.83710386571991,360.0507450438839,-13.534772936462721,0.5823331989378924,-0.249701941802564,0,Fixed-Wing
1970-01-01 00:01:06.829275632,7617,1531946750811614441,base_link,0,1,40.5907414,-79.8998155,359.882194667,0.324899991846,0.0,0.0,0.0,0.324899991846,0.0,0.0,0.0,1.29959996738,1,121.07817400572397,58.04801098110747,359.8807823431148,-13.640514367126142,0.5268568401335861,-0.4245755829681182,0,Fixed-Wing
1970-01-01 00:01:07.247269577,7619,1531946751229733405,base_link,0,1,40.5907426,-79.8998807,359.792127634,0.324899991846,0.0,0.0,0.0,0.324899991846,0.0,0.0,0.0,1.29959996738,1,115.55845492591351,58.181185298764234,359.7908163366401,-13.788542636269852,0.33267630662275177,-0.22473971920576144,0,Fixed-Wing
1970-01-01 00:01:07.643303598,7621,1531946751625715817,base_link,0,1,40.5907428,-79.8999463,359.652060621,0.324899991846,0.0,0.0,0.0,0.324899991846,0.0,0.0,0.0,1.29959996738,1,110.00487369367409,58.203310458809625,359.6508471770652,-13.873132037609224,0.05526978967752931,-0.3496501718032162,0,Fixed-Wing
1970-01-01 00:01:08.043812895,7623,1531946752026212756,base_link,0,1,40.5907427,-79.9000124,359.521993231,0.324899991846,0.0,0.0,0.0,0.324899991846,0.0,0.0,0.0,1.29959996738,1,104.40896426638959,58.19212356727422,359.52087381173374,-13.978870049572574,-0.027945431402012205,-0.3246801628016799,0,Fixed-Wing
1970-01-01 00:01:08.419431245,7625,1531946752401877305,base_link,0,1,40.590743,-79.9000787,359.381925476,0.324899991846,0.0,0.0,0.0,0.324899991846,0.0,0.0,0.0,1.29959996738,1,98.79612266563431,58.225361474736076,359.380895031018,-14.021167491245015,0.08303000525053697,-0.34967420590876835,0,Fixed-Wing
1970-01-01 00:01:08.894527900,7627,1531946752876848588,base_link,0,1,40.5907445,-79.900145,359.241857225,0.324899991846,0.0,0.0,0.0,0.324899991846,0.0,0.0,0.0,1.29959996738,1,93.18327969518843,58.39186633509493,359.2409096031089,-14.02117091280272,0.41593771947594854,-0.34969081094020654,0,Fixed-Wing
1970-01-01 00:01:09.286241567,7629,1531946753266489784,base_link,0,1,40.5907486,-79.9002109,359.051788299,0.324899991846,0.0,0.0,0.0,0.324899991846,0.0,0.0,0.0,1.29959996738,1,87.60429642049746,58.847111262100185,359.0509154329993,-13.936587648361701,1.1372252817933348,-0.47461522539811773,0,Fixed-Wing
1970-01-01 00:01:09.634776859,7631,1531946753617334171,base_link,0,1,40.5907568,-79.9002757,358.711718781,0.324899991846,0.0,0.0,0.0,0.324899991846,0.0,0.0,0.0,1.29959996738,1,82.11843121849593,59.75767425807484,358.7109103100638,-13.703973905357657,2.274633275981379,-0.8493503140937783,0,Fixed-Wing
1970-01-01 00:01:10.038133138,7633,1531946754020666663,base_link,0,1,40.5907705,-79.9003394,358.441648088,0.324899991846,0.0,0.0,0.0,0.324899991846,0.0,0.0,0.0,1.29959996738,1,76.72568647231562,61.27903026270232,358.4408921998864,-13.47135420916763,3.8004256795386544,-0.674519150506185,0,Fixed-Wing
1970-01-01 00:01:10.501849353,7635,1531946754483330027,base_link,0,1,40.5907905,-79.9004011,358.301576801,0.324899991846,0.0,0.0,0.0,0.324899991846,0.0,0.0,0.0,1.29959996738,1,71.50225539832232,63.50002218732297,358.30085974191513,-13.048399933035475,5.5481522527944405,-0.34980829445843403,0,Fixed-Wing
1970-01-01 00:01:10.882926454,7637,1531946754860886353,base_link,0,1,40.5908163,-79.9004595,358.291506459,0.324899991846,0.0,0.0,0.0,0.324899991846,0.0,0.0,0.0,1.29959996738,1,66.558195003971,66.36512462453632,358.290813592488,-12.350517582164224,7.15717349770517,-0.02509579884471558,0,Fixed-Wing
1970-01-01 00:01:11.254924270,7639,1531946755237307292,base_link,0,1,40.5908472,-79.9005137,358.261438273,0.324899991846,0.0,0.0,0.0,0.324899991846,0.0,0.0,0.0,1.29959996738,1,61.969697388805365,69.79659960347502,358.2607548540505,-11.462303441229913,8.57200128634339,-0.0750882772375135,0,Fixed-Wing
1970-01-01 00:01:11.684135633,7641,1531946755666564501,base_link,0,1,40.5908824,-79.9005635,358.221372785,0.324899991846,0.0,0.0,0.0,0.324899991846,0.0,0.0,0.0,1.29959996738,1,57.753695527388174,73.70560487497244,358.22068479712004,-10.53178985745416,9.764896559427198,-0.10009706661419192,0,Fixed-Wing
1970-01-01 00:01:12.032875599,7643,1531946756014786908,base_link,0,1,40.5909219,-79.9006069,358.301312033,0.324899991846,0.0,0.0,0.0,0.324899991846,0.0,0.0,0.0,1.29959996738,1,54.07950667902807,78.0921426085608,358.3006038834903,-9.178313036731607,10.957797252114274,0.19964199516936604,0,Fixed-Wing
1970-01-01 00:01:12.471793071,7645,1531946756454000457,base_link,0,1,40.5909652,-79.900644,358.261256126,0.324899991846,0.0,0.0,0.0,0.324899991846,0.0,0.0,0.0,1.29959996738,1,50.9386630803492,82.90068296332734,358.260512963644,-7.8459891251795355,12.011981541314112,-0.10014918325282994,0,Fixed-Wing
1970-01-01 00:01:12.876452369,7647,1531946756856587764,base_link,0,1,40.5910115,-79.9006727,358.291207538,0.324899991846,0.0,0.0,0.0,0.324899991846,0.0,0.0,0.0,1.29959996738,1,48.5089478992965,88.04238696833917,358.2904142217027,-6.0695537007451685,12.844241504156336,0.07469488313793884,0,Fixed-Wing
1970-01-01 00:01:13.253384782,7649,1531946757235351062,base_link,0,1,40.5910597,-79.9006923,358.46116744,0.324899991846,0.0,0.0,0.0,0.324899991846,0.0,0.0,0.0,1.29959996738,1,46.84962165246987,93.39509801700117,358.46031019146585,-4.145082452753428,13.371347970238219,0.4244088854772297,0,Fixed-Wing
1970-01-01 00:01:13.686834316,7651,1531946757669313095,base_link,0,1,40.5911088,-79.9007046,358.711134416,0.324899991846,0.0,0.0,0.0,0.324899991846,0.0,0.0,0.0,1.29959996738,1,45.80829910763056,98.84776182400003,358.71020234763796,-2.6012773657529893,13.621035110111254,0.6242434805154705,0,Fixed-Wing
1970-01-01 00:01:14.084749070,7653,1531946758067254133,base_link,0,1,40.5911579,-79.9007112,359.001107212,0.324899991846,0.0,0.0,0.0,0.324899991846,0.0,0.0,0.0,1.29959996738,1,45.24952702992467,104.30042982071336,359.00009208264555,-1.3958414379431272,13.621045576233863,0.724159493114349,0,Fixed-Wing
1970-01-01 00:01:14.478973945,7655,1531946758461390486,base_link,0,1,40.5912066,-79.9007134,359.261084667,0.324899991846,0.0,0.0,0.0,0.324899991846,0.0,0.0,0.0,1.29959996738,1,45.063249287822494,109.70867921353226,359.25997990421354,-0.46533139676596635,13.510085615267347,0.6492131676491988,0,Fixed-Wing
1970-01-01 00:01:14.875218338,7657,1531946758855951777,base_link,0,1,40.5912548,-79.9007129,359.401065093,0.324899991846,0.0,0.0,0.0,0.324899991846,0.0,0.0,0.0,1.29959996738,1,45.10554669781541,115.06140216310624,359.3998654877521,0.10566110931703071,13.371377699329456,0.34944139455863804,0,Fixed-Wing
1970-01-01 00:01:15.239355304,7659,1531946759221737173,base_link,0,1,40.5913024,-79.9007111,359.501047104,0.324899991846,0.0,0.0,0.0,0.324899991846,0.0,0.0,0.0,1.29959996738,1,45.25789891811284,120.34749392993463,359.49974863432556,0.38058369546111676,13.204929572004815,0.2495132461016934,0,Fixed-Wing
1970-01-01 00:01:15.649002249,7661,1531946759631279172,base_link,0,1,40.59135,-79.9007091,359.611029329,0.324899991846,0.0,0.0,0.0,0.324899991846,0.0,0.0,0.0,1.29959996738,1,45.42718248559055,125.63358620926927,359.6096274803675,0.422879073017311,13.204930852271826,0.27448301835060035,0,Fixed-Wing
1970-01-01 00:01:16.067771505,7663,1531946760050227745,base_link,0,1,40.5913974,-79.9007082,359.791010529,0.324899991846,0.0,0.0,0.0,0.324899991846,0.0,0.0,0.0,1.29959996738,1,45.50334333440561,130.8974691295665,359.7895020255769,0.19025372413283698,13.14945072917433,0.4493358810362233,0,Fixed-Wing
1970-01-01 00:01:16.441947283,7665,1531946760424179353,base_link,0,1,40.5914444,-79.9007086,359.840990583,0.324899991846,0.0,0.0,0.0,0.324899991846,0.0,0.0,0.0,1.29959996738,1,45.469448901022055,136.11692801910513,359.8393728060525,-0.08467004082705105,13.038477211621508,0.12457977896141234,0,Fixed-Wing
1970-01-01 00:01:16.872409288,7667,1531946760854811294,base_link,0,1,40.591491,-79.9007101,360.030969694,0.324899991846,0.0,0.0,0.0,0.324899991846,0.0,0.0,0.0,1.29959996738,1,45.34243278726244,141.29196865468106,360.02924000626257,-0.3172927960181463,12.927518124802468,0.4742980480477074,0,Fixed-Wing
1970-01-01 00:01:17.273064894,7669,1531946761255296323,base_link,0,1,40.5915365,-79.9007127,360.280948153,0.324899991846,0.0,0.0,0.0,0.324899991846,0.0,0.0,0.0,1.29959996738,1,45.12229507100682,146.3448529182843,360.27910581507433,-0.5499153566608578,12.62236521414105,0.6241776634519131,0,Fixed-Wing
1970-01-01 00:01:17.659084211,7671,1531946761641579350,base_link,0,1,40.591581,-79.9007158,360.560926529,0.324899991846,0.0,0.0,0.0,0.324899991846,0.0,0.0,0.0,1.29959996738,1,44.859829936032206,151.28668577108436,360.5589704577826,-0.6556514293216582,12.344953068606676,0.6991162960597629,0,Fixed-Wing
1970-01-01 00:01:18.088007181,7673,1531946762070404642,base_link,0,1,40.5916248,-79.9007189,360.690905205,0.324899991846,0.0,0.0,0.0,0.324899991846,0.0,0.0,0.0,1.29959996738,1,44.59736454348578,156.15077880008914,360.6888334616082,-0.6556520727493166,12.150754983624717,0.3244044740742701,0,Fixed-Wing
1970-01-01 00:01:18.503780424,7675,1531946762485974780,base_link,0,1,40.5916685,-79.9007217,360.550884238,0.324899991846,0.0,0.0,0.0,0.324899991846,0.0,0.0,0.0,1.29959996738,1,44.36029478978366,161.0037601596714,360.54869319747695,-0.5922124585376479,12.122997460936118,-0.3500775998003449,0,Fixed-Wing
