time,field.header.seq,field.header.stamp,field.header.frame_id,field.status.status,field.status.service,lat,lon,alt,field.position_covariance0,field.position_covariance1,field.position_covariance2,field.position_covariance3,field.position_covariance4,field.position_covariance5,field.position_covariance6,field.position_covariance7,field.position_covariance8,field.position_covariance_type,x,y,z,vel_x,vel_y,vel_z,track_id,uav_category
1970-01-01 00:00:00.000000000,5015,1532985276222355921,base_link,0,1,40.5915868,-79.8961935,397.715544745,0.396899993992,0.0,0.0,0.0,0.396899993992,0.0,0.0,0.0,1.58759997597,1,428.74018550016876,152.28813409104836,397.69933363312975,-16.894206696344593,2.6094868302955785,-1.2995195308677634,0,Fixed-Wing
1970-01-01 00:00:00.398241506,5017,1532985276620224992,base_link,0,1,40.5915962,-79.8962733,397.195458962,0.422499969006,0.0,0.0,0.0,0.422499969006,0.0,0.0,0.0,1.68999987602,1,421.9844118669876,153.33163395115477,397.17967266648964,-16.894206696344593,2.6094868302955785,-1.2995195308677634,0,Fixed-Wing
1970-01-01 00:00:00.817735637,5019,1532985277037906492,base_link,0,1,40.5916117,-79.8963565,396.605367145,0.422499969006,0.0,0.0,0.0,0.422499969006,0.0,0.0,0.0,1.68999987602,1,414.940763102804,155.05254500122734,396.5900005872496,-17.614097893113843,4.303493362056213,-1.4745967716880455,0,Fixed-Wing
1970-01-01 00:00:01.195498876,5021,1532985277417917044,base_link,0,1,40.5916363,-79.8964431,396.05526804,0.422499969006,0.0,0.0,0.0,0.422499969006,0.0,0.0,0.0,1.68999987602,1,407.60923043907115,157.78402934371914,396.040306384944,-18.33401101744454,6.830640512174181,-1.3746238369979573,0,Fixed-Wing
1970-01-01 00:00:01.598785839,5023,1532985277821169715,base_link,0,1,40.5916677,-79.8965286,395.185167232,0.422499969006,0.0,0.0,0.0,0.422499969006,0.0,0.0,0.0,1.68999987602,1,400.37076707057764,161.27067722469462,395.1705759639865,-18.10127203058242,8.71908284334195,-2.1749404730774535,0,Fixed-Wing
1970-01-01 00:00:01.994350112,5025,1532985278216794349,base_link,0,1,40.5917076,-79.8966088,394.375068316,0.396899993992,0.0,0.0,0.0,0.396899993992,0.0,0.0,0.0,1.58759997597,1,393.5809508425375,165.70130613954876,394.36078518113214,-16.97933723286863,11.079702303035956,-2.025049033487835,0,Fixed-Wing
1970-01-01 00:00:02.427396020,5027,1532985278649730922,base_link,0,1,40.591757,-79.8966809,393.794973746,0.396899993992,0.0,0.0,0.0,0.396899993992,0.0,0.0,0.0,1.58759997597,1,387.4768283703308,171.18698443282727,393.7809185848164,-15.26461843522473,13.718071088278716,-1.4500761372981699,0,Fixed-Wing
1970-01-01 00:00:02.786809431,5029,1532985279009214770,base_link,0,1,40.5918106,-79.8967464,393.32488421,0.396899993992,0.0,0.0,0.0,0.396899993992,0.0,0.0,0.0,1.58759997597,1,381.9314369173545,177.13912057182958,393.3110001090808,-13.86739617185924,14.884545231533673,-1.1751281630450516,0,Fixed-Wing
1970-01-01 00:00:03.192648440,5031,1532985279414591901,base_link,0,1,40.5918651,-79.8968078,392.834798527,0.396899993992,0.0,0.0,0.0,0.396899993992,0.0,0.0,0.0,1.58759997597,1,376.7331435560279,183.19122456437725,392.82105176308556,-12.99940573543674,15.134535487644438,-1.2252169887874094,0,Fixed-Wing
1970-01-01 00:00:03.604932236,5033,1532985279827224624,base_link,0,1,40.5919196,-79.8968668,392.20471533,0.396899993992,0.0,0.0,0.0,0.396899993992,0.0,0.0,0.0,1.58759997597,1,371.73802845888713,189.24333726989397,392.1910840953885,-12.491316539774479,15.134557276222333,-1.57536420963194,0,Fixed-Wing
1970-01-01 00:00:03.994104270,5035,1532985280216520163,base_link,0,1,40.5919733,-79.8969254,391.394632905,0.396899993992,0.0,0.0,0.0,0.396899993992,0.0,0.0,0.0,1.58759997597,1,366.77677932225725,195.2066060348169,391.38110831815686,-12.406627713903863,14.91238466097405,-2.0255116501201935,0,Fixed-Wing
1970-01-01 00:00:04.394323661,5037,1532985280616659936,base_link,0,1,40.5920254,-79.8969846,390.224550561,0.396899993992,0.0,0.0,0.0,0.396899993992,0.0,0.0,0.0,1.58759997597,1,361.76473341641673,200.99217824433015,390.21113167244374,-12.533655522286354,14.468017738794329,-2.92576814378342,0,Fixed-Wing
1970-01-01 00:00:04.774346792,5039,1532985280995738197,base_link,0,1,40.5920757,-79.8970451,388.564467662,0.396899993992,0.0,0.0,0.0,0.396899993992,0.0,0.0,0.0,1.58759997597,1,356.6426253441079,206.57783549576408,388.55115791678287,-12.808888691827525,13.96808911375946,-4.151107076901404,0,Fixed-Wing
1970-01-01 00:00:05.213056660,5041,1532985281434680168,base_link,0,1,40.5921244,-79.8971073,386.484383716,0.396899993992,0.0,0.0,0.0,0.396899993992,0.0,0.0,0.0,1.58759997597,1,351.37659627977854,211.9857881671417,386.4711879423551,-13.168792844802056,13.52370212429415,-5.201394329967709,0,Fixed-Wing
1970-01-01 00:00:05.584517081,5043,1532985281804981872,base_link,0,1,40.5921731,-79.8971709,384.184298363,0.50409996953,0.0,0.0,0.0,0.50409996953,0.0,0.0,0.0,2.01639987812,1,345.99204694662126,217.39372804727162,384.1712140474056,-13.465177245465046,13.523670137138568,-5.7515595529473575,0,Fixed-Wing
1970-01-01 00:00:06.001525936,5045,1532985282221994942,base_link,0,1,40.5922223,-79.8972367,381.964210577,0.50409996953,0.0,0.0,0.0,0.50409996953,0.0,0.0,0.0,2.01639987812,1,340.4212664324952,222.857188598854,381.95123656677004,-13.930886760825075,13.662511038324293,-5.551512003729998,0,Fixed-Wing
1970-01-01 00:00:06.400062955,5047,1532985282621570212,base_link,0,1,40.5922725,-79.8973037,379.654121176,0.422499969006,0.0,0.0,0.0,0.422499969006,0.0,0.0,0.0,1.68999987602,1,334.74890039618526,228.43169441521908,379.6412492600443,-14.184922331333448,13.940202648160794,-5.776600156358569,0,Fixed-Wing
1970-01-01 00:00:06.802079924,5049,1532985283023832147,base_link,0,1,40.5923243,-79.8973711,377.614030729,0.422499969006,0.0,0.0,0.0,0.422499969006,0.0,0.0,0.0,1.68999987602,1,329.04269043224775,234.18389318819453,377.60124619130636,-14.269556059430565,14.384560570799868,-5.10144883113959,0,Fixed-Wing
1970-01-01 00:00:07.195752231,5051,1532985283418109903,base_link,0,1,40.5923781,-79.8974386,375.92393938,0.50409996953,0.0,0.0,0.0,0.50409996953,0.0,0.0,0.0,2.01639987812,1,323.32803536602586,240.15821071677723,375.9112239718077,-14.29067478118042,14.940014375517839,-4.226249464220253,0,Fixed-Wing
1970-01-01 00:00:07.591593145,5053,1532985283813700890,base_link,0,1,40.5924331,-79.8975046,374.453849097,0.422499969006,0.0,0.0,0.0,0.422499969006,0.0,0.0,0.0,1.68999987602,1,317.7403821500604,246.26580651825293,374.4411806246049,-13.973080435136612,15.273304212129167,-3.676146879500504,0,Fixed-Wing
1970-01-01 00:00:08.017013318,5055,1532985284239176913,base_link,0,1,40.5924896,-79.8975688,373.223760065,0.422499969006,0.0,0.0,0.0,0.422499969006,0.0,0.0,0.0,1.68999987602,1,312.30512654555247,252.53999847537617,373.2111137178275,-13.591978745265326,15.68991229303087,-3.076036247183282,0,Fixed-Wing
1970-01-01 00:00:08.400869230,5057,1532985284619033271,base_link,0,1,40.5925477,-79.8976298,372.153673672,0.50409996953,0.0,0.0,0.0,0.50409996953,0.0,0.0,0.0,2.01639987812,1,307.1407820619178,258.9918937517042,372.14101838835114,-12.914509558036878,16.134296129476656,-2.675994292078446,0,Fixed-Wing
1970-01-01 00:00:08.795942171,5059,1532985285017958007,base_link,0,1,40.59261,-79.8976857,371.043590787,0.422499969006,0.0,0.0,0.0,0.422499969006,0.0,0.0,0.0,1.68999987602,1,302.4081730756988,265.9102269079106,371.030875948354,-11.834865815140185,17.30072034401322,-2.7761403596445047,0,Fixed-Wing
1970-01-01 00:00:09.191022419,5061,1532985285413348516,base_link,0,1,40.5926765,-79.8977338,369.733514169,0.422499969006,0.0,0.0,0.0,0.422499969006,0.0,0.0,0.0,1.68999987602,1,298.3358626033067,273.29499903316764,369.7206779218074,-10.18365306297062,18.467147282249808,-3.2764206552015263,0,Fixed-Wing
1970-01-01 00:00:09.580698211,5063,1532985285802789094,base_link,0,1,40.5927476,-79.8977709,368.283446925,0.422499969006,0.0,0.0,0.0,0.422499969006,0.0,0.0,0.0,1.68999987602,1,295.1947489715104,281.1906424379014,368.27041258065907,-7.855003117871446,19.7446863857383,-3.6266878922003913,0,Fixed-Wing
1970-01-01 00:00:10.012765963,5065,1532985286232205948,base_link,0,1,40.5928226,-79.8977942,366.823392202,0.422499969006,0.0,0.0,0.0,0.422499969006,0.0,0.0,0.0,1.68999987602,1,293.2218743581087,289.51943361683163,366.81007520205844,-4.933580269930506,20.827861818289318,-3.6518751012176622,0,Fixed-Wing
1970-01-01 00:00:10.395638012,5067,1532985286615545708,base_link,0,1,40.5928991,-79.8978034,365.473351296,0.422499969006,0.0,0.0,0.0,0.422499969006,0.0,0.0,0.0,1.68999987602,1,292.44264701853336,298.01485212230324,365.45967778934926,-1.948618833758929,21.2445478484462,-3.3769475194472065,0,Fixed-Wing
1970-01-01 00:00:10.867465369,5069,1532985287089506376,base_link,0,1,40.5929754,-79.8977946,364.093328885,0.422499969006,0.0,0.0,0.0,0.422499969006,0.0,0.0,0.0,1.68999987602,1,293.18721937769993,306.48811506609366,364.0792187400833,1.86195690074088,21.189143292456162,-3.4521228478693664,0,Fixed-Wing
1970-01-01 00:00:11.226028572,5071,1532985287448285250,base_link,0,1,40.5930491,-79.8977684,362.753325339,0.435600034618,0.0,0.0,0.0,0.435600034618,0.0,0.0,0.0,1.74240013847,1,295.4048058459458,314.67269853207665,362.73871351763177,5.545532783626084,20.467240660444066,-3.352210055469556,0,Fixed-Wing
1970-01-01 00:00:11.591854741,5073,1532985287814168551,base_link,0,1,40.5931173,-79.8977259,361.453340721,0.422499969006,0.0,0.0,0.0,0.422499969006,0.0,0.0,0.0,1.68999987602,1,299.0022931075721,322.24654858615395,361.43818243832015,8.996259597401941,18.93997567832237,-3.252246457903385,0,Fixed-Wing
1970-01-01 00:00:11.971407643,5075,1532985288193400185,base_link,0,1,40.593177,-79.8976665,360.543376869,0.422499969006,0.0,0.0,0.0,0.422499969006,0.0,0.0,0.0,1.68999987602,1,304.0305003957695,328.8765308594554,360.5276420037403,12.574070395380177,16.57963943139296,-2.27699433734991,0,Fixed-Wing
1970-01-01 00:00:12.439502751,5077,1532985288660823935,base_link,0,1,40.593225,-79.8975947,359.953430497,0.422499969006,0.0,0.0,0.0,0.422499969006,0.0,0.0,0.0,1.68999987602,1,310.10848965286283,334.20726283607956,359.9371256794834,15.199266935642694,13.330595834883802,-1.4767079806467729,0,Fixed-Wing
1970-01-01 00:00:12.804978291,5079,1532985289027150226,base_link,0,1,40.5932607,-79.8975152,359.523497047,0.422499969006,0.0,0.0,0.0,0.422499969006,0.0,0.0,0.0,1.68999987602,1,316.8383786801903,338.1720913902041,359.5066524660557,16.82947689554171,9.914872336746509,-1.0764871411866788,0,Fixed-Wing
1970-01-01 00:00:13.238915979,5081,1532985289461152661,base_link,0,1,40.5932835,-79.8974311,359.213573598,0.422499969006,0.0,0.0,0.0,0.422499969006,0.0,0.0,0.0,1.68999987602,1,323.95774088697885,340.7043738918281,359.1962368213028,17.80343498735527,6.332495183949385,-0.7762584048815776,0,Fixed-Wing
1970-01-01 00:00:13.669551794,5083,1532985289891906101,base_link,0,1,40.5932925,-79.8973451,359.053657761,0.422499969006,0.0,0.0,0.0,0.422499969006,0.0,0.0,0.0,1.68999987602,1,331.2380178766645,341.7041561548731,359.0358939877139,18.205835622777585,2.50016195336434,-0.4009703580984464,0,Fixed-Wing
1970-01-01 00:00:13.992040731,5085,1532985290213976743,base_link,0,1,40.5932874,-79.8972609,359.063745882,0.422499969006,0.0,0.0,0.0,0.422499969006,0.0,0.0,0.0,1.68999987602,1,338.36599368495337,341.1381099827133,359.045638872712,17.82497507618115,-1.4155153134755953,0.024369096765084197,0,Fixed-Wing
1970-01-01 00:00:14.368404430,5087,1532985290590524893,base_link,0,1,40.59327,-79.8971823,359.183833342,0.422499969006,0.0,0.0,0.0,0.422499969006,0.0,0.0,0.0,1.68999987602,1,345.01997178503416,339.2061109791249,359.16547367656216,16.639645950182906,-4.831362368840131,0.299671666871275,0,Fixed-Wing
1970-01-01 00:00:14.787128168,5089,1532985291009313440,base_link,0,1,40.5932429,-79.8971126,359.573915705,0.422499969006,0.0,0.0,0.0,0.422499969006,0.0,0.0,0.0,1.68999987602,1,350.9205893028062,336.19688905782664,359.5553943072249,14.75571228315011,-7.525180666784023,0.9750770359195058,0,Fixed-Wing
1970-01-01 00:00:15.183337109,5091,1532985291405551396,base_link,0,1,40.5932113,-79.8970507,360.193991961,0.422499969006,0.0,0.0,0.0,0.422499969006,0.0,0.0,0.0,1.68999987602,1,356.1609392910491,332.68791638933453,360.17536495956756,13.104577013613554,-8.774910583470096,1.5503646088586487,0,Fixed-Wing
1970-01-01 00:00:15.597308496,5093,1532985291819109542,base_link,0,1,40.5931788,-79.8969933,360.844064002,0.422499969006,0.0,0.0,0.0,0.422499969006,0.0,0.0,0.0,1.68999987602,1,361.0203535959566,329.07898271871073,360.8253518738003,12.151968693424614,-9.0248837062065,1.6254264685591855,0,Fixed-Wing
1970-01-01 00:00:15.987964367,5095,1532985292210193015,base_link,0,1,40.5931469,-79.8969365,361.424135198,0.422499969006,0.0,0.0,0.0,0.422499969006,0.0,0.0,0.0,1.68999987602,1,365.8289731971249,325.53667684023003,361.4053317009575,12.02494605018004,-8.85826715667352,1.4503592943937091,0,Fixed-Wing
1970-01-01 00:00:16.376688996,5097,1532985292598823147,base_link,0,1,40.5931159,-79.8968772,361.804208595,0.422499969006,0.0,0.0,0.0,0.422499969006,0.0,0.0,0.0,1.68999987602,1,370.8492197720363,322.09432097152643,361.78529079259135,12.554162988322622,-8.608321522589133,0.9501661510222894,0,Fixed-Wing
1970-01-01 00:00:16.798104762,5099,1532985293020209449,base_link,0,1,40.5930864,-79.8968135,361.79428589,0.422499969006,0.0,0.0,0.0,0.422499969006,0.0,0.0,0.0,1.68999987602,1,376.241923461269,318.81854589656604,361.7752177009825,13.485568896294927,-8.19175185730067,-0.025189845153333227,0,Fixed-Wing
1970-01-01 00:00:17.227474459,5101,1532985293448117310,base_link,0,1,40.5930585,-79.896744,361.554368473,0.422499969006,0.0,0.0,0.0,0.422499969006,0.0,0.0,0.0,1.68999987602,1,382.1256098388949,315.7204722737314,361.5351054911264,14.713372471788047,-7.747372689871507,-0.6004501518082256,0,Fixed-Wing
1970-01-01 00:00:17.584690864,5103,1532985293806971462,base_link,0,1,40.5930334,-79.8966687,361.284455852,0.422499969006,0.0,0.0,0.0,0.422499969006,0.0,0.0,0.0,1.68999987602,1,388.50028362531435,312.9333742368844,361.26494601746145,15.941187851616743,-6.9697140363327605,-0.6755895382068751,0,Fixed-Wing
1970-01-01 00:00:18.000414684,5105,1532985294222814987,base_link,0,1,40.5930124,-79.8965886,361.294546469,0.422499969006,0.0,0.0,0.0,0.422499969006,0.0,0.0,0.0,1.68999987602,1,395.2813005868522,310.60163173726374,361.2747348542247,16.957332850374804,-5.831003507542494,0.024479007227593903,0,Fixed-Wing
1970-01-01 00:00:18.397865073,5107,1532985294620216272,base_link,0,1,40.5929951,-79.8965062,361.744637929,0.422499969006,0.0,0.0,0.0,0.422499969006,0.0,0.0,0.0,1.68999987602,1,402.25703474979764,308.6808209712752,361.72448430188086,17.44426341177747,-4.80338387091494,1.1246913444452766,0,Fixed-Wing
1970-01-01 00:00:18.806000798,5109,1532985295028397741,base_link,0,1,40.5929785,-79.896424,362.304728912,0.422499969006,0.0,0.0,0.0,0.422499969006,0.0,0.0,0.0,1.68999987602,1,409.2158451859666,306.83775750002536,362.28422241008974,17.40194213907669,-4.608960709524992,1.3997406972691684,0,Fixed-Wing
1970-01-01 00:00:19.178915006,5111,1532985295401263197,base_link,0,1,40.5929598,-79.8963433,362.684819243,0.422499969006,0.0,0.0,0.0,0.422499969006,0.0,0.0,0.0,1.68999987602,1,416.04767839952177,304.76147449453265,362.66397119842986,17.084409379537647,-5.19217430297237,0.9496402442192998,0,Fixed-Wing
1970-01-01 00:00:19.595967424,5113,1532985295805846152,base_link,0,1,40.5929366,-79.8962646,362.804909403,0.422499969006,0.0,0.0,0.0,0.422499969006,0.0,0.0,0.0,1.68999987602,1,422.7102164060141,302.18543982839503,362.7837467885716,16.661051763354035,-6.441906503931401,0.29952359076871243,0,Fixed-Wing
1970-01-01 00:00:19.977167017,5115,1532985296199565559,base_link,0,1,40.5929076,-79.8961883,362.66499952,0.422499969006,0.0,0.0,0.0,0.422499969006,0.0,0.0,0.0,1.68999987602,1,429.1696056519354,298.9652832998923,362.6435582926261,16.15303634757137,-8.052666199458201,-0.3505702759666972,0,Fixed-Wing
1970-01-01 00:00:20.377546032,5117,1532985296599687022,base_link,0,1,40.5928714,-79.8961163,362.355088231,0.422499969006,0.0,0.0,0.0,0.422499969006,0.0,0.0,0.0,1.68999987602,1,435.2650164294876,294.94552629110007,362.33342215819755,15.242833044215535,-10.052232277598987,-0.7755594316107963,0,Fixed-Wing
1970-01-01 00:00:20.770763816,5119,1532985296993179537,base_link,0,1,40.5928278,-79.8960511,362.025173063,0.422499969006,0.0,0.0,0.0,0.422499969006,0.0,0.0,0.0,1.68999987602,1,440.78482232865184,290.1039522129429,362.0033510558727,13.803414212425574,-12.107355523328291,-0.8254109344010604,0,Fixed-Wing
1970-01-01 00:00:21.172342686,5121,1532985297394781183,base_link,0,1,40.5927768,-79.8959963,361.825250329,0.422499969006,0.0,0.0,0.0,0.422499969006,0.0,0.0,0.0,1.68999987602,1,445.4242741433934,284.440548467237,361.80336217716973,11.601907075602764,-14.1625102734169,-0.5001134788152197,0,Fixed-Wing
1970-01-01 00:00:21.607622439,5123,1532985297829702870,base_link,0,1,40.5927209,-79.8959537,361.665317151,0.422499969006,0.0,0.0,0.0,0.422499969006,0.0,0.0,0.0,1.68999987602,1,449.0309683793896,278.2329309413827,361.6434509468826,9.019283537589873,-15.52342918338017,-0.3998910449380709,0,Fixed-Wing
1970-01-01 00:00:21.994733589,5125,1532985298216922082,base_link,0,1,40.5926619,-79.8959267,361.925369297,0.422499969006,0.0,0.0,0.0,0.422499969006,0.0,0.0,0.0,1.68999987602,1,451.3170883749141,271.6809911057406,361.9036251048902,5.71691501730357,-16.384478204197904,0.6506191949415733,0,Fixed-Wing
1970-01-01 00:00:22.408559468,5127,1532985298630652885,base_link,0,1,40.5926029,-79.8959148,362.62540599,0.422499969006,0.0,0.0,0.0,0.422499969006,0.0,0.0,0.0,1.68999987602,1,452.32493973091357,265.12899216385597,362.60386689439247,2.520340386157819,-16.384626011559813,1.751099159268208,0,Fixed-Wing
1970-01-01 00:00:22.798326483,5129,1532985299019990876,base_link,0,1,40.5925465,-79.8959121,363.575432192,0.422499969006,0.0,0.0,0.0,0.422499969006,0.0,0.0,0.0,1.68999987602,1,452.55395821189444,258.86569102493553,363.55413477738915,0.5727079924600432,-15.662677553710022,2.376341023830942,0,Fixed-Wing
1970-01-01 00:00:23.215415124,5131,1532985299437828283,base_link,0,1,40.5924927,-79.8959142,364.695452409,0.422499969006,0.0,0.0,0.0,0.422499969006,0.0,0.0,0.0,1.68999987602,1,452.37662253897815,252.89110641527355,364.67440782482896,-0.4434644610009468,-14.940682266895335,2.801474035014415,0,Fixed-Wing
1970-01-01 00:00:23.583802938,5133,1532985299805916156,base_link,0,1,40.592441,-79.8959178,365.705470229,0.422499969006,0.0,0.0,0.0,0.422499969006,0.0,0.0,0.0,1.68999987602,1,452.07228036770505,247.14971787577343,365.6846727963115,-0.7610704305794038,-14.357527350226743,2.526376129962998,0,Fixed-Wing
1970-01-01 00:00:24.013579759,5135,1532985300235967357,base_link,0,1,40.5923885,-79.89592,366.24548983,0.422499969006,0.0,0.0,0.0,0.422499969006,0.0,0.0,0.0,1.68999987602,1,451.8864284792237,241.31947498476364,366.22492934126575,-0.4647610161904539,-14.579726000119505,1.3510230263906426,0,Fixed-Wing
1970-01-01 00:00:24.420090241,5137,1532985300642428477,base_link,0,1,40.5923345,-79.8959216,365.985510685,0.422499969006,0.0,0.0,0.0,0.422499969006,0.0,0.0,0.0,1.68999987602,1,451.75132355879606,235.32262599606122,365.9651843645863,-0.3378577458823029,-14.996358943157505,-0.6495459384261765,0,Fixed-Wing
1970-01-01 00:00:24.813372704,5139,1532985301035465956,base_link,0,1,40.5922781,-79.895923,365.13553276,0.422499969006,0.0,0.0,0.0,0.422499969006,0.0,0.0,0.0,1.68999987602,1,451.63312413013995,229.05923153706536,365.11544335830246,-0.29558207357606553,-15.662910919824505,-2.1249528148798635,0,Fixed-Wing
1970-01-01 00:00:25.203516608,5141,1532985301425614147,base_link,0,1,40.5922184,-79.8959226,364.215558073,0.422499969006,0.0,0.0,0.0,0.422499969006,0.0,0.0,0.0,1.68999987602,1,451.6673233134333,222.4293727051007,364.1957014673701,0.0855221182318186,-16.57933074084596,-2.300004478596097,0,Fixed-Wing
1970-01-01 00:00:25.568916574,5143,1532985301791078542,base_link,0,1,40.5921564,-79.8959209,363.705585698,0.422499969006,0.0,0.0,0.0,0.422499969006,0.0,0.0,0.0,1.68999987602,1,451.8116204394467,215.54411595827565,363.68595585248323,0.36084475367637486,-17.218005953744523,-1.274724146788636,0,Fixed-Wing
1970-01-01 00:00:26.013348462,5145,1532985302235699397,base_link,0,1,40.5920943,-79.8959196,363.915612973,0.422499969006,0.0,0.0,0.0,0.422499969006,0.0,0.0,0.0,1.68999987602,1,451.9221068002035,208.64777671098096,363.89620519206335,0.27629395493425635,-17.245720034146373,0.5257718795062509,0,Fixed-Wing
1970-01-01 00:00:26.419483310,5147,1532985302641374379,base_link,0,1,40.5920337,-79.8959181,364.675639846,0.36000002861,0.0,0.0,0.0,0.36000002861,0.0,0.0,0.0,1.44000011444,1,452.04955352123943,201.91803414459372,364.6564401698291,0.3187068372713731,-16.829110639723833,1.9011245120891063,0,Fixed-Wing
1970-01-01 00:00:26.784703644,5149,1532985303006940211,base_link,0,1,40.5919755,-79.8959161,365.495666247,0.422499969006,0.0,0.0,0.0,0.422499969006,0.0,0.0,0.0,1.68999987602,1,452.2193169475653,195.4548202300722,365.4766563768947,0.42452849511451446,-16.162600721007514,2.0511199590523934,0,Fixed-Wing
1970-01-01 00:00:27.225681589,5151,1532985303447952130,base_link,0,1,40.5919192,-79.8959141,366.345691868,0.422499969006,0.0,0.0,0.0,0.422499969006,0.0,0.0,0.0,1.68999987602,1,452.38907002956523,189.2026052123034,366.3268589663219,0.42450262699198243,-15.634954419045322,2.1261070988233417,0,Fixed-Wing
1970-01-01 00:00:27.586941101,5153,1532985303809327481,base_link,0,1,40.5918641,-79.895912,366.945717106,0.422499969006,0.0,0.0,0.0,0.422499969006,0.0,0.0,0.0,1.68999987602,1,452.56726332757404,183.08364483306696,366.9270505922591,0.4456091296011304,-15.30172368503216,1.500903069960298,0,Fixed-Wing
1970-01-01 00:00:27.972822256,5155,1532985304194989498,base_link,0,1,40.5918091,-79.8959107,367.085741496,0.36000002861,0.0,0.0,0.0,0.36000002861,0.0,0.0,0.0,1.44000011444,1,452.6776981024641,176.97577169880486,367.0672399717157,0.2761649538245861,-15.273997740016787,0.35057248536865393,0,Fixed-Wing
1970-01-01 00:00:28.397786279,5157,1532985304619641737,base_link,0,1,40.5917533,-79.8959108,366.885764801,0.36000002861,0.0,0.0,0.0,0.36000002861,0.0,0.0,0.0,1.44000011444,1,452.6695945187891,170.7790400845754,366.86743318891115,-0.02026468396070578,-15.496206713970356,-0.49965811042759023,0,Fixed-Wing
1970-01-01 00:00:28.820962905,5159,1532985305043298481,base_link,0,1,40.5916962,-79.8959118,366.235787744,0.36000002861,0.0,0.0,0.0,0.36000002861,0.0,0.0,0.0,1.44000011444,1,452.58527641600426,164.4379245135267,366.2176291426211,-0.21085482344971088,-15.857268606002956,-1.6249691695155322,0,Fixed-Wing
1970-01-01 00:00:29.174816881,5161,1532985305397221046,base_link,0,1,40.5916373,-79.8959138,365.405810434,0.422499969006,0.0,0.0,0.0,0.422499969006,0.0,0.0,0.0,1.68999987602,1,452.41630041129105,157.89690637070717,365.3878294800456,-0.4225593848092471,-16.357166256516276,-2.0750853680552517,0,Fixed-Wing
1970-01-01 00:00:29.616412498,5163,1532985305838411050,base_link,0,1,40.5915766,-79.895916,364.645833693,0.422499969006,0.0,0.0,0.0,0.422499969006,0.0,0.0,0.0,1.68999987602,1,452.2304097940435,151.15599634785568,364.628029609288,-0.4648578654658371,-16.8570371701293,-1.9000364371875154,0,Fixed-Wing
1970-01-01 00:00:29.983370168,5165,1532985306205784314,base_link,0,1,40.5915145,-79.8959169,364.095858893,0.422499969006,0.0,0.0,0.0,0.422499969006,0.0,0.0,0.0,1.68999987602,1,452.15459765140986,144.2596261256033,364.0782202671505,-0.18958391403984512,-17.24579749342286,-1.3749117679180634,0,Fixed-Wing
1970-01-01 00:00:30.363386214,5167,1532985306584915679,base_link,0,1,40.5914517,-79.8959175,363.655884715,0.422499969006,0.0,0.0,0.0,0.422499969006,0.0,0.0,0.0,1.68999987602,1,452.10419509092213,137.28552442948308,363.63840395229255,-0.12604200808659852,-17.440181091458875,-1.0998514951923377,0,Fixed-Wing
1970-01-01 00:00:30.779552923,5169,1532985307001907437,base_link,0,1,40.5913884,-79.8959198,363.535909023,0.422499969006,0.0,0.0,0.0,0.422499969006,0.0,0.0,0.0,1.68999987602,1,451.90990079913325,130.25589542045498,363.5185897978015,-0.48587298859147354,-17.579038600975025,-0.299620028885792,0,Fixed-Wing
1970-01-01 00:00:31.167447825,5171,1532985307389811296,base_link,0,1,40.5913254,-79.8959239,363.735931376,0.422499969006,0.0,0.0,0.0,0.422499969006,0.0,0.0,0.0,1.68999987602,1,451.56324321375354,123.2595794336523,363.7187760461162,-0.8668888595521153,-17.495732511441158,0.5006070422762128,0,Fixed-Wing
1970-01-01 00:00:31.575301144,5173,1532985307797701501,base_link,0,1,40.5912625,-79.8959298,363.945951859,0.36000002861,0.0,0.0,0.0,0.36000002861,0.0,0.0,0.0,1.44000011444,1,451.06420129263427,116.27435929692084,363.92896327157837,-1.2479573507497659,-17.467985047604625,0.5256165503308784,0,Fixed-Wing
1970-01-01 00:00:32.007226527,5175,1532985308229530525,base_link,0,1,40.5911996,-79.8959382,364.065969795,0.36000002861,0.0,0.0,0.0,0.36000002861,0.0,0.0,0.0,1.44000011444,1,450.35350783323156,109.28912447552833,364.04915516797945,-1.7772357175969842,-17.468021769631196,0.30056465051647474,0,Fixed-Wing
1970-01-01 00:00:32.381830021,5177,1532985308604073588,base_link,0,1,40.5911364,-79.895949,364.015985413,0.36000002861,0.0,0.0,0.0,0.36000002861,0.0,0.0,0.0,1.44000011444,1,449.4396244135423,102.27055883851588,363.9993518360101,-2.2853541617739124,-17.55137235522146,-0.12454351346598368,0,Fixed-Wing
1970-01-01 00:00:32.817243600,5179,1532985309038489612,base_link,0,1,40.5910728,-79.8959644,363.715996497,0.36000002861,0.0,0.0,0.0,0.36000002861,0.0,0.0,0.0,1.44000011444,1,448.13629832145307,95.20754539503986,363.69956409408474,-3.2592359643829574,-17.662523271514264,-0.7496811397353321,0,Fixed-Wing
1970-01-01 00:00:33.189051286,5181,1532985309411078270,base_link,0,1,40.5910101,-79.8959881,363.295998697,0.36000002861,0.0,0.0,0.0,0.36000002861,0.0,0.0,0.0,1.44000011444,1,446.1302947797314,88.24443629377424,363.27980709414385,-5.016425994647658,-17.412691838608445,-1.0496890370051715,0,Fixed-Wing
1970-01-01 00:00:33.579943597,5183,1532985309798833990,base_link,0,1,40.59095,-79.8960227,362.935988623,0.36000002861,0.0,0.0,0.0,0.36000002861,0.0,0.0,0.0,1.44000011444,1,443.2015026474862,81.57001067148457,362.9200899703775,-7.324049374561259,-16.69077920084843,-0.8995469314240243,0,Fixed-Wing
1970-01-01 00:00:33.973589573,5185,1532985310189365269,base_link,0,1,40.5908953,-79.8960684,362.675964882,0.36000002861,0.0,0.0,0.0,0.36000002861,0.0,0.0,0.0,1.44000011444,1,439.33297267623533,75.49521539371591,362.660408453054,-9.67405784946971,-15.191279730945636,-0.6493872452054853,0,Fixed-Wing
1970-01-01 00:00:34.393709405,5187,1532985310616074057,base_link,0,1,40.5908478,-79.8961252,362.755926706,0.36000002861,0.0,0.0,0.0,0.36000002861,0.0,0.0,0.0,1.44000011444,1,434.52470811077654,70.21994839483483,362.7407595826696,-12.024058210091313,-13.191894207316265,0.20093458806018108,0,Fixed-Wing
1970-01-01 00:00:34.800384630,5189,1532985311020203012,base_link,0,1,40.5908081,-79.8961906,363.215876404,0.36000002861,0.0,0.0,0.0,0.36000002861,0.0,0.0,0.0,1.44000011444,1,428.9883519785416,65.81085465552576,363.20113063306536,-13.844801487007507,-11.02584915065774,1.151252854920855,0,Fixed-Wing
1970-01-01 00:00:35.196173399,5191,1532985311418323514,base_link,0,1,40.5907772,-79.8962608,363.675817453,0.36000002861,0.0,0.0,0.0,0.36000002861,0.0,0.0,0.0,1.44000011444,1,423.0455735519591,62.37900206065257,363.6615026061302,-14.861144339732206,-8.582055917979808,1.1512551622455003,0,Fixed-Wing
1970-01-01 00:00:35.585497319,5193,1532985311807883437,base_link,0,1,40.5907553,-79.8963347,364.225750895,0.36000002861,0.0,0.0,0.0,0.36000002861,0.0,0.0,0.0,1.44000011444,1,416.7895032239303,59.94660830678282,364.211870703787,-15.644595418277623,-6.082702748200733,1.3763090514489293,0,Fixed-Wing
1970-01-01 00:00:35.997859029,5195,1532985312220241530,base_link,0,1,40.5907423,-79.8964103,364.825678826,0.36000002861,0.0,0.0,0.0,0.36000002861,0.0,0.0,0.0,1.44000011444,1,410.38945745238044,58.50257803897367,364.8122264751465,-16.004635738470757,-3.6110958040875403,1.501313549476449,0,Fixed-Wing
1970-01-01 00:00:36.401524692,5197,1532985312624010174,base_link,0,1,40.5907359,-79.8964855,365.265604377,0.36000002861,0.0,0.0,0.0,0.36000002861,0.0,0.0,0.0,1.44000011444,1,404.0232214765204,57.79149910808306,365.25256437228023,-15.920087364330513,-1.7781996686329085,1.1011558193533644,0,Fixed-Wing
1970-01-01 00:00:36.789687115,5199,1532985313010864392,base_link,0,1,40.5907339,-79.8965599,365.555528891,0.36000002861,0.0,0.0,0.0,0.36000002861,0.0,0.0,0.0,1.44000011444,1,397.72467464302355,57.5690582807641,365.5428861906373,-15.750816689456915,-0.5562592115246617,0.7260096436170361,0,Fixed-Wing
1970-01-01 00:00:37.195187945,5201,1532985313416260705,base_link,0,1,40.5907345,-79.8966335,365.695453132,0.36000002861,0.0,0.0,0.0,0.36000002861,0.0,0.0,0.0,1.44000011444,1,391.493829147556,57.63536116767597,365.6831947600497,-15.581515516802297,0.16580405692575773,0.3508705444596966,0,Fixed-Wing
1970-01-01 00:00:37.613740752,5203,1532985313836190084,base_link,0,1,40.5907368,-79.8967063,365.705377483,0.36000002861,0.0,0.0,0.0,0.36000002861,0.0,0.0,0.0,1.44000011444,1,385.33069252769974,57.890460647380735,365.6934915606098,-15.412195494868023,0.6379289141801756,0.02574927557066606,0,Fixed-Wing
1970-01-01 00:00:38.037908511,5205,1532985314260276839,base_link,0,1,40.5907393,-79.8967787,365.415302169,0.36000002861,0.0,0.0,0.0,0.36000002861,0.0,0.0,0.0,1.44000011444,1,379.201400687825,58.16777468012043,365.40378052587477,-15.32755963528378,0.6934809902289795,-0.7244822530740807,0,Fixed-Wing
1970-01-01 00:00:38.380144111,5207,1532985314602504888,base_link,0,1,40.5907412,-79.8968509,364.965227324,0.36000002861,0.0,0.0,0.0,0.36000002861,0.0,0.0,0.0,1.44000011444,1,373.0890355044276,58.37846167858109,364.95406369141915,-15.285231036261246,0.5268663358915368,-1.1246097884042603,0,Fixed-Wing
1970-01-01 00:00:38.779127467,5209,1532985315001296326,base_link,0,1,40.5907424,-79.8969236,364.385152271,0.36000002861,0.0,0.0,0.0,0.36000002861,0.0,0.0,0.0,1.44000011444,1,366.93433875281977,58.5114137233418,364.37434393926117,-15.391089861905598,0.33247403581690266,-1.449708923165756,0,Fixed-Wing
1970-01-01 00:00:39.206373252,5211,1532985315428764484,base_link,0,1,40.590742,-79.8969968,363.845077393,0.36000002861,0.0,0.0,0.0,0.36000002861,0.0,0.0,0.0,1.44000011444,1,360.73732506510225,58.46668537602815,363.8346224535668,-15.496912096961179,-0.11185246660594325,-1.3496850002485001,0,Fixed-Wing
1970-01-01 00:00:39.609822513,5213,1532985315831647361,base_link,0,1,40.5907402,-79.8970701,363.555003014,0.36000002861,0.0,0.0,0.0,0.36000002861,0.0,0.0,0.0,1.44000011444,1,354.531867794105,58.266490788306044,363.544897350445,-15.518027020126365,-0.5006278966860862,-0.7245174339795543,0,Fixed-Wing
1970-01-01 00:00:39.995838136,5215,1532985316215030970,base_link,0,1,40.5907377,-79.897143,363.394929349,0.36000002861,0.0,0.0,0.0,0.36000002861,0.0,0.0,0.0,1.44000011444,1,348.3602847789658,57.98856750883243,363.38516578669794,-15.43331745002754,-0.6950045374658634,-0.3994417516625268,0,Fixed-Wing
1970-01-01 00:00:40.400264143,5217,1532985316622244950,base_link,0,1,40.5907343,-79.8972149,363.424857099,0.36000002861,0.0,0.0,0.0,0.36000002861,0.0,0.0,0.0,1.44000011444,1,342.27337464780874,57.61070785057055,363.4154260325995,-15.221575422949691,-0.9449160844485647,0.07567199209166302,0,Fixed-Wing
1970-01-01 00:00:40.773706112,5219,1532985316995962562,base_link,0,1,40.5907307,-79.8972866,363.624785147,0.36000002861,0.0,0.0,0.0,0.36000002861,0.0,0.0,0.0,1.44000011444,1,336.20340544592995,57.21064497988047,363.61568006151947,-15.179211131841724,-1.0004398009689697,0.5007765416729513,0,Fixed-Wing
1970-01-01 00:00:41.225197959,5221,1532985317444098536,base_link,0,1,40.5907286,-79.8973582,363.944712671,0.36000002861,0.0,0.0,0.0,0.36000002861,0.0,0.0,0.0,1.44000011444,1,330.1418998657408,56.97716700790917,363.9359258476893,-15.158046098495662,-0.5838598703416139,0.800840702923163,0,Fixed-Wing
1970-01-01 00:00:41.615091340,5223,1532985317837179319,base_link,0,1,40.5907272,-79.8974295,364.114640214,0.36000002861,0.0,0.0,0.0,0.36000002861,0.0,0.0,0.0,1.44000011444,1,324.10577979362165,56.82143036118282,364.1061639082428,-15.094564394739416,-0.3894516369033088,0.4257154159888054,0,Fixed-Wing
1970-01-01 00:00:42.003754854,5225,1532985318220699645,base_link,0,1,40.5907268,-79.8975014,363.994566729,0.36000002861,0.0,0.0,0.0,0.36000002861,0.0,0.0,0.0,1.44000011444,1,318.01884500031775,56.77674620208242,363.9863967741967,-15.221637095739288,-0.11174196485606884,-0.29950244455590797,0,Fixed-Wing
1970-01-01 00:00:42.382697428,5227,1532985318604871720,base_link,0,1,40.5907275,-79.8975743,363.684491762,0.36000002861,0.0,0.0,0.0,0.36000002861,0.0,0.0,0.0,1.44000011444,1,311.8472376929407,56.8542193668074,363.67662540157477,-15.43337819778345,0.19373764269650678,-0.7746472694084179,0,Fixed-Wing
1970-01-01 00:00:42.796709909,5229,1532985319018658111,base_link,0,1,40.5907291,-79.8976486,363.254414991,0.36000002861,0.0,0.0,0.0,0.36000002861,0.0,0.0,0.0,1.44000011444,1,305.55709969254013,57.031638811194455,363.2468510346517,-15.7297886662997,0.44367394885819145,-1.0747395312252812,0,Fixed-Wing
1970-01-01 00:00:43.213725331,5231,1532985319435792095,base_link,0,1,40.5907316,-79.8977233,362.774337439,0.36000002861,0.0,0.0,0.0,0.36000002861,0.0,0.0,0.0,1.44000011444,1,299.23309317765046,57.30900883403143,362.7670703761801,-15.814483878919981,0.6936210050263605,-1.1997905870198615,0,Fixed-Wing
1970-01-01 00:00:43.565045712,5233,1532985319787345156,base_link,0,1,40.5907344,-79.8977984,362.50425936,0.36000002861,0.0,0.0,0.0,0.36000002861,0.0,0.0,0.0,1.44000011444,1,292.87523310314145,57.61970044922603,362.49728417021413,-15.899141693801013,0.7769485259450783,-0.6746561052645943,0,Fixed-Wing
1970-01-01 00:00:43.981853471,5235,1532985320204279412,base_link,0,1,40.5907368,-79.8978728,362.354182178,0.36000002861,0.0,0.0,0.0,0.36000002861,0.0,0.0,0.0,1.44000011444,1,286.57664196097306,57.88597989988534,362.34749026217844,-15.750927492437592,0.6658867396522307,-0.3745905919314457,0,Fixed-Wing
1970-01-01 00:00:44.451834174,5237,1532985320674058691,base_link,0,1,40.5907378,-79.8979471,362.044105698,0.36000002861,0.0,0.0,0.0,0.36000002861,0.0,0.0,0.0,1.44000011444,1,280.2865162146312,57.99679025932039,362.03769188103956,-15.729758022495998,0.27710418051862046,-0.7747148097809526,0,Fixed-Wing
1970-01-01 00:00:44.754091429,5239,1532985320976419666,base_link,0,1,40.5907369,-79.8980218,362.054029621,0.36000002861,0.0,0.0,0.0,0.36000002861,0.0,0.0,0.0,1.44000011444,1,273.9625494488785,57.89660817754577,362.04789108221337,-15.81438447799675,-0.2505259780253404,0.025505208155816007,0,Fixed-Wing
1970-01-01 00:00:45.182768427,5241,1532985321405142796,base_link,0,1,40.5907352,-79.8980962,362.413954199,0.36000002861,0.0,0.0,0.0,0.36000002861,0.0,0.0,0.0,1.44000011444,1,267.6639978231004,57.70759368500708,362.40808441693605,-15.75082867354564,-0.4726697605540795,0.9007377952338547,0,Fixed-Wing
1970-01-01 00:00:45.591792203,5243,1532985321813997396,base_link,0,1,40.5907332,-79.8981697,362.823879832,0.36000002861,0.0,0.0,0.0,0.36000002861,0.0,0.0,0.0,1.44000011444,1,261.4416408171062,57.48527191559907,362.81826977418234,-15.560288296429201,-0.5559614826388753,1.0257531683857977,0,Fixed-Wing
1970-01-01 00:00:45.993893933,5245,1532985322216138379,base_link,0,1,40.590732,-79.8982425,363.003805853,0.36000002861,0.0,0.0,0.0,0.36000002861,0.0,0.0,0.0,1.44000011444,1,255.2785311949996,57.351797143020946,362.998446281501,-15.412127981421223,-0.3337812246412751,0.4505685539131379,0,Fixed-Wing
1970-01-01 00:00:46.390745648,5247,1532985322613148713,base_link,0,1,40.5907318,-79.8983154,362.953731359,0.36000002861,0.0,0.0,0.0,0.36000002861,0.0,0.0,0.0,1.44000011444,1,249.10694249788486,57.32937744772252,362.9486156542429,-15.433331658980519,-0.05606507663020893,-0.12461177097062845,0,Fixed-Wing
1970-01-01 00:00:46.821860542,5249,1532985323043944896,base_link,0,1,40.590731,-79.8983892,362.933656206,0.36000002861,0.0,0.0,0.0,0.36000002861,0.0,0.0,0.0,1.44000011444,1,242.85916473354695,57.24032924504198,362.9287819035642,-15.623858150772373,-0.22268341476603232,-0.04959838824139231,0,Fixed-Wing
1970-01-01 00:00:47.180144869,5251,1532985323402587700,base_link,0,1,40.5907294,-79.8984642,362.903580172,0.36000002861,0.0,0.0,0.0,0.36000002861,0.0,0.0,0.0,1.44000011444,1,236.5097993885361,57.06244109414257,362.8989457188436,-15.877898868957612,-0.4448460462565828,-0.07461153956137533,0,Fixed-Wing
1970-01-01 00:00:47.587459840,5253,1532985323809723737,base_link,0,1,40.5907276,-79.89854,363.013503414,0.36000002861,0.0,0.0,0.0,0.36000002861,0.0,0.0,0.0,1.44000011444,1,230.09271291590352,56.862347045186226,363.00910513097836,-16.047249529573545,-0.5003764787461077,0.27547635240642704,0,Fixed-Wing
1970-01-01 00:00:48.050511549,5255,1532985324265730789,base_link,0,1,40.5907262,-79.8986159,363.153426394,0.36000002861,0.0,0.0,0.0,0.36000002861,0.0,0.0,0.0,1.44000011444,1,223.6671597672091,56.70667946313537,363.1492577305422,-16.0684222010078,-0.3892789264238474,0.3504805096536326,0,Fixed-Wing
1970-01-01 00:00:48.358107186,5257,1532985324580149820,base_link,0,1,40.5907245,-79.8986912,363.293350124,0.36000002861,0.0,0.0,0.0,0.36000002861,0.0,0.0,0.0,1.44000011444,1,217.29240200528483,56.5177031913814,363.28940318015896,-15.941397849703257,-0.4725741815912307,0.35046262973474734,0,Fixed-Wing
1970-01-01 00:00:48.765675992,5259,1532985324987790738,base_link,0,1,40.5907225,-79.898767,363.193273478,0.36000002861,0.0,0.0,0.0,0.36000002861,0.0,0.0,0.0,1.44000011444,1,210.87530751981728,56.29541333545461,363.18954357952987,-16.047269567321628,-0.5558816763905527,-0.24971954734484533,0,Fixed-Wing
1970-01-01 00:00:49.182165959,5261,1532985325404123907,base_link,0,1,40.5907211,-79.8988445,363.223194851,0.36000002861,0.0,0.0,0.0,0.36000002861,0.0,0.0,0.0,1.44000011444,1,204.3142961079208,56.13975761635376,363.2196795586804,-16.407163553445066,-0.3892492606682623,0.07536123742593116,0,Fixed-Wing
1970-01-01 00:00:49.550904528,5263,1532985325772076638,base_link,0,1,40.5907203,-79.8989225,363.50311547,0.36000002861,0.0,0.0,0.0,0.36000002861,0.0,0.0,0.0,1.44000011444,1,197.71096119093937,56.050740157816136,363.4998087652176,-16.513002215579462,-0.22260653268954922,0.7005209135010559,0,Fixed-Wing
1970-01-01 00:00:49.968219821,5265,1532985326177950300,base_link,0,1,40.5907208,-79.8990004,363.503035654,0.36000002861,0.0,0.0,0.0,0.36000002861,0.0,0.0,0.0,1.44000011444,1,191.11607928551143,56.106094348964234,363.4999291858719,-16.491863715069357,0.13842458281488945,0.00030113670686458707,0,Fixed-Wing
1970-01-01 00:00:50.387254909,5267,1532985326608969422,base_link,0,1,40.5907235,-79.8990781,363.312955127,0.36000002861,0.0,0.0,0.0,0.36000002861,0.0,0.0,0.0,1.44000011444,1,184.5381176010147,56.405768278793005,363.310039435275,-16.44955120945849,0.7493965290913951,-0.47485852402536977,0,Fixed-Wing
1970-01-01 00:00:50.779731663,5269,1532985327002073555,base_link,0,1,40.5907274,-79.8991559,362.982874002,0.36000002861,0.0,0.0,0.0,0.36000002861,0.0,0.0,0.0,1.44000011444,1,177.9516839261491,56.8387093533033,362.9801413446746,-16.470737170414687,1.0826585373125313,-0.8249782828657899,0,Fixed-Wing
1970-01-01 00:00:51.161605229,5271,1532985327383810127,base_link,0,1,40.5907321,-79.899234,362.702792245,0.36000002861,0.0,0.0,0.0,0.36000002861,0.0,0.0,0.0,1.44000011444,1,171.3398535183644,57.3604979372499,362.7002356830553,-16.534246944223444,1.304840077188311,-0.6999618932830916,0,Fixed-Wing
1970-01-01 00:00:51.591923555,5273,1532985327814150912,base_link,0,1,40.5907368,-79.8993119,362.602710704,0.36000002861,0.0,0.0,0.0,0.36000002861,0.0,0.0,0.0,1.44000011444,1,164.7449609095818,57.882294352754,362.60032291463267,-16.49189048101739,1.3048596616146533,-0.2498525043891276,0,Fixed-Wing
1970-01-01 00:00:51.959701405,5275,1532985328181861063,base_link,0,1,40.5907401,-79.8993896,362.632629967,0.36000002861,0.0,0.0,0.0,0.36000002861,0.0,0.0,0.0,1.44000011444,1,158.1670075958797,58.248624868622755,362.6304051026416,-16.44953027655837,0.9160850837080314,0.0752267215711409,0,Fixed-Wing
1970-01-01 00:00:52.362384185,5277,1532985328584684613,base_link,0,1,40.5907418,-79.8994664,362.732550833,0.36000002861,0.0,0.0,0.0,0.36000002861,0.0,0.0,0.0,1.44000011444,1,151.6652525664998,58.43727964815233,362.73048192486505,-16.258980735507585,0.47177022391218326,0.2502627547868696,0,Fixed-Wing
1970-01-01 00:00:52.787447459,5279,1532985329009568341,base_link,0,1,40.5907414,-79.8995426,362.912473205,0.36000002861,0.0,0.0,0.0,0.36000002861,0.0,0.0,0.0,1.44000011444,1,145.21429897211806,58.39273191726096,362.9105546178349,-16.131941259360094,-0.1114007979538386,0.4503089447015597,0,Fixed-Wing
1970-01-01 00:00:53.153020248,5281,1532985329374357140,base_link,0,1,40.5907396,-79.899619,363.05239597,0.36000002861,0.0,0.0,0.0,0.36000002861,0.0,0.0,0.0,1.44000011444,1,138.7464153113477,58.19271580431132,363.05062298189443,-16.17427838556981,-0.5001815836714885,0.35026986138463156,0,Fixed-Wing
1970-01-01 00:00:53.565799164,5283,1532985329788114436,base_link,0,1,40.5907374,-79.8996963,363.132317995,0.422499969006,0.0,0.0,0.0,0.422499969006,0.0,0.0,0.0,1.68999987602,1,132.20233813157003,57.94828245943174,363.1306860309188,-16.364816009967,-0.611256042030828,0.20021418306765357,0,Fixed-Wing
1970-01-01 00:00:53.975612364,5285,1532985330197739003,base_link,0,1,40.5907346,-79.8997749,363.042238955,0.36000002861,0.0,0.0,0.0,0.36000002861,0.0,0.0,0.0,1.44000011444,1,125.54820239838068,57.63722004926649,363.04074407059096,-16.640040144314142,-0.7778757753196505,-0.22491844027900093,0,Fixed-Wing
1970-01-01 00:00:54.368941302,5287,1532985330591130999,base_link,0,1,40.5907317,-79.8998545,362.832158947,0.422499969006,0.0,0.0,0.0,0.422499969006,0.0,0.0,0.0,1.68999987602,1,118.80940597699308,57.31505592532923,362.8307958706938,-16.851751673316723,-0.8056379025506103,-0.5250188175588492,0,Fixed-Wing
1970-01-01 00:00:54.751122963,5289,1532985330971813078,base_link,0,1,40.5907302,-79.8999357,362.962076728,0.36000002861,0.0,0.0,0.0,0.36000002861,0.0,0.0,0.0,1.44000011444,1,111.93515981920845,57.14837219982141,362.96083931302405,-17.19047170271758,-0.4168270674161038,0.3252004749597953,0,Fixed-Wing
1970-01-01 00:00:55.165689109,5291,1532985331386548367,base_link,0,1,40.5907315,-79.9000169,363.331993344,0.36000002861,0.0,0.0,0.0,0.36000002861,0.0,0.0,0.0,1.44000011444,1,105.06091263935708,57.292643526672066,363.3308713968221,-17.19047425860647,0.36078023754374755,0.9253416185023197,0,Fixed-Wing
1970-01-01 00:00:55.578381672,5293,1532985331800465631,base_link,0,1,40.5907371,-79.9000969,363.79190939,0.36000002861,0.0,0.0,0.0,0.36000002861,0.0,0.0,0.0,1.44000011444,1,98.28824994612361,57.914448488126425,363.79088961812715,-16.936441277744642,1.5549516774847865,1.1503705329382126,0,Fixed-Wing
1970-01-01 00:00:55.966226385,5295,1532985332188203900,base_link,0,1,40.590747,-79.9001746,364.221825988,0.36000002861,0.0,0.0,0.0,0.36000002861,0.0,0.0,0.0,1.44000011444,1,91.71029511672936,59.013786969657986,364.2208939460298,-16.449534066859535,2.7491228310286675,1.0753145961299635,0,Fixed-Wing
1970-01-01 00:00:56.363448346,5297,1532985332585709899,base_link,0,1,40.5907608,-79.9002502,364.421743104,0.36000002861,0.0,0.0,0.0,0.36000002861,0.0,0.0,0.0,1.44000011444,1,85.31011565014492,60.546235492946664,364.42088534921993,-16.004970070506,3.832203905825092,0.5001197918165731,0,Fixed-Wing
1970-01-01 00:00:56.767310775,5299,1532985332989220529,base_link,0,1,40.5907796,-79.9003237,364.351660278,0.36000002861,0.0,0.0,0.0,0.36000002861,0.0,0.0,0.0,1.44000011444,1,79.08771146886664,62.633950689466786,364.35086238837437,-15.560406267966398,5.220762856807354,-0.1751068698046271,0,Fixed-Wing
1970-01-01 00:00:57.275405342,5301,1532985333497468215,base_link,0,1,40.5908052,-79.9003945,364.511577366,0.36000002861,0.0,0.0,0.0,0.36000002861,0.0,0.0,0.0,1.44000011444,1,73.09388327076951,65.47683172660197,364.51082225760774,-14.988804832608047,7.109210944929908,0.40001267666459694,0,Fixed-Wing
1970-01-01 00:00:57.581766160,5303,1532985333803902009,base_link,0,1,40.5908362,-79.9004624,364.541495165,0.36000002861,0.0,0.0,0.0,0.36000002861,0.0,0.0,0.0,1.44000011444,1,67.3455612283932,68.91940135406429,364.54076689109706,-14.374866005587368,8.608856070495714,0.074882738096817,0,Fixed-Wing
1970-01-01 00:00:58.017999870,5305,1532985334235625952,base_link,0,1,40.5908737,-79.9005252,364.501415456,0.36000002861,0.0,0.0,0.0,0.36000002861,0.0,0.0,0.0,1.44000011444,1,62.028994138675635,73.08381865441808,364.50069455416605,-13.29517361083896,10.413985201703957,-0.10020915141282044,0,Fixed-Wing
1970-01-01 00:00:58.393566196,5307,1532985334606497973,base_link,0,1,40.5909201,-79.9005799,364.511340297,0.36000002861,0.0,0.0,0.0,0.36000002861,0.0,0.0,0.0,1.44000011444,1,57.398156166041325,78.2366116773828,364.51060141363894,-11.580366385089564,12.885622745837487,0.024774147378864374,0,Fixed-Wing
1970-01-01 00:00:58.806960156,5309,1532985335029054316,base_link,0,1,40.5909728,-79.9006263,364.341270981,0.422499969006,0.0,0.0,0.0,0.422499969006,0.0,0.0,0.0,1.68999987602,1,53.469979363897274,84.08904020932096,364.3404915361382,-9.82321706418076,14.63520577547697,-0.42539486780202773,0,Fixed-Wing
1970-01-01 00:00:59.211178203,5311,1532985335433274121,base_link,0,1,40.5910303,-79.9006639,363.851208648,0.422499969006,0.0,0.0,0.0,0.422499969006,0.0,0.0,0.0,1.68999987602,1,50.2867924330043,90.47452235231927,363.8503674638605,-7.96021608827737,15.968216378622744,-1.2256564286353262,0,Fixed-Wing
1970-01-01 00:00:59.606568495,5313,1532985335828523643,base_link,0,1,40.5910935,-79.9006896,363.31115608,0.422499969006,0.0,0.0,0.0,0.422499969006,0.0,0.0,0.0,1.68999987602,1,48.111035046956225,97.49300902186187,363.3102279861389,-5.4409305279943485,17.551174880760307,-1.3507302756068478,0,Fixed-Wing
1970-01-01 00:00:59.987643102,5315,1532985336205948224,base_link,0,1,40.5911611,-79.900702,362.921115247,0.422499969006,0.0,0.0,0.0,0.422499969006,0.0,0.0,0.0,1.68999987602,1,47.0612279034191,105.00013503049851,362.9200755189566,-2.625259494650046,18.7731184275474,-0.9756567909992173,0,Fixed-Wing
1970-01-01 00:01:00.390982154,5317,1532985336613041278,base_link,0,1,40.591231,-79.9007019,362.85108621,0.36000002861,0.0,0.0,0.0,0.36000002861,0.0,0.0,0.0,1.44000011444,1,47.06964414536814,112.76269301889974,362.84991358819616,0.02104655052311141,19.41187882677163,-0.1754543927670433,0,Fixed-Wing
1970-01-01 00:01:00.795261600,5319,1532985337017490450,base_link,0,1,40.5913004,-79.9006928,363.181066571,0.36000002861,0.0,0.0,0.0,0.36000002861,0.0,0.0,0.0,1.44000011444,1,47.8399816222947,120.46973718212334,363.17974697127545,1.9263878968972825,19.273055046109526,0.8248164683505338,0,Fixed-Wing
1970-01-01 00:01:01.198416902,5321,1532985337420340532,base_link,0,1,40.5913678,-79.9006803,363.611051249,0.36000002861,0.0,0.0,0.0,0.36000002861,0.0,0.0,0.0,1.44000011444,1,48.89815519554428,127.9546814841176,363.60957752001843,2.646181479391868,18.717648490684272,1.0748800254646547,0,Fixed-Wing
1970-01-01 00:01:01.585742494,5323,1532985337808107989,base_link,0,1,40.5914336,-79.9006693,364.081035085,0.36000002861,0.0,0.0,0.0,0.36000002861,0.0,0.0,0.0,1.44000011444,1,49.829342197785444,135.26194324072807,364.079403016942,2.328625342262106,18.27331660346666,1.1748956503301944,0,Fixed-Wing
1970-01-01 00:01:01.984276468,5325,1532985338206722810,base_link,0,1,40.5914982,-79.9006623,364.261015368,0.36000002861,0.0,0.0,0.0,0.36000002861,0.0,0.0,0.0,1.44000011444,1,50.421896855747505,142.43593462522296,364.2592220985057,1.48180525488966,17.940046524380346,0.44967473702236993,0,Fixed-Wing
1970-01-01 00:01:02.386778663,5327,1532985338609175479,base_link,0,1,40.5915627,-79.9006592,364.230991741,0.36000002861,0.0,0.0,0.0,0.36000002861,0.0,0.0,0.0,1.44000011444,1,50.68428559297169,149.59881411640316,364.22903201810607,0.656157207471574,17.912258941101378,-0.07549652876842822,0,Fixed-Wing
1970-01-01 00:01:02.761603468,5329,1532985338983906670,base_link,0,1,40.5916273,-79.9006605,363.920963615,0.36000002861,0.0,0.0,0.0,0.36000002861,0.0,0.0,0.0,1.44000011444,1,50.57418006527047,156.77278943199036,363.91883205151396,-0.27534160325597523,17.940006340759265,-0.7757190571139059,0,Fixed-Wing
1970-01-01 00:01:03.205684918,5331,1532985339427651160,base_link,0,1,40.5916928,-79.9006659,363.430930963,0.36000002861,0.0,0.0,0.0,0.36000002861,0.0,0.0,0.0,1.44000011444,1,50.116978721052874,164.04670428103657,363.42861962413747,-1.1433263502379283,18.18992577664742,-1.225877378800739,0,Fixed-Wing
1970-01-01 00:01:03.574690752,5333,1532985339796932845,base_link,0,1,40.5917589,-79.9006744,362.94089493,0.36000002861,0.0,0.0,0.0,0.36000002861,0.0,0.0,0.0,1.44000011444,1,49.39734129218347,171.38724779311144,362.938395707474,-1.7996019597271342,18.356544504009566,-1.225906110134781,0,Fixed-Wing
1970-01-01 00:01:03.997482509,5335,1532985340219922451,base_link,0,1,40.5918261,-79.9006839,362.490857448,0.36000002861,0.0,0.0,0.0,0.36000002861,0.0,0.0,0.0,1.44000011444,1,48.5930480192705,178.84994848602412,362.48815900639636,-2.0113013749208446,18.662023753992194,-1.125909822218883,0,Fixed-Wing
1970-01-01 00:01:04.396500313,5337,1532985340618506802,base_link,0,1,40.591894,-79.9006922,362.110820921,0.36000002861,0.0,0.0,0.0,0.36000002861,0.0,0.0,0.0,1.44000011444,1,47.89034464033858,186.3903876450833,362.10791136690415,-1.7572548718310794,18.856424837664616,-0.9508877245127023,0,Fixed-Wing
1970-01-01 00:01:04.779359944,5339,1532985341001681190,base_link,0,1,40.5919625,-79.9006987,361.850786003,0.36000002861,0.0,0.0,0.0,0.36000002861,0.0,0.0,0.0,1.44000011444,1,47.340025285614686,193.9974620861818,361.84765316560987,-1.3761871596823514,19.023060117229342,-0.6508293625306089,0,Fixed-Wing
1970-01-01 00:01:05.222362425,5341,1532985341444767909,base_link,0,1,40.5920313,-79.9007028,361.810753427,0.36000002861,0.0,0.0,0.0,0.36000002861,0.0,0.0,0.0,1.44000011444,1,46.99288436774796,201.63785999028528,361.80738561589897,-0.8680975322196631,19.106392316087994,-0.10069732127051993,0,Fixed-Wing
1970-01-01 00:01:05.606099948,5343,1532985341828525365,base_link,0,1,40.5920994,-79.9007046,361.880723505,0.36000002861,0.0,0.0,0.0,0.36000002861,0.0,0.0,0.0,1.44000011444,1,46.84045546264584,209.2005260998123,361.87711265797026,-0.3811799460900703,18.912007916053824,0.17436686381725974,0,Fixed-Wing
1970-01-01 00:01:05.987515950,5345,1532985342209882689,base_link,0,1,40.592167,-79.9007042,362.14069605,0.36000002861,0.0,0.0,0.0,0.36000002861,0.0,0.0,0.0,1.44000011444,1,46.87427277483911,216.7076739320504,362.136833702491,0.08456717070890332,18.773173001968317,0.6494860911226051,0,Fixed-Wing
1970-01-01 00:01:06.346985666,5347,1532985342569285889,base_link,0,1,40.5922339,-79.9007024,362.43067033,0.36000002861,0.0,0.0,0.0,0.36000002861,0.0,0.0,0.0,1.44000011444,1,47.0266096411099,224.13708761916544,362.4265494928192,0.38094978399094415,18.578782723907114,0.7244941454166212,0,Fixed-Wing
1970-01-01 00:01:06.791144546,5349,1532985343011692833,base_link,0,1,40.5923006,-79.9006996,362.560645731,0.36000002861,0.0,0.0,0.0,0.36000002861,0.0,0.0,0.0,1.44000011444,1,47.263601456044924,231.54428631200494,362.5562579065713,0.5926469601037896,18.52322954444506,0.32436266683362625,0,Fixed-Wing
1970-01-01 00:01:07.167131013,5351,1532985343388978135,base_link,0,1,40.5923675,-79.9006968,362.500621073,0.36000002861,0.0,0.0,0.0,0.36000002861,0.0,0.0,0.0,1.44000011444,1,47.50059125383595,238.97368873848345,362.4959567960376,0.5926419158187828,18.57875456436069,-0.15079537602801432,0,Fixed-Wing
1970-01-01 00:01:07.566126827,5353,1532985343787924966,base_link,0,1,40.5924352,-79.9006944,362.260595701,0.36000002861,0.0,0.0,0.0,0.36000002861,0.0,0.0,0.0,1.44000011444,1,47.70371621865083,246.4919258191285,362.25564310014124,0.5079559095816643,18.80090395698051,-0.6009540092485163,0,Fixed-Wing
1970-01-01 00:01:07.984975780,5355,1532985344206980695,base_link,0,1,40.5925042,-79.9006916,361.960570225,0.36000002861,0.0,0.0,0.0,0.36000002861,0.0,0.0,0.0,1.44000011444,1,47.94070178703508,254.15452831299183,361.95531439012535,0.5926313393139782,19.161919476910523,-0.7510339421283763,0,Fixed-Wing
1970-01-01 00:01:08.402952370,5357,1532985344625176158,base_link,0,1,40.5925739,-79.900687,361.790546315,0.36000002861,0.0,0.0,0.0,0.36000002861,0.0,0.0,0.0,1.44000011444,1,48.330067988982094,261.89487316764706,361.7849736618867,0.9736905724542503,19.35633029994782,-0.42597215773123565,0,Fixed-Wing
1970-01-01 00:01:08.808952440,5359,1532985345028135043,base_link,0,1,40.5926442,-79.9006774,361.650527268,0.36000002861,0.0,0.0,0.0,0.36000002861,0.0,0.0,0.0,1.44000011444,1,49.14271233164298,269.70185318637414,361.6446222885834,2.032184948900286,19.522965284510562,-0.3509775844258596,0,Fixed-Wing
1970-01-01 00:01:09.193453356,5361,1532985345415726158,base_link,0,1,40.5927141,-79.9006596,361.530516744,0.36000002861,0.0,0.0,0.0,0.36000002861,0.0,0.0,0.0,1.44000011444,1,50.649532504051294,277.464417659692,361.5242662262298,3.7681149234866624,19.411895043644495,-0.30097518137261503,0,Fixed-Wing
1970-01-01 00:01:09.596006688,5363,1532985345818330201,base_link,0,1,40.5927832,-79.9006314,361.330517143,0.36000002861,0.0,0.0,0.0,0.36000002861,0.0,0.0,0.0,1.44000011444,1,53.03676826832199,285.13814298203573,361.323907994398,5.969775872360689,19.18973440582897,-0.5010371225667306,0,Fixed-Wing
1970-01-01 00:01:09.997773051,5365,1532985346220130445,base_link,0,1,40.5928497,-79.9005905,361.150531537,0.36000002861,0.0,0.0,0.0,0.36000002861,0.0,0.0,0.0,1.44000011444,1,56.49912701821674,292.5231415616855,361.14355746902777,8.658342856593856,18.46771357821032,-0.4510037219769974,0,Fixed-Wing
1970-01-01 00:01:10.430982485,5367,1532985346653146025,base_link,0,1,40.592911,-79.9005344,361.170563526,0.36000002861,0.0,0.0,0.0,0.36000002861,0.0,0.0,0.0,1.44000011444,1,61.24824872125575,299.33068907797184,361.16322907778624,11.87615927259203,17.023677979745077,0.04919291889576768,0,Fixed-Wing
1970-01-01 00:01:10.756379593,5369,1532985346978638445,base_link,0,1,40.5929655,-79.9004677,361.260609085,0.36000002861,0.0,0.0,0.0,0.36000002861,0.0,0.0,0.0,1.44000011444,1,66.89471669129487,305.3830950956709,361.2529303913484,14.120158869978583,15.135290763888474,0.22431665335997208,0,Fixed-Wing
1970-01-01 00:01:11.154162183,5371,1532985347376570064,base_link,0,1,40.5930113,-79.9003917,361.360667665,0.36000002861,0.0,0.0,0.0,0.36000002861,0.0,0.0,0.0,1.44000011444,1,73.32848009187198,310.4693583111854,361.3526722059149,16.08895363084348,12.71925122725786,0.2494249989785311,0,Fixed-Wing
1970-01-01 00:01:11.591970381,5373,1532985347814382485,base_link,0,1,40.5930452,-79.9003076,361.610739349,0.36000002861,0.0,0.0,0.0,0.36000002861,0.0,0.0,0.0,1.44000011444,1,80.44795909167453,314.2341189842159,361.6024733798673,17.803727052398685,9.414561296142503,0.6246794068134042,0,Fixed-Wing
1970-01-01 00:01:11.953387653,5375,1532985348175884062,base_link,0,1,40.593066,-79.9002195,362.080820457,0.36000002861,0.0,0.0,0.0,0.36000002861,0.0,0.0,0.0,1.44000011444,1,87.90607280037989,316.5441157068043,362.07234170180396,18.65055305300086,5.776623702666954,1.1750027431165415,0,Fixed-Wing
1970-01-01 00:01:12.367954023,5377,1532985348590335667,base_link,0,1,40.5930749,-79.9001318,362.720906026,0.36000002861,0.0,0.0,0.0,0.36000002861,0.0,0.0,0.0,1.44000011444,1,95.33034030716682,317.532604988036,362.71227153047835,18.565913637569945,2.4719215209088903,1.6002766498395369,0,Fixed-Wing
1970-01-01 00:01:12.774256698,5379,1532985348996585232,base_link,0,1,40.5930744,-79.900048,363.630991475,0.36000002861,0.0,0.0,0.0,0.36000002861,0.0,0.0,0.0,1.44000011444,1,102.42447032080378,317.47721829917674,363.62224993040473,17.740336679204265,-0.13850585005074886,2.2755888536671303,0,Fixed-Wing
1970-01-01 00:01:13.192617221,5381,1532985349415009199,base_link,0,1,40.5930686,-79.8999686,364.711074623,0.36000002861,0.0,0.0,0.0,0.36000002861,0.0,0.0,0.0,1.44000011444,1,109.14613052699623,316.8332635603056,364.7022538596345,16.808899029456956,-1.6103417687274562,2.7007727913879345,0,Fixed-Wing
1970-01-01 00:01:13.557023009,5383,1532985349779403533,base_link,0,1,40.5930603,-79.8998935,365.841154429,0.36000002861,0.0,0.0,0.0,0.36000002861,0.0,0.0,0.0,1.44000011444,1,115.50378131457691,315.9116804108898,365.8322676911653,15.89861832862954,-2.3046089255610305,2.8258328766147582,0,Fixed-Wing
1970-01-01 00:01:14.002459884,5385,1532985350224689713,base_link,0,1,40.593052,-79.8998195,366.591233127,0.36000002861,0.0,0.0,0.0,0.36000002861,0.0,0.0,0.0,1.44000011444,1,121.76830774994856,314.99008202289133,366.5822757292658,15.665741660448202,-2.304647032782941,1.8755499381087033,0,Fixed-Wing
1970-01-01 00:01:14.374301803,5387,1532985350596674968,base_link,0,1,40.593044,-79.899745,366.741312222,0.36000002861,0.0,0.0,0.0,0.36000002861,0.0,0.0,0.0,1.44000011444,1,128.07515230638444,314.1017755300201,366.73227539478944,15.771566858727283,-2.221393775919719,0.3751051310086032,0,Fixed-Wing
1970-01-01 00:01:14.794980213,5389,1532985351017294891,base_link,0,1,40.593036,-79.8996684,366.391393466,0.36000002861,0.0,0.0,0.0,0.36000002861,0.0,0.0,0.0,1.44000011444,1,134.55976449188324,313.21345292641485,366.38226711502307,16.21611151525007,-2.2214340641363055,-0.875267962615366,0,Fixed-Wing
1970-01-01 00:01:15.182069950,5391,1532985351404148540,base_link,0,1,40.5930281,-79.8995882,365.871478346,0.36000002861,0.0,0.0,0.0,0.36000002861,0.0,0.0,0.0,1.44000011444,1,141.3491330124102,312.33623873387813,365.86224848269484,16.97821764780288,-2.193655188932654,-1.3004139477608199,0,Fixed-Wing
1970-01-01 00:01:15.567085537,5393,1532985351789448111,base_link,0,1,40.5930214,-79.8995041,365.381566719,0.36000002861,0.0,0.0,0.0,0.36000002861,0.0,0.0,0.0,1.44000011444,1,148.46865616824803,311.5923018176511,365.37221181517816,17.803837473680915,-1.8603678444836371,-1.2254378549857248,0,Fixed-Wing
1970-01-01 00:01:16.000142631,5395,1532985352222254526,base_link,0,1,40.5930166,-79.8994174,365.181656976,0.36000002861,0.0,0.0,0.0,0.36000002861,0.0,0.0,0.0,1.44000011444,1,155.80828638418708,311.0593901843818,365.17215333305364,18.354260618472352,-1.3326555583684725,-0.5002875365403686,0,Fixed-Wing
1970-01-01 00:01:16.379329836,5397,1532985352601687291,base_link,0,1,40.5930139,-79.8993295,365.471747609,0.36000002861,0.0,0.0,0.0,0.36000002861,0.0,0.0,0.0,1.44000011444,1,163.24951110591772,310.75972205073225,365.46207276360786,18.60831865434644,-0.7493820345486631,0.7250033898431831,0,Fixed-Wing
1970-01-01 00:01:16.788311727,5399,1532985353010460127,base_link,0,1,40.5930128,-79.8992422,365.91183699,0.36000002861,0.0,0.0,0.0,0.36000002861,0.0,0.0,0.0,1.44000011444,1,170.63994378411897,310.637751367835,365.9019749457811,18.481302663505566,-0.3050128733798703,1.100066224141389,0,Fixed-Wing
1970-01-01 00:01:17.162282228,5401,1532985353383647139,base_link,0,1,40.5930131,-79.8991554,366.031925301,0.422499969006,0.0,0.0,0.0,0.422499969006,0.0,0.0,0.0,1.68999987602,1,177.9880373776737,310.6712447822848,366.02186109576274,18.375425041461018,0.08375719753285807,0.29980006847347634,0,Fixed-Wing
1970-01-01 00:01:17.589815349,5403,1532985353811491985,base_link,0,1,40.5930132,-79.8990682,365.792014114,0.422499969006,0.0,0.0,0.0,0.422499969006,0.0,0.0,0.0,1.68999987602,1,185.36998345710413,310.6825182163849,365.7817393955047,18.460080171224458,0.02819154936288495,-0.6004738845174857,0,Fixed-Wing
1970-01-01 00:01:17.958963677,5405,1532985354181166051,base_link,0,1,40.5930114,-79.8989799,365.56210484,0.422499969006,0.0,0.0,0.0,0.422499969006,0.0,0.0,0.0,1.68999987602,1,192.84505568398964,310.48280224013405,365.55161856635306,18.692961328789174,-0.49943102989305266,-0.5754646416403748,0,Fixed-Wing
1970-01-01 00:01:18.395803455,5407,1532985354617918803,base_link,0,1,40.5930093,-79.8988902,365.532197129,0.422499969006,0.0,0.0,0.0,0.422499969006,0.0,0.0,0.0,1.68999987602,1,200.43865253797424,310.24979098261394,365.52148845160514,18.989356628208952,-0.5826927545034077,-0.07534657227646654,0,Fixed-Wing
