time,field.header.seq,field.header.stamp,field.header.frame_id,field.status.status,field.status.service,lat,lon,alt,field.position_covariance0,field.position_covariance1,field.position_covariance2,field.position_covariance3,field.position_covariance4,field.position_covariance5,field.position_covariance6,field.position_covariance7,field.position_covariance8,field.position_covariance_type,x,y,z,vel_x,vel_y,vel_z,track_id,uav_category
1970-01-01 00:00:00.000000000,11596,1536693546744543928,base_link,0,1,40.5918392,-79.9012434,383.050282896,0.489999983311,0.0,0.0,0.0,0.489999983311,0.0,0.0,0.0,1.95999993324,1,51.53079749159425,182.77070615722533,383.0474500247383,-8.665892377201434,20.45627408161591,0.9503376269065024,0,Fixed-Wing
1970-01-01 00:00:00.345412864,11598,1536693547089966136,base_link,0,1,40.5919128,-79.9012843,383.430210932,0.489999983311,0.0,0.0,0.0,0.489999983311,0.0,0.0,0.0,1.95999993324,1,48.0682708651444,190.94417411672762,383.4271650262698,-8.665892377201434,20.45627408161591,0.9503376269065024,0,Fixed-Wing
1970-01-01 00:00:00.774824704,11600,1536693547519658520,base_link,0,1,40.5919873,-79.9013148,383.690149206,0.489999983311,0.0,0.0,0.0,0.489999983311,0.0,0.0,0.0,1.95999993324,1,45.4861823236396,199.217593782298,383.68686855174786,-6.462362264063779,20.706429768820477,0.6499770383225302,0,Fixed-Wing
1970-01-01 00:00:01.178004064,11602,1536693547922545272,base_link,0,1,40.5920611,-79.9013355,383.460097763,0.489999983311,0.0,0.0,0.0,0.489999983311,0.0,0.0,0.0,1.95999993324,1,43.73373368228505,207.4132670617435,383.4565674663185,-4.385968098134825,20.511848791528426,-0.5763896241080047,0,Fixed-Wing
1970-01-01 00:00:01.535830816,11604,1536693548280569272,base_link,0,1,40.5921342,-79.9013478,382.600055175,0.489999983311,0.0,0.0,0.0,0.489999983311,0.0,0.0,0.0,1.95999993324,1,42.6924020698018,215.53118605721812,382.5962621203846,-2.6062088920338162,20.317248047779323,-2.1531425873938437,0,Fixed-Wing
1970-01-01 00:00:01.984193600,11606,1536693548729023736,base_link,0,1,40.5922061,-79.9013521,381.100021239,0.489999983311,0.0,0.0,0.0,0.489999983311,0.0,0.0,0.0,1.95999993324,1,42.32832274048529,223.5158212037174,381.0959551314652,-0.9112052050428481,19.983669821400827,-3.754916655202547,0,Fixed-Wing
1970-01-01 00:00:02.396171456,11608,1536693549140837848,base_link,0,1,40.5922768,-79.9013467,379.139997678,0.489999983311,0.0,0.0,0.0,0.489999983311,0.0,0.0,0.0,1.95999993324,1,42.785410432850455,231.36717745289263,379.13564787383393,1.143983332495317,19.650103987844666,-4.9061894834573625,0,Fixed-Wing
1970-01-01 00:00:02.745718560,11610,1536693549490037496,base_link,0,1,40.5923462,-79.9013308,376.869985342,0.489999983311,0.0,0.0,0.0,0.489999983311,0.0,0.0,0.0,1.95999993324,1,44.131387956916235,239.07415414502572,376.8653414688349,3.368666186300313,19.28875580549778,-5.682044671859952,0,Fixed-Wing
1970-01-01 00:00:03.185706624,11612,1536693549930287928,base_link,0,1,40.5924137,-79.9013049,374.339983968,0.489999983311,0.0,0.0,0.0,0.489999983311,0.0,0.0,0.0,1.95999993324,1,46.323924115452456,246.57012091555376,374.3350385041131,5.4874039777359505,18.76064744174323,-6.33275510619695,0,Fixed-Wing
1970-01-01 00:00:03.594685312,11614,1536693550339498488,base_link,0,1,40.5924785,-79.9012682,371.679994691,0.489999983311,0.0,0.0,0.0,0.489999983311,0.0,0.0,0.0,1.95999993324,1,49.43074180512873,253.76624145097026,371.6747430078529,7.775636302304737,18.010202612427975,-6.658095936660448,0,Fixed-Wing
1970-01-01 00:00:03.957617952,11616,1536693550702102584,base_link,0,1,40.5925403,-79.9012221,368.900016211,0.489999983311,0.0,0.0,0.0,0.489999983311,0.0,0.0,0.0,1.95999993324,1,53.33331925562526,260.62920063977856,368.8944557202673,9.767236422488173,17.17637786956663,-6.958407258985234,0,Fixed-Wing
1970-01-01 00:00:04.331562400,11618,1536693551076354040,base_link,0,1,40.5925986,-79.9011676,366.050047714,0.489999983311,0.0,0.0,0.0,0.489999983311,0.0,0.0,0.0,1.95999993324,1,57.94699846838809,267.1034749922216,366.0441785439742,11.546957419856003,16.203590848995756,-7.133575541706205,0,Fixed-Wing
1970-01-01 00:00:04.715325056,11620,1536693551460201336,base_link,0,1,40.5926528,-79.9011047,363.180089443,0.489999983311,0.0,0.0,0.0,0.489999983311,0.0,0.0,0.0,1.95999993324,1,63.2717782698506,273.12243684423527,363.17391423060536,13.326675480061747,15.064050405732484,-7.183598659941395,0,Fixed-Wing
1970-01-01 00:00:05.160047520,11622,1536693551903147224,base_link,0,1,40.5927035,-79.9010352,360.400139322,0.489999983311,0.0,0.0,0.0,0.489999983311,0.0,0.0,0.0,1.95999993324,1,69.15527714085019,278.75272306778254,360.39365894793735,14.725018322745603,14.091286430373744,-6.958327158179809,0,Fixed-Wing
1970-01-01 00:00:05.602656192,11624,1536693552347546712,base_link,0,1,40.5927513,-79.9009594,357.930196802,0.489999983311,0.0,0.0,0.0,0.489999983311,0.0,0.0,0.0,1.95999993324,1,75.57209948466009,284.0609766642762,357.92340896397184,16.059801940669182,13.285314263495339,-6.182456574428533,0,Fixed-Wing
1970-01-01 00:00:05.976995616,11626,1536693552721062328,base_link,0,1,40.5927968,-79.9008776,356.230261331,0.489999983311,0.0,0.0,0.0,0.489999983311,0.0,0.0,0.0,1.95999993324,1,82.4968538471918,289.11385212203896,356.22316022331694,17.33103670188487,12.646162654139705,-4.255323984640276,0,Fixed-Wing
1970-01-01 00:00:06.347205792,11628,1536693553092090744,base_link,0,1,40.5928406,-79.9007922,355.540330227,0.489999983311,0.0,0.0,0.0,0.489999983311,0.0,0.0,0.0,1.95999993324,1,89.7263713620626,293.9779928825002,355.53290878038814,18.0937874222786,12.17380395452281,-1.7275375362996048,0,Fixed-Wing
1970-01-01 00:00:06.776724416,11630,1536693553520944792,base_link,0,1,40.5928832,-79.9007066,355.820399829,0.489999983311,0.0,0.0,0.0,0.489999983311,0.0,0.0,0.0,1.95999993324,1,96.97282542792922,298.70892270460223,355.81265214146777,18.13617563874739,11.84040820632309,0.7001320486127789,0,Fixed-Wing
1970-01-01 00:00:07.153850112,11632,1536693553898579064,base_link,0,1,40.5929238,-79.9006225,356.640468736,0.489999983311,0.0,0.0,0.0,0.489999983311,0.0,0.0,0.0,1.95999993324,1,104.09229972444875,303.21777945605095,356.6323957272412,17.81837504572434,11.284611374190275,2.0516260111759435,0,Fixed-Wing
1970-01-01 00:00:07.537430144,11634,1536693554282281496,base_link,0,1,40.5929618,-79.9005401,357.740536988,0.489999983311,0.0,0.0,0.0,0.489999983311,0.0,0.0,0.0,1.95999993324,1,111.06786226707912,307.43791963578946,357.73214398865,17.458197664995748,10.562021483085077,2.752412068858138,0,Fixed-Wing
1970-01-01 00:00:07.946649088,11636,1536693554691546136,base_link,0,1,40.5929964,-79.9004582,358.830606131,0.489999983311,0.0,0.0,0.0,0.489999983311,0.0,0.0,0.0,1.95999993324,1,118.0010974315729,311.2804888101673,358.8219019887133,17.35226216092227,9.617049775947029,2.7274087868676995,0,Fixed-Wing
1970-01-01 00:00:08.386460000,11638,1536693555130799160,base_link,0,1,40.5930264,-79.900376,359.640677467,0.489999983311,0.0,0.0,0.0,0.489999983311,0.0,0.0,0.0,1.95999993324,1,124.95972749904088,314.6122116270906,359.6316771186374,17.415819649382513,8.338521108132673,2.0266773032303327,0,Fixed-Wing
1970-01-01 00:00:08.798452608,11640,1536693555543280920,base_link,0,1,40.5930518,-79.900293,360.120751503,0.489999983311,0.0,0.0,0.0,0.489999983311,0.0,0.0,0.0,1.95999993324,1,131.9860795745284,317.4330857714177,360.1114697299137,17.58531195843284,7.059986646061771,1.200808421496527,0,Fixed-Wing
1970-01-01 00:00:09.141444704,11642,1536693555886238392,base_link,0,1,40.5930728,-79.9002084,360.190828972,0.489999983311,0.0,0.0,0.0,0.489999983311,0.0,0.0,0.0,1.95999993324,1,139.14787601956337,319.7653185830171,360.18127842117497,17.924297461282166,5.837031949302471,0.1747147879938429,0,Fixed-Wing
1970-01-01 00:00:09.548953120,11644,1536693556293407096,base_link,0,1,40.5930885,-79.9001222,360.000910241,0.489999983311,0.0,0.0,0.0,0.489999983311,0.0,0.0,0.0,1.95999993324,1,146.44512214228632,321.50897046253795,359.99110869102475,18.263296249162707,4.363951865613568,-0.4759502504022364,0,Fixed-Wing
1970-01-01 00:00:09.930994592,11646,1536693556675469912,base_link,0,1,40.5930982,-79.9000336,359.73099641,0.489999983311,0.0,0.0,0.0,0.489999983311,0.0,0.0,0.0,1.95999993324,1,153.94554880225286,322.5863155370217,359.7209639666769,18.77180949941319,2.6963421442787543,-0.6761089112165399,0,Fixed-Wing
1970-01-01 00:00:10.373085792,11648,1536693557117921592,base_link,0,1,40.5931028,-79.8999435,359.481086199,0.489999983311,0.0,0.0,0.0,0.489999983311,0.0,0.0,0.0,1.95999993324,1,161.57296827460644,323.09730497628783,359.4708394472845,19.089642736107347,1.2788867680440748,-0.6260030318311395,0,Fixed-Wing
1970-01-01 00:00:10.745899456,11650,1536693557489723960,base_link,0,1,40.5931031,-79.8998523,359.301178876,0.489999983311,0.0,0.0,0.0,0.489999983311,0.0,0.0,0.0,1.95999993324,1,169.29351954580875,323.1307828699625,359.29073046709965,19.322729794428618,0.08378731917436662,-0.4507705519220107,0,Fixed-Wing
1970-01-01 00:00:11.184044992,11652,1536693557928793176,base_link,0,1,40.5931003,-79.8997607,359.23127324,0.489999983311,0.0,0.0,0.0,0.489999983311,0.0,0.0,0.0,1.95999993324,1,177.04794362773632,322.82001295348437,359.2206303781701,19.40750549839464,-0.7777842427836172,-0.17544408804119604,0,Fixed-Wing
1970-01-01 00:00:11.551350080,11654,1536693558287207320,base_link,0,1,40.5930955,-79.8996692,359.421368334,0.489999983311,0.0,0.0,0.0,0.489999983311,0.0,0.0,0.0,1.95999993324,1,184.79391569115106,322.2871594295285,359.410533087736,19.38635207758258,-1.3336074461175862,0.47528196048108,0,Fixed-Wing
1970-01-01 00:00:11.939079328,11656,1536693558683420280,base_link,0,1,40.5930892,-79.8995787,359.741463039,0.489999983311,0.0,0.0,0.0,0.489999983311,0.0,0.0,0.0,1.95999993324,1,192.4552422942494,321.58773981777006,359.7304369417135,19.17450433503604,-1.7504833134575153,0.8006443469471451,0,Fixed-Wing
1970-01-01 00:00:12.296738528,11658,1536693559040193848,base_link,0,1,40.593083,-79.8994889,360.181557005,0.489999983311,0.0,0.0,0.0,0.489999983311,0.0,0.0,0.0,1.95999993324,1,200.0573158829809,320.8994377037419,360.1703320872608,19.026207931593195,-1.7226588230698598,1.1009544185007563,0,Fixed-Wing
1970-01-01 00:00:12.746796992,11660,1536693559491301944,base_link,0,1,40.5930776,-79.8994003,360.581649437,0.489999983311,0.0,0.0,0.0,0.489999983311,0.0,0.0,0.0,1.95999993324,1,207.55780181740644,320.29998028124186,360.57021540717005,18.771957849487535,-1.50030138928529,1.0008141994634971,0,Fixed-Wing
1970-01-01 00:00:13.159565504,11662,1536693559904255352,base_link,0,1,40.5930736,-79.8993127,361.021740292,0.489999983311,0.0,0.0,0.0,0.489999983311,0.0,0.0,0.0,1.95999993324,1,214.97363147350714,319.85600318949355,361.01008332122046,18.560083032002105,-1.1111705728537753,1.1008862644482402,0,Fixed-Wing
1970-01-01 00:00:13.549254720,11664,1536693560293803032,base_link,0,1,40.5930717,-79.8992263,361.361829079,0.489999983311,0.0,0.0,0.0,0.489999983311,0.0,0.0,0.0,1.95999993324,1,222.28786624480884,319.6452353164949,361.34993235170464,18.30581485366755,-0.5275025728395993,0.8505624477151611,0,Fixed-Wing
1970-01-01 00:00:13.957814592,11666,1536693560702675448,base_link,0,1,40.5930718,-79.8991414,361.641915533,0.489999983311,0.0,0.0,0.0,0.489999983311,0.0,0.0,0.0,1.95999993324,1,229.47511026564368,319.6565723973689,361.6297640761799,17.98798677747621,0.028374055516345795,0.7003532014758472,0,Fixed-Wing
1970-01-01 00:00:14.357848576,11668,1536693561102501272,base_link,0,1,40.5930729,-79.8990574,361.792000672,0.489999983311,0.0,0.0,0.0,0.489999983311,0.0,0.0,0.0,1.95999993324,1,236.58615678752165,319.7789598266678,361.7795836410777,17.797282301638226,0.30630704252923646,0.3749632466319495,0,Fixed-Wing
1970-01-01 00:00:14.779725696,11670,1536693561524202360,base_link,0,1,40.5930745,-79.8989743,361.862084701,0.489999983311,0.0,0.0,0.0,0.489999983311,0.0,0.0,0.0,1.95999993324,1,243.62100877628953,319.956873713915,361.8493942912818,17.60658524861943,0.4452767489255636,0.17471969076852434,0,Fixed-Wing
1970-01-01 00:00:15.173833792,11672,1536693561918310552,base_link,0,1,40.5930765,-79.8988919,361.782167864,0.489999983311,0.0,0.0,0.0,0.489999983311,0.0,0.0,0.0,1.95999993324,1,250.59659450077314,320.1792056509658,361.76919641198504,17.45825568373955,0.5564447140360012,-0.20071648996327812,0,Fixed-Wing
1970-01-01 00:00:15.592819968,11674,1536693562337313880,base_link,0,1,40.5930781,-79.8988094,361.462251304,0.489999983311,0.0,0.0,0.0,0.489999983311,0.0,0.0,0.0,1.95999993324,1,257.58063701903353,320.35711137469616,361.44899308058075,17.479421055917776,0.44525631755680484,-0.8013938687356691,0,Fixed-Wing
1970-01-01 00:00:15.973680064,11676,1536693562718274456,base_link,0,1,40.5930797,-79.8987266,360.952335061,0.489999983311,0.0,0.0,0.0,0.489999983311,0.0,0.0,0.0,1.95999993324,1,264.59006721803945,320.5350149505317,360.93878137304995,17.542960468832856,0.445250941879671,-1.276940287845069,0,Fixed-Wing
1970-01-01 00:00:16.345807872,11678,1536693563090635320,base_link,0,1,40.5930807,-79.898643,360.442419891,0.489999983311,0.0,0.0,0.0,0.489999983311,0.0,0.0,0.0,1.95999993324,1,271.667222605376,320.64629615350907,360.4285635203608,17.712460737456325,0.27851076183520845,-1.276955667735728,0,Fixed-Wing
1970-01-01 00:00:16.773326624,11680,1536693563517931704,base_link,0,1,40.5930816,-79.8985587,360.062505487,0.489999983311,0.0,0.0,0.0,0.489999983311,0.0,0.0,0.0,1.95999993324,1,278.80364142431466,320.7464875936388,360.0483365629628,17.860783212796733,0.25075568535661885,-0.9516189324153398,0,Fixed-Wing
1970-01-01 00:00:17.178299264,11682,1536693563922793272,base_link,0,1,40.5930824,-79.8984736,359.802591953,0.489999983311,0.0,0.0,0.0,0.489999983311,0.0,0.0,0.0,1.95999993324,1,286.0077892050492,320.83558926728796,359.7881000276828,18.030292925519095,0.22300059978568287,-0.6513110368957715,0,Fixed-Wing
1970-01-01 00:00:17.546020864,11684,1536693564290849688,base_link,0,1,40.5930833,-79.898388,359.622678899,0.489999983311,0.0,0.0,0.0,0.489999983311,0.0,0.0,0.0,1.95999993324,1,293.25426709115436,320.9358088309056,359.6078533412034,18.136235255219866,0.25082607185353967,-0.4511151984928165,0,Fixed-Wing
1970-01-01 00:00:17.938984320,11686,1536693564683418872,base_link,0,1,40.5930843,-79.8983022,359.482766021,0.518400041199,0.0,0.0,0.0,0.518400041199,0.0,0.0,0.0,2.07360016479,1,300.51767685810074,321.0471433649928,359.46759725124366,18.178611783386593,0.27864423709993896,-0.3510281109619497,0,Fixed-Wing
1970-01-01 00:00:18.401029920,11688,1536693565145751608,base_link,0,1,40.5930857,-79.8982167,359.592852685,0.489999983311,0.0,0.0,0.0,0.489999983311,0.0,0.0,0.0,1.95999993324,1,307.7556997258084,321.2029174722646,359.57733142303573,18.11507432639988,0.389866070187011,0.2746389054707199,0,Fixed-Wing
1970-01-01 00:00:18.788466624,11690,1536693565532983448,base_link,0,1,40.5930874,-79.8981319,359.812938523,0.489999983311,0.0,0.0,0.0,0.489999983311,0.0,0.0,0.0,1.95999993324,1,314.9344678824297,321.3920173634815,359.79705780043,17.966773676465714,0.4732726943695949,0.549923609073764,0,Fixed-Wing
1970-01-01 00:00:19.186466240,11692,1536693565931251224,base_link,0,1,40.5930895,-79.8980476,359.953023699,0.489999983311,0.0,0.0,0.0,0.489999983311,0.0,0.0,0.0,1.95999993324,1,322.07090258853685,321.62553924157015,359.9367753348734,17.860822974654837,0.5844505130385378,0.34968023276565013,0,Fixed-Wing
1970-01-01 00:00:19.580339808,11694,1536693566324813752,base_link,0,1,40.593091,-79.8979638,359.943108622,0.489999983311,0.0,0.0,0.0,0.489999983311,0.0,0.0,0.0,1.95999993324,1,329.1650047488314,321.7924271059598,359.9264901841518,17.754874537099845,0.41768119869868836,-0.025741320963629754,0,Fixed-Wing
1970-01-01 00:00:19.969998496,11696,1536693566714771768,base_link,0,1,40.5930927,-79.8978803,359.973193168,0.489999983311,0.0,0.0,0.0,0.489999983311,0.0,0.0,0.0,1.95999993324,1,336.2337110986209,321.9815330649069,359.9561969850247,17.691314777302726,0.47328788047566456,0.07434915800177425,0,Fixed-Wing
1970-01-01 00:00:20.374418528,11698,1536693567119291480,base_link,0,1,40.5930943,-79.8977976,360.193276951,0.489999983311,0.0,0.0,0.0,0.489999983311,0.0,0.0,0.0,1.95999993324,1,343.2347036800466,322.1595469968886,360.175899397335,17.521843090178876,0.4455271374411108,0.549863630087026,0,Fixed-Wing
1970-01-01 00:00:20.764993664,11700,1536693567509770200,base_link,0,1,40.5930953,-79.8977147,360.243361195,0.489999983311,0.0,0.0,0.0,0.489999983311,0.0,0.0,0.0,1.95999993324,1,350.25262127013696,322.2709282966691,360.22559703821946,17.564202418898756,0.2787612806664679,0.12438154381706854,0,Fixed-Wing
1970-01-01 00:00:21.145255296,11702,1536693567890102648,base_link,0,1,40.5930952,-79.8976326,360.293445085,0.489999983311,0.0,0.0,0.0,0.489999983311,0.0,0.0,0.0,1.95999993324,1,357.2028204161125,322.26015538625,360.275296589802,17.394719029466422,-0.02696206913419519,0.124386325846397,0,Fixed-Wing
1970-01-01 00:00:21.567335104,11704,1536693568312224920,base_link,0,1,40.5930944,-79.8975505,360.383529275,0.489999983311,0.0,0.0,0.0,0.489999983311,0.0,0.0,0.0,1.95999993324,1,364.1530257674894,322.1716543425933,360.36499281251054,17.39473456013118,-0.22149736372872011,0.22448861669279455,0,Fixed-Wing
1970-01-01 00:00:21.917532512,11706,1536693568662425688,base_link,0,1,40.593093,-79.8974679,360.483614234,0.489999983311,0.0,0.0,0.0,0.489999983311,0.0,0.0,0.0,1.95999993324,1,371.1455630063891,322.0165309847301,360.464683155166,17.500681350141228,-0.3882373969816738,0.24950155585781142,0,Fixed-Wing
1970-01-01 00:00:22.349081792,11708,1536693569093997080,base_link,0,1,40.5930915,-79.8973853,360.573699245,0.489999983311,0.0,0.0,0.0,0.489999983311,0.0,0.0,0.0,1.95999993324,1,378.1381007254289,321.850308440183,360.5543664522508,17.500682551819192,-0.41601605911295475,0.22445626688699072,0,Fixed-Wing
1970-01-01 00:00:22.775773184,11710,1536693569520267736,base_link,0,1,40.5930898,-79.8973029,360.503784147,0.489999983311,0.0,0.0,0.0,0.489999983311,0.0,0.0,0.0,1.95999993324,1,385.1136994027553,321.66187301756804,360.48404412255206,17.458288101668312,-0.4716096852396565,-0.17600030458341542,0,Fixed-Wing
1970-01-01 00:00:23.132016256,11712,1536693569876851320,base_link,0,1,40.5930888,-79.8972206,360.52386867,0.518400041199,0.0,0.0,0.0,0.518400041199,0.0,0.0,0.0,2.07360016479,1,392.0808341899107,321.55118486823125,360.50371038274864,17.437104968879186,-0.2770264876107975,0.049220038634122436,0,Fixed-Wing
1970-01-01 00:00:23.551692448,11714,1536693570295786520,base_link,0,1,40.5930881,-79.8971388,360.39395257,0.489999983311,0.0,0.0,0.0,0.489999983311,0.0,0.0,0.0,1.95999993324,1,399.0056304448581,321.4738090895033,360.37336938193454,17.331141548779925,-0.19365343386434306,-0.3262129673641839,0,Fixed-Wing
1970-01-01 00:00:23.977193632,11716,1536693570721999704,base_link,0,1,40.593088,-79.8970574,360.294035826,0.489999983311,0.0,0.0,0.0,0.489999983311,0.0,0.0,0.0,1.95999993324,1,405.8965627352724,321.46307082141925,360.2730190129759,17.246387984758904,-0.02687536749114272,-0.2511534469554597,0,Fixed-Wing
1970-01-01 00:00:24.372643136,11718,1536693571117547704,base_link,0,1,40.5930882,-79.8969763,360.224118663,0.489999983311,0.0,0.0,0.0,0.489999983311,0.0,0.0,0.0,1.95999993324,1,412.76209834634767,321.4856547328099,360.202660749791,17.182826050473885,0.05652223554691564,-0.17609023767491688,0,Fixed-Wing
1970-01-01 00:00:24.733080480,11720,1536693571476046712,base_link,0,1,40.5930886,-79.8968951,360.094201531,0.489999983311,0.0,0.0,0.0,0.489999983311,0.0,0.0,0.0,1.95999993324,1,419.63609410063106,321.53045287918303,360.07229345941977,17.20399980549353,0.11211925771258563,-0.32627876396224176,0,Fixed-Wing
1970-01-01 00:00:25.122102816,11722,1536693571866823320,base_link,0,1,40.5930885,-79.8968135,359.874285025,0.489999983311,0.0,0.0,0.0,0.489999983311,0.0,0.0,0.0,1.95999993324,1,426.54394876016005,321.5197285851901,359.8519199412458,17.288740707304054,-0.026840393617323658,-0.5515432507269824,0,Fixed-Wing
1970-01-01 00:00:25.534535744,11724,1536693572278918008,base_link,0,1,40.593088,-79.8967307,359.584369922,0.489999983311,0.0,0.0,0.0,0.489999983311,0.0,0.0,0.0,1.95999993324,1,433.5533870927467,321.46459213370105,359.561535705183,17.542980825278498,-0.1379936116634726,-0.7267636640056706,0,Fixed-Wing
1970-01-01 00:00:25.983606784,11726,1536693572728393304,base_link,0,1,40.5930873,-79.8966478,359.494455016,0.489999983311,0.0,0.0,0.0,0.489999983311,0.0,0.0,0.0,1.95999993324,1,440.571305526267,321.3872624147578,359.4711445112121,17.56420452980624,-0.1935381570216262,-0.22622796683060253,0,Fixed-Wing
1970-01-01 00:00:26.354115616,11728,1536693573098946808,base_link,0,1,40.5930857,-79.8965648,359.584540595,0.489999983311,0.0,0.0,0.0,0.489999983311,0.0,0.0,0.0,1.95999993324,1,447.59770804682836,321.2100018086219,359.5607505429672,17.585438210626148,-0.44364173946189783,0.2242628898809879,0,Fixed-Wing
1970-01-01 00:00:26.764667104,11730,1536693573509388184,base_link,0,1,40.593082,-79.8964821,359.764626745,0.489999983311,0.0,0.0,0.0,0.489999983311,0.0,0.0,0.0,1.95999993324,1,454.5987351494821,320.79954092010917,359.740362978641,17.52192948871934,-1.027287373829873,0.44952781742272496,0,Fixed-Wing
1970-01-01 00:00:27.113025280,11732,1536693573857822680,base_link,0,1,40.5930755,-79.8963997,359.944713756,0.489999983311,0.0,0.0,0.0,0.489999983311,0.0,0.0,0.0,1.95999993324,1,461.5743860929047,320.0781384797806,359.91998605865007,17.458418911453744,-1.8055011796249225,0.4495544576984915,0,Fixed-Wing
1970-01-01 00:00:27.504250112,11734,1536693574249052632,base_link,0,1,40.5930641,-79.8963169,359.90480321,0.489999983311,0.0,0.0,0.0,0.489999983311,0.0,0.0,0.0,1.95999993324,1,468.58391895869505,318.81257718734565,359.87962868407794,17.54321741972463,-3.167403211636204,-0.10100504700725457,0,Fixed-Wing
1970-01-01 00:00:27.946891072,11736,1536693574689874584,base_link,0,1,40.5930465,-79.896235,359.834894316,0.489999983311,0.0,0.0,0.0,0.489999983311,0.0,0.0,0.0,1.95999993324,1,475.51730603843276,316.85849169864457,359.80930501257615,17.352642369162204,-4.890617854481908,-0.1760036628018874,0,Fixed-Wing
1970-01-01 00:00:28.349897248,11738,1536693575092251544,base_link,0,1,40.593021,-79.8961556,359.824986141,0.489999983311,0.0,0.0,0.0,0.489999983311,0.0,0.0,0.0,1.95999993324,1,482.2391195754637,314.02708857909175,359.7990332676976,16.823123393927602,-7.086338202595911,-0.025707769281398424,0,Fixed-Wing
1970-01-01 00:00:28.731799456,11740,1536693575475068600,base_link,0,1,40.5929875,-79.8960796,359.865077809,0.489999983311,0.0,0.0,0.0,0.489999983311,0.0,0.0,0.0,1.95999993324,1,488.6731720149795,310.307256477085,359.83881844617696,16.102924830727513,-9.309867658779858,0.09957297433501222,0,Fixed-Wing
1970-01-01 00:00:29.180905952,11742,1536693575925806904,base_link,0,1,40.5929454,-79.8960101,359.795166396,0.489999983311,0.0,0.0,0.0,0.489999983311,0.0,0.0,0.0,1.95999993324,1,494.5570255646739,305.63233805903883,359.7686804566333,14.725906000366352,-11.700224793512232,-0.17553894439265116,0,Fixed-Wing
1970-01-01 00:00:29.534117792,11744,1536693576278886552,base_link,0,1,40.5928951,-79.8959489,359.785249898,0.489999983311,0.0,0.0,0.0,0.489999983311,0.0,0.0,0.0,1.95999993324,1,499.7383116037887,300.0467510480705,359.7586265425862,12.967544234165775,-13.97941478075351,-0.02516258977943487,0,Fixed-Wing
1970-01-01 00:00:29.918885728,11746,1536693576663510904,base_link,0,1,40.5928372,-79.8958979,359.905326122,0.489999983311,0.0,0.0,0.0,0.489999983311,0.0,0.0,0.0,1.95999993324,1,504.0561860373392,293.61711759446587,359.8786634413693,10.806627407161198,-16.09186514499685,0.30042421571611233,0,Fixed-Wing
1970-01-01 00:00:30.370559488,11748,1536693577115204536,base_link,0,1,40.5927727,-79.8958602,360.205391482,0.489999983311,0.0,0.0,0.0,0.489999983311,0.0,0.0,0.0,1.95999993324,1,507.248212198323,286.4544725035453,360.1788026085902,7.988893129367453,-17.926421422973863,0.7511779697087558,0,Fixed-Wing
1970-01-01 00:00:30.738731488,11750,1536693577482981400,base_link,0,1,40.5927044,-79.8958365,360.845444099,0.489999983311,0.0,0.0,0.0,0.489999983311,0.0,0.0,0.0,1.95999993324,1,509.2551203840037,278.8697631549811,360.8190324839628,5.02282068105428,-18.982749309397285,1.6023452799658553,0,Fixed-Wing
1970-01-01 00:00:31.146709312,11752,1536693577891083032,base_link,0,1,40.5926344,-79.8958244,361.44548556,0.489999983311,0.0,0.0,0.0,0.489999983311,0.0,0.0,0.0,1.95999993324,1,510.2800350055172,271.0961949245048,361.41932810213314,2.565121012502608,-19.455418813980234,1.5023991965379773,0,Fixed-Wing
1970-01-01 00:00:31.515049920,11754,1536693578259346168,base_link,0,1,40.5925642,-79.8958221,362.065517085,0.489999983311,0.0,0.0,0.0,0.489999983311,0.0,0.0,0.0,1.95999993324,1,510.47532685413955,263.3003589628254,362.039671401575,0.48876971208768816,-19.51114972464427,1.552573842700825,0,Fixed-Wing
1970-01-01 00:00:31.957897312,11756,1536693578702714616,base_link,0,1,40.5924952,-79.8958255,362.515542292,0.489999983311,0.0,0.0,0.0,0.489999983311,0.0,0.0,0.0,1.95999993324,1,510.18805703356094,255.63774455528466,362.49003203398945,-0.7189690122050242,-19.177727407637263,1.1271470785579525,0,Fixed-Wing
1970-01-01 00:00:32.334947648,11758,1536693579079635992,base_link,0,1,40.5924277,-79.8958321,362.775563618,0.489999983311,0.0,0.0,0.0,0.489999983311,0.0,0.0,0.0,1.95999993324,1,509.6298604240141,248.14168179142666,362.7503946728516,-1.3970352478159016,-18.76088769054303,0.65162664459765,0,Fixed-Wing
1970-01-01 00:00:32.764258048,11760,1536693579508440184,base_link,0,1,40.5923617,-79.895841,363.065581983,0.489999983311,0.0,0.0,0.0,0.489999983311,0.0,0.0,0.0,1.95999993324,1,508.87694437843163,240.81218494529412,363.04075468466726,-1.8843723453978667,-18.344012248866353,0.7267030363943773,0,Fixed-Wing
1970-01-01 00:00:33.142751360,11762,1536693579887343704,base_link,0,1,40.5922965,-79.8958496,363.095600342,0.489999983311,0.0,0.0,0.0,0.489999983311,0.0,0.0,0.0,1.95999993324,1,508.14939693133226,233.57152167954345,363.0711008799377,-1.8208806909118789,-18.121682623675834,0.07594941227670023,0,Fixed-Wing
1970-01-01 00:00:33.549946048,11764,1536693580294715000,base_link,0,1,40.5922318,-79.8958571,362.925619641,0.489999983311,0.0,0.0,0.0,0.489999983311,0.0,0.0,0.0,1.95999993324,1,507.5149504032715,226.3863839063698,362.90143031903835,-1.5878709175157995,-17.98271533337754,-0.424645635675828,0,Fixed-Wing
1970-01-01 00:00:33.942611712,11766,1536693580684136984,base_link,0,1,40.5921669,-79.8958628,362.375640889,0.489999983311,0.0,0.0,0.0,0.489999983311,0.0,0.0,0.0,1.95999993324,1,507.03285564463414,219.1790334525492,362.3517422033568,-1.2065701566164235,-18.03830846540576,-1.3757404824369264,0,Fixed-Wing
1970-01-01 00:00:34.314689408,11768,1536693581058311800,base_link,0,1,40.5921017,-79.8958668,361.635664026,0.489999983311,0.0,0.0,0.0,0.489999983311,0.0,0.0,0.0,1.95999993324,1,506.69466331380227,211.93837210481598,361.6120374707888,-0.8464161168888453,-18.121677823327797,-1.8513075262365994,0,Fixed-Wing
1970-01-01 00:00:34.775785952,11770,1536693581520529784,base_link,0,1,40.5920361,-79.895869,361.055689197,0.489999983311,0.0,0.0,0.0,0.489999983311,0.0,0.0,0.0,1.95999993324,1,506.508867969995,204.65330710335328,361.0323158617041,-0.4650021869347766,-18.23280975843982,-1.450907275250867,0,Fixed-Wing
1970-01-01 00:00:35.135395616,11772,1536693581879942552,base_link,0,1,40.5919693,-79.8958683,360.535717867,0.489999983311,0.0,0.0,0.0,0.489999983311,0.0,0.0,0.0,1.95999993324,1,506.5685904505165,197.2349992703929,360.51257407089986,0.14947136716457504,-18.566285327688046,-1.3007918520070492,0,Fixed-Wing
1970-01-01 00:00:35.582689088,11774,1536693582327276888,base_link,0,1,40.5919019,-79.895866,360.175748451,0.489999983311,0.0,0.0,0.0,0.489999983311,0.0,0.0,0.0,1.95999993324,1,506.76378106109905,189.7500753291746,360.1528167851035,0.48851633700871644,-18.73300982890672,-0.9003881433893874,0,Fixed-Wing
1970-01-01 00:00:35.943178496,11776,1536693582687957976,base_link,0,1,40.5918342,-79.8958624,359.985780518,0.489999983311,0.0,0.0,0.0,0.489999983311,0.0,0.0,0.0,1.95999993324,1,507.0690416812122,182.23184898736787,359.9630443902001,0.7639957656038201,-18.81635793002949,-0.47495581343234333,0,Fixed-Wing
1970-01-01 00:00:36.329225248,11778,1536693583074037688,base_link,0,1,40.5917665,-79.895858,359.985813429,0.489999983311,0.0,0.0,0.0,0.489999983311,0.0,0.0,0.0,1.95999993324,1,507.44204352447036,174.71363302279383,359.9632585613415,0.9335361656084475,-18.816331958248963,0.000536020155792938,0,Fixed-Wing
1970-01-01 00:00:36.777090240,11780,1536693583521682200,base_link,0,1,40.5916989,-79.8958535,359.865846424,0.489999983311,0.0,0.0,0.0,0.489999983311,0.0,0.0,0.0,1.95999993324,1,507.82350152226,167.20651981763802,359.8434629470239,0.9546999379055177,-18.78854435440112,-0.29982033726663354,0,Fixed-Wing
1970-01-01 00:00:37.150155904,11782,1536693583894751032,base_link,0,1,40.5916315,-79.8958482,359.65588018,0.489999983311,0.0,0.0,0.0,0.489999983311,0.0,0.0,0.0,1.95999993324,1,508.2726772664008,159.72161982285473,359.63365326539815,1.1241815809990103,-18.73294989659396,-0.5251044444755371,0,Fixed-Wing
1970-01-01 00:00:37.518333056,11784,1536693584262890648,base_link,0,1,40.5915641,-79.8958429,359.33591396,0.489999983311,0.0,0.0,0.0,0.489999983311,0.0,0.0,0.0,1.95999993324,1,508.7218451205482,152.2367178041061,359.3138347735199,1.1241618341952613,-18.732954962104728,-0.8004307056253805,0,Fixed-Wing
1970-01-01 00:00:37.937278624,11786,1536693584676943960,base_link,0,1,40.5914967,-79.8958381,359.035947249,0.489999983311,0.0,0.0,0.0,0.489999983311,0.0,0.0,0.0,1.95999993324,1,509.1286868006346,144.75181421708743,359.014010326796,1.0182293436407621,-18.732958887116922,-0.7503902980891467,0,Fixed-Wing
1970-01-01 00:00:38.389865536,11788,1536693585134762776,base_link,0,1,40.591429,-79.8958339,358.735980074,0.489999983311,0.0,0.0,0.0,0.489999983311,0.0,0.0,0.0,1.95999993324,1,509.48473713873835,137.23359228821417,358.7141813562796,0.8911105223865567,-18.816346885491615,-0.7504016200811572,0,Fixed-Wing
1970-01-01 00:00:38.752268608,11790,1536693585497006104,base_link,0,1,40.5913612,-79.8958311,358.576011527,0.489999983311,0.0,0.0,0.0,0.489999983311,0.0,0.0,0.0,1.95999993324,1,509.7222797163227,129.70426069739563,358.55435179547396,0.594513381247152,-18.844151764746403,-0.40001591960524696,0,Fixed-Wing
1970-01-01 00:00:39.147525184,11792,1536693585892171992,base_link,0,1,40.5912933,-79.8958302,358.476041095,0.489999983311,0.0,0.0,0.0,0.489999983311,0.0,0.0,0.0,1.95999993324,1,509.7989790647023,122.16381450369454,358.454524484229,0.1919604872873957,-18.871969010008776,-0.24984435612589667,0,Fixed-Wing
1970-01-01 00:00:39.540730240,11794,1536693586285532088,base_link,0,1,40.5912255,-79.8958326,358.396067256,0.489999983311,0.0,0.0,0.0,0.489999983311,0.0,0.0,0.0,1.95999993324,1,509.5963093860053,114.63445512177103,358.3747069221481,-0.5072346910760483,-18.84422131936668,-0.19976464513513614,0,Fixed-Wing
1970-01-01 00:00:39.928608480,11796,1536693586673320760,base_link,0,1,40.5911578,-79.8958398,358.19608847,0.489999983311,0.0,0.0,0.0,0.489999983311,0.0,0.0,0.0,1.95999993324,1,508.98727218739197,107.1161714744739,358.17490770419124,-1.5242773229752637,-18.816501352237033,-0.5000506008060545,0,Fixed-Wing
1970-01-01 00:00:40.334914432,11798,1536693587078921880,base_link,0,1,40.5910902,-79.8958531,357.8561034,0.489999983311,0.0,0.0,0.0,0.489999983311,0.0,0.0,0.0,1.95999993324,1,507.86180965684304,99.60895627420186,357.83513416993844,-2.8167688559581583,-18.788799624264918,-0.8503734983476727,0,Fixed-Wing
1970-01-01 00:00:40.745611936,11800,1536693587490347480,base_link,0,1,40.5910229,-79.8958743,357.406110114,0.489999983311,0.0,0.0,0.0,0.489999983311,0.0,0.0,0.0,1.95999993324,1,506.0675371822724,92.13501078658388,357.3853959027236,-4.490643347325341,-18.705533333378337,-1.1255894443731689,0,Fixed-Wing
1970-01-01 00:00:41.144496096,11802,1536693587888416664,base_link,0,1,40.5909573,-79.8959063,356.936105037,0.489999983311,0.0,0.0,0.0,0.489999983311,0.0,0.0,0.0,1.95999993324,1,503.3589416956496,84.84979362530342,356.91570616496574,-6.778979488892256,-18.233190578790705,-1.175523297638507,0,Fixed-Wing
1970-01-01 00:00:41.558961088,11804,1536693588303691864,base_link,0,1,40.5908951,-79.8959517,356.586084779,0.489999983311,0.0,0.0,0.0,0.489999983311,0.0,0.0,0.0,1.95999993324,1,499.51590851327796,77.9420815629652,356.5660759600033,-9.618211079171587,-17.28838381996661,-0.8750424342960621,0,Fixed-Wing
1970-01-01 00:00:41.942118976,11806,1536693588686819672,base_link,0,1,40.5908381,-79.8960105,356.416048574,0.489999983311,0.0,0.0,0.0,0.489999983311,0.0,0.0,0.0,1.95999993324,1,494.5384264213986,71.6117705703771,356.3965014554414,-12.457470734860472,-15.84328431063349,-0.42440522918290974,0,Fixed-Wing
1970-01-01 00:00:42.383697280,11808,1536693589127661624,base_link,0,1,40.590788,-79.8960814,356.355997032,0.489999983311,0.0,0.0,0.0,0.489999983311,0.0,0.0,0.0,1.95999993324,1,488.53653117417156,66.0476575929099,356.33697196316484,-15.021336695115666,-13.925670309359852,-0.14898836283234837,0,Fixed-Wing
1970-01-01 00:00:42.779054592,11810,1536693589523481720,base_link,0,1,40.5907473,-79.8961633,356.485930221,0.489999983311,0.0,0.0,0.0,0.489999983311,0.0,0.0,0.0,1.95999993324,1,481.6033341179631,61.52738212567917,356.4674769758574,-17.352166784818436,-11.31318974274256,0.3266234506443069,0,Fixed-Wing
1970-01-01 00:00:43.188885952,11812,1536693589933275672,base_link,0,1,40.5907186,-79.896254,357.035849295,0.489999983311,0.0,0.0,0.0,0.489999983311,0.0,0.0,0.0,1.95999993324,1,473.9250825522984,58.33969615883268,357.01800037915734,-19.21686354838259,-7.978030640974495,1.3778310115176329,0,Fixed-Wing
1970-01-01 00:00:43.533255488,11814,1536693590278084152,base_link,0,1,40.5907012,-79.8963491,357.82575907,0.489999983311,0.0,0.0,0.0,0.489999983311,0.0,0.0,0.0,1.95999993324,1,465.8742659007087,56.40688678191995,357.80851984243344,-20.149306612781476,-4.837368734733704,1.9784848839870508,0,Fixed-Wing
1970-01-01 00:00:43.988360288,11816,1536693590733236888,base_link,0,1,40.5906934,-79.8964454,358.785663552,0.489999983311,0.0,0.0,0.0,0.489999983311,0.0,0.0,0.0,1.95999993324,1,457.7217998850338,55.54018260075961,358.7690213467946,-20.403711139996847,-2.169157371796695,2.4039100815430086,0,Fixed-Wing
1970-01-01 00:00:44.324285024,11818,1536693591068577912,base_link,0,1,40.5906947,-79.8965394,359.885566548,0.489999983311,0.0,0.0,0.0,0.489999983311,0.0,0.0,0.0,1.95999993324,1,449.76399245750434,55.684075824687966,359.8694883743617,-19.916526330418797,0.3601310045809589,2.754210972041871,0,Fixed-Wing
1970-01-01 00:00:44.764699776,11820,1536693591509390040,base_link,0,1,40.5907022,-79.8966301,360.985470315,0.489999983311,0.0,0.0,0.0,0.489999983311,0.0,0.0,0.0,1.95999993324,1,442.0855140990849,56.51651844651468,360.9699208514387,-19.217431157477648,2.083408721203717,2.7541245002652746,0,Fixed-Wing
1970-01-01 00:00:45.155227648,11822,1536693591899911352,base_link,0,1,40.5907125,-79.8967172,361.805376603,0.489999983311,0.0,0.0,0.0,0.489999983311,0.0,0.0,0.0,1.95999993324,1,434.7117674325388,57.65993100224293,361.79032296596387,-18.454759175253862,2.8616935607051968,2.0532741542533643,0,Fixed-Wing
1970-01-01 00:00:45.557471232,11824,1536693592302121368,base_link,0,1,40.5907237,-79.8968016,362.355285295,0.489999983311,0.0,0.0,0.0,0.489999983311,0.0,0.0,0.0,1.95999993324,1,427.5665746606224,58.903308856591224,362.3407025475667,-17.88274236009894,3.1118832668806427,1.3774710595278783,0,Fixed-Wing
1970-01-01 00:00:45.964510240,11826,1536693592708923928,base_link,0,1,40.5907346,-79.8968843,362.665195871,0.489999983311,0.0,0.0,0.0,0.489999983311,0.0,0.0,0.0,1.95999993324,1,420.5652881613098,60.11338392337311,362.651066617424,-17.522578697742464,3.0285341972426605,0.7767685038400294,0,Fixed-Wing
1970-01-01 00:00:46.362084608,11828,1536693593106744504,base_link,0,1,40.5907443,-79.896966,362.745107995,0.489999983311,0.0,0.0,0.0,0.489999983311,0.0,0.0,0.0,1.95999993324,1,413.64865400051224,61.19020536254567,362.73142013306574,-17.310713740677375,2.6950316078580885,0.20110601124672345,0,Fixed-Wing
1970-01-01 00:00:46.763871520,11830,1536693593508117176,base_link,0,1,40.5907523,-79.8970473,362.605021263,0.489999983311,0.0,0.0,0.0,0.489999983311,0.0,0.0,0.0,1.95999993324,1,406.7658812508247,62.07824397342668,362.5917668091724,-17.225966567275705,2.22255244765719,-0.34951952881272735,0,Fixed-Wing
1970-01-01 00:00:47.229871872,11832,1536693593974394136,base_link,0,1,40.5907582,-79.8971285,362.254935534,0.489999983311,0.0,0.0,0.0,0.489999983311,0.0,0.0,0.0,1.95999993324,1,399.89157562773784,62.733077389019485,362.24210871927323,-17.204775334461715,1.6388945174237648,-0.875112223755127,0,Fixed-Wing
1970-01-01 00:00:47.563184864,11834,1536693594307271160,base_link,0,1,40.5907627,-79.8972099,361.634850206,0.489999983311,0.0,0.0,0.0,0.489999983311,0.0,0.0,0.0,1.95999993324,1,393.0003319079944,63.23244024266168,361.6224461546677,-17.247167419356995,1.2497881500112538,-1.550870122999678,0,Fixed-Wing
1970-01-01 00:00:47.967340352,11836,1536693594711406840,base_link,0,1,40.5907659,-79.8972918,360.994764927,0.489999983311,0.0,0.0,0.0,0.489999983311,0.0,0.0,0.0,1.95999993324,1,386.0667676187733,63.587438978963434,360.98278016743325,-17.35308588295333,0.8884786096180083,-1.6009340001563723,0,Fixed-Wing
1970-01-01 00:00:48.356434400,11838,1536693595100781752,base_link,0,1,40.5907676,-79.8973741,360.334679884,0.489999983311,0.0,0.0,0.0,0.489999983311,0.0,0.0,0.0,1.95999993324,1,379.0993493910961,63.77586372495125,360.3231105524744,-17.4378143540543,0.47158296414492207,-1.6509983906187078,0,Fixed-Wing
1970-01-01 00:00:48.726332864,11840,1536693595471075928,base_link,0,1,40.5907681,-79.8974571,359.744594644,0.489999983311,0.0,0.0,0.0,0.489999983311,0.0,0.0,0.0,1.95999993324,1,372.07268296299975,63.83102994816423,359.7334379229727,-17.586098709314662,0.13806812330870258,-1.4758123463970338,0,Fixed-Wing
1970-01-01 00:00:49.152612288,11842,1536693595896479384,base_link,0,1,40.5907674,-79.8975409,359.224509103,0.489999983311,0.0,0.0,0.0,0.489999983311,0.0,0.0,0.0,1.95999993324,1,364.97830192762274,63.75293744104994,359.2137624696377,-17.755572496050664,-0.19544723698259506,-1.3006258248740503,0,Fixed-Wing
1970-01-01 00:00:49.577233952,11844,1536693596321752920,base_link,0,1,40.590766,-79.8976254,358.954423153,0.489999983311,0.0,0.0,0.0,0.489999983311,0.0,0.0,0.0,1.95999993324,1,357.82467891923443,63.5971147648099,358.9440828245955,-17.903841265569223,-0.3899876269278433,-0.674944926749494,0,Fixed-Wing
1970-01-01 00:00:49.976119648,11846,1536693596717953752,base_link,0,1,40.5907645,-79.8977102,358.87433695,0.489999983311,0.0,0.0,0.0,0.489999983311,0.0,0.0,0.0,1.95999993324,1,350.64566971872136,63.430194438554935,358.86439641407185,-17.96737695281552,-0.4177624431370845,-0.19943640353506537,0,Fixed-Wing
1970-01-01 00:00:50.384558464,11848,1536693597129198840,base_link,0,1,40.590763,-79.8977946,358.954251168,0.489999983311,0.0,0.0,0.0,0.489999983311,0.0,0.0,0.0,1.95999993324,1,343.5005322502344,63.26328418105271,358.9447005315694,-17.882603948580556,-0.41773724340952667,0.2009823792730368,0,Fixed-Wing
1970-01-01 00:00:50.812112928,11850,1536693597556797560,base_link,0,1,40.5907618,-79.8978788,359.194165476,0.489999983311,0.0,0.0,0.0,0.489999983311,0.0,0.0,0.0,1.95999993324,1,336.3723328387069,63.12969880022544,359.1849955183747,-17.840211963037987,-0.33433288991152776,0.6014020162411502,0,Fixed-Wing
1970-01-01 00:00:51.179585984,11852,1536693597924211000,base_link,0,1,40.5907608,-79.8979625,359.404080223,0.489999983311,0.0,0.0,0.0,0.489999983311,0.0,0.0,0.0,1.95999993324,1,329.28645920041816,63.01833225283292,359.3952805863932,-17.73428047564738,-0.2787243588978845,0.5262942251650395,0,Fixed-Wing
1970-01-01 00:00:51.530597376,11854,1536693598275120536,base_link,0,1,40.5907597,-79.8980457,359.583995535,0.489999983311,0.0,0.0,0.0,0.489999983311,0.0,0.0,0.0,1.95999993324,1,322.2429129438299,62.895868740436526,359.57555632996093,-17.628344962654445,-0.30649746068504075,0.4511879215726717,0,Fixed-Wing
1970-01-01 00:00:51.933387296,11856,1536693598678168696,base_link,0,1,40.5907583,-79.8981284,359.643911497,0.489999983311,0.0,0.0,0.0,0.489999983311,0.0,0.0,0.0,1.95999993324,1,315.2416906372267,62.740096794632564,359.63582319324735,-17.52241803844036,-0.3898606605398035,0.15083382959774344,0,Fixed-Wing
1970-01-01 00:00:52.344429920,11858,1536693599089256536,base_link,0,1,40.590759,-79.8982105,359.583827199,0.489999983311,0.0,0.0,0.0,0.489999983311,0.0,0.0,0.0,1.95999993324,1,308.291247386487,62.81754213436565,359.57607737362895,-17.395329966462285,0.19382752875199283,-0.14952977945229304,0,Fixed-Wing
1970-01-01 00:00:52.772973856,11860,1536693599517691448,base_link,0,1,40.5907658,-79.8982902,359.083742793,0.489999983311,0.0,0.0,0.0,0.489999983311,0.0,0.0,0.0,1.95999993324,1,301.5439358777874,63.57241668642803,359.07630755854717,-16.886938839166195,1.8892740279568307,-1.250806679084831,0,Fixed-Wing
1970-01-01 00:00:53.137260608,11862,1536693599882057560,base_link,0,1,40.5907794,-79.8983678,358.243657681,0.489999983311,0.0,0.0,0.0,0.489999983311,0.0,0.0,0.0,1.95999993324,1,294.97436333605094,65.08245618244618,358.23651393981174,-16.442099874702738,3.7792748387421895,-2.1018065430686597,0,Fixed-Wing
1970-01-01 00:00:53.580517856,11864,1536693600325324536,base_link,0,1,40.5907999,-79.8984436,357.483571514,0.489999983311,0.0,0.0,0.0,0.489999983311,0.0,0.0,0.0,1.95999993324,1,288.5571537433864,67.3587683039903,357.47669720157205,-16.060771133764213,5.6970755723677735,-1.901643161292459,0,Fixed-Wing
1970-01-01 00:00:53.983331968,11866,1536693600728019608,base_link,0,1,40.5908264,-79.8985172,356.793485085,0.489999983311,0.0,0.0,0.0,0.489999983311,0.0,0.0,0.0,1.95999993324,1,282.3261752082154,70.30140663843719,356.7868573836933,-15.594678457623184,7.364733867040287,-1.726507335302381,0,Fixed-Wing
1970-01-01 00:00:54.413172704,11868,1536693601157983704,base_link,0,1,40.5908562,-79.8985895,356.243398613,0.489999983311,0.0,0.0,0.0,0.489999983311,0.0,0.0,0.0,1.95999993324,1,276.20525084165644,73.61052758725288,356.23700109914444,-15.319238675133366,8.281953931133124,-1.3761613696856685,0,Fixed-Wing
1970-01-01 00:00:54.752911584,11870,1536693601497709784,base_link,0,1,40.5908874,-79.8986626,355.873310752,0.489999983311,0.0,0.0,0.0,0.489999983311,0.0,0.0,0.0,1.95999993324,1,270.01660856251124,77.07512583938552,355.86713681896936,-15.48872073427437,8.671077170605132,-0.9256835807944762,0,Fixed-Wing
1970-01-01 00:00:55.152150208,11872,1536693601894313400,base_link,0,1,40.5909184,-79.8987374,355.783221257,0.489999983311,0.0,0.0,0.0,0.489999983311,0.0,0.0,0.0,1.95999993324,1,263.68406661463416,80.51751685252438,355.7772692450696,-15.848867868687588,8.615497657758972,-0.224917468552167,0,Fixed-Wing
1970-01-01 00:00:55.562379424,11874,1536693602307208568,base_link,0,1,40.5909479,-79.8988145,355.933130061,0.489999983311,0.0,0.0,0.0,0.489999983311,0.0,0.0,0.0,1.95999993324,1,257.15683294751676,83.7933312792398,355.92740186905144,-16.33613559762888,8.198595514832423,0.3757467601245546,0,Fixed-Wing
1970-01-01 00:00:55.925773088,11876,1536693602670194936,base_link,0,1,40.5909751,-79.8988939,356.303037502,0.489999983311,0.0,0.0,0.0,0.489999983311,0.0,0.0,0.0,1.95999993324,1,250.43490882933008,86.81372793423208,356.297535896954,-16.823400152635354,7.559344713389001,0.9263586961156222,0,Fixed-Wing
1970-01-01 00:00:56.333272928,11878,1536693603077957240,base_link,0,1,40.5910001,-79.898975,356.722944149,0.489999983311,0.0,0.0,0.0,0.489999983311,0.0,0.0,0.0,1.95999993324,1,243.56908094257537,89.58981209496301,356.7176695593239,-17.1835575479773,6.947887817866071,1.0514960590700027,0,Fixed-Wing
1970-01-01 00:00:56.794860544,11880,1536693603539684248,base_link,0,1,40.5910228,-79.8990578,357.132850044,0.489999983311,0.0,0.0,0.0,0.489999983311,0.0,0.0,0.0,1.95999993324,1,236.55934671044315,92.11047808292287,357.12780291262186,-17.54372139246922,6.308636012693674,1.0264676299760365,0,Fixed-Wing
1970-01-01 00:00:57.174064928,11882,1536693603918753176,base_link,0,1,40.5910435,-79.8991416,357.432755775,0.489999983311,0.0,0.0,0.0,0.489999983311,0.0,0.0,0.0,1.95999993324,1,229.4649614076542,94.40904225486949,357.4279337506769,-17.755583176382313,5.752767237664176,0.7511571237593891,0,Fixed-Wing
1970-01-01 00:00:57.524183584,11884,1536693604267951736,base_link,0,1,40.5910611,-79.8992272,357.692660985,0.489999983311,0.0,0.0,0.0,0.489999983311,0.0,0.0,0.0,1.95999993324,1,222.21820468627024,96.36334626043461,357.6880658815472,-18.136933114551443,4.891164750962615,0.6510497371351865,0,Fixed-Wing
1970-01-01 00:00:57.963100992,11886,1536693604707896952,base_link,0,1,40.5910764,-79.8993142,357.932565748,0.489999983311,0.0,0.0,0.0,0.489999983311,0.0,0.0,0.0,1.95999993324,1,214.852936997808,98.06223355500597,357.92819667569995,-18.433538280956054,4.2519166042761345,0.6009910805259215,0,Fixed-Wing
1970-01-01 00:00:58.319688128,11888,1536693605064196152,base_link,0,1,40.5910891,-79.8994025,358.12247029,0.489999983311,0.0,0.0,0.0,0.489999983311,0.0,0.0,0.0,1.95999993324,1,207.37762345312862,99.47238852803267,358.118326396396,-18.708957259470164,3.5292872950277365,0.4758501161184696,0,Fixed-Wing
1970-01-01 00:00:58.743817792,11890,1536693605488136568,base_link,0,1,40.5910987,-79.8994924,358.242374514,0.489999983311,0.0,0.0,0.0,0.489999983311,0.0,0.0,0.0,1.95999993324,1,199.76686694874172,100.53828432127165,358.2384564229,-19.047939233820617,2.66768727753913,0.30065729256828894,0,Fixed-Wing
1970-01-01 00:00:59.190842848,11892,1536693605935643448,base_link,0,1,40.5911048,-79.8995839,358.392278586,0.489999983311,0.0,0.0,0.0,0.489999983311,0.0,0.0,0.0,1.95999993324,1,192.02067088247003,101.21550197763293,358.3885873192288,-19.38691270421739,1.6949170242149545,0.3757424362139908,0,Fixed-Wing
1970-01-01 00:00:59.533455232,11894,1536693606278285816,base_link,0,1,40.5911068,-79.8996767,358.592183064,0.489999983311,0.0,0.0,0.0,0.489999983311,0.0,0.0,0.0,1.95999993324,1,184.16443350398237,101.43741148439977,358.58871960326485,-19.662320310161885,0.5553874700715516,0.5008841871168752,0,Fixed-Wing
1970-01-01 00:00:59.923704512,11896,1536693606668425176,base_link,0,1,40.5911045,-79.8997703,358.862088539,0.489999983311,0.0,0.0,0.0,0.489999983311,0.0,0.0,0.0,1.95999993324,1,176.2404831352677,101.18180401187664,358.85885269617205,-19.83179004979166,-0.6397255780716149,0.676079800447498,0,Fixed-Wing
1970-01-01 00:01:00.343858784,11898,1536693607086514392,base_link,0,1,40.5910979,-79.8998641,359.181995624,0.489999983311,0.0,0.0,0.0,0.489999983311,0.0,0.0,0.0,1.95999993324,1,168.29961210277403,100.44868054291044,359.178985558823,-19.87413850428142,-1.8348361663793449,0.8012175019670504,0,Fixed-Wing
1970-01-01 00:01:00.733732256,11900,1536693607478404152,base_link,0,1,40.5910869,-79.8999576,359.561904868,0.489999983311,0.0,0.0,0.0,0.489999983311,0.0,0.0,0.0,1.95999993324,1,160.3841480607993,99.22693687689795,359.5591176259845,-19.810550763530525,-3.057737965483074,0.9513814443998764,0,Fixed-Wing
1970-01-01 00:01:01.146353952,11902,1536693607891107832,base_link,0,1,40.5910723,-79.90005,360.051816753,0.489999983311,0.0,0.0,0.0,0.489999983311,0.0,0.0,0.0,1.95999993324,1,152.5618148612572,97.60541680424248,360.04924621220255,-19.57746609889453,-4.058284586106326,1.2266769435676927,0,Fixed-Wing
1970-01-01 00:01:01.563533152,11904,1536693608308023192,base_link,0,1,40.5910546,-79.9001412,360.60173117,0.489999983311,0.0,0.0,0.0,0.489999983311,0.0,0.0,0.0,1.95999993324,1,144.84107449352112,95.63964542624393,360.59937021855103,-19.323203058720097,-4.91986489570613,1.3768314145843228,0,Fixed-Wing
1970-01-01 00:01:01.936197120,11906,1536693608680984120,base_link,0,1,40.5910349,-79.9002309,361.201647964,0.489999983311,0.0,0.0,0.0,0.489999983311,0.0,0.0,0.0,1.95999993324,1,137.2473206707153,93.4517801517718,361.19948720090224,-19.005385508000863,-5.47571384998456,1.501952112962849,0,Fixed-Wing
1970-01-01 00:01:02.364756672,11908,1536693609109209368,base_link,0,1,40.5910141,-79.9003187,361.751567166,0.489999983311,0.0,0.0,0.0,0.489999983311,0.0,0.0,0.0,1.95999993324,1,129.81441207004144,91.14176673138667,361.74959529505793,-18.602827626211635,-5.78142202229747,1.3767915900962795,0,Fixed-Wing
1970-01-01 00:01:02.744181248,11910,1536693609488385144,base_link,0,1,40.5909937,-79.9004051,362.181487638,0.489999983311,0.0,0.0,0.0,0.489999983311,0.0,0.0,0.0,1.95999993324,1,122.50001564780072,88.87618153520964,362.1796922776105,-18.306219428069813,-5.670228593037877,1.0764319136460387,0,Fixed-Wing
1970-01-01 00:01:03.124503072,11912,1536693609868827960,base_link,0,1,40.5909746,-79.9004905,362.621408596,0.489999983311,0.0,0.0,0.0,0.489999983311,0.0,0.0,0.0,1.95999993324,1,115.27026969726077,86.75497270378531,362.6197770723353,-18.094359143203114,-5.308888400243084,1.1014290659298087,0,Fixed-Wing
1970-01-01 00:01:03.575376480,11914,1536693610319736632,base_link,0,1,40.5909604,-79.9005749,363.481328535,0.489999983311,0.0,0.0,0.0,0.489999983311,0.0,0.0,0.0,1.95999993324,1,108.12517583871607,85.17793394538705,363.4798432632399,-17.88249480311919,-3.946958284900464,2.1525440384239682,0,Fixed-Wing
1970-01-01 00:01:03.948863264,11916,1536693610693668024,base_link,0,1,40.5909575,-79.9006574,364.941245694,0.489999983311,0.0,0.0,0.0,0.489999983311,0.0,0.0,0.0,1.95999993324,1,101.14091973147174,84.85580356198744,364.9398791325874,-17.47995561906991,-0.8062168280940697,3.654127484238852,0,Fixed-Wing
1970-01-01 00:01:04.340951328,11918,1536693611085664280,base_link,0,1,40.5909711,-79.900733,366.801162996,0.489999983311,0.0,0.0,0.0,0.489999983311,0.0,0.0,0.0,1.95999993324,1,94.74078287313705,86.36605708522117,366.7998742507348,-16.018042082337708,3.7798104986853693,4.655131715914503,0,Fixed-Wing
1970-01-01 00:01:04.793737664,11920,1536693611536224984,base_link,0,1,40.5910021,-79.9007926,368.831089337,0.489999983311,0.0,0.0,0.0,0.489999983311,0.0,0.0,0.0,1.95999993324,1,89.69515235439059,89.80864810840635,368.82982577548154,-12.628030270314856,8.615998236013727,5.08049275636269,0,Fixed-Wing
1970-01-01 00:01:05.172440704,11922,1536693611917215032,base_link,0,1,40.5910431,-79.9008307,371.021033414,0.489999983311,0.0,0.0,0.0,0.489999983311,0.0,0.0,0.0,1.95999993324,1,86.46965933956585,94.3617928664793,371.019748436476,-8.0726528184262,11.395453871710641,5.480863006107886,0,Fixed-Wing
1970-01-01 00:01:05.534339904,11924,1536693612279033688,base_link,0,1,40.5910868,-79.9008502,373.290995318,0.489999983311,0.0,0.0,0.0,0.489999983311,0.0,0.0,0.0,1.95999993324,1,84.81880368470738,99.21480300419958,373.28965865458497,-4.131704670807429,12.145946615310606,5.681053108957837,0,Fixed-Wing
1970-01-01 00:01:05.929170624,11926,1536693612673975640,base_link,0,1,40.5911307,-79.9008581,375.400968962,0.489999983311,0.0,0.0,0.0,0.489999983311,0.0,0.0,0.0,1.95999993324,1,84.14997861651457,104.09003592314983,375.39956325968876,-1.6739123436217083,12.201565026730151,5.280596571971511,0,Fixed-Wing
1970-01-01 00:01:06.350478432,11928,1536693613095283832,base_link,0,1,40.591174,-79.9008589,377.290950096,0.489999983311,0.0,0.0,0.0,0.489999983311,0.0,0.0,0.0,1.95999993324,1,84.08222291815841,108.89864360025618,377.2894648044185,-0.16957662806442567,12.034817666287125,4.729980490266126,0,Fixed-Wing
1970-01-01 00:01:06.779546816,11930,1536693613523464440,base_link,0,1,40.5912167,-79.9008549,378.850936376,0.489999983311,0.0,0.0,0.0,0.489999983311,0.0,0.0,0.0,1.95999993324,1,84.42082142293012,113.64062128828988,378.84936369306,0.8474326750351887,11.868058424643479,3.9040612092399565,0,Fixed-Wing
1970-01-01 00:01:07.118987168,11932,1536693613863141432,base_link,0,1,40.5912602,-79.900848,380.050925285,0.489999983311,0.0,0.0,0.0,0.489999983311,0.0,0.0,0.0,1.95999993324,1,85.0049215663306,118.47143956844695,380.04925674360584,1.4618657201219263,12.090405598579117,3.003050997717039,0,Fixed-Wing
1970-01-01 00:01:07.571804576,11934,1536693614316470424,base_link,0,1,40.5913051,-79.9008402,381.140914536,0.489999983311,0.0,0.0,0.0,0.489999983311,0.0,0.0,0.0,1.95999993324,1,85.66520991662092,123.45773223273167,381.13914238011523,1.6525469400946284,12.47952153200466,2.7277282309687036,0,Fixed-Wing
1970-01-01 00:01:07.942583712,11936,1536693614687260184,base_link,0,1,40.5913517,-79.9008349,381.900900544,0.489999983311,0.0,0.0,0.0,0.489999983311,0.0,0.0,0.0,1.95999993324,1,86.11384662785821,128.6328071540826,381.8990198387612,1.1228325080145676,12.951999262562447,1.9017951302338434,0,Fixed-Wing
1970-01-01 00:01:08.339997216,11938,1536693615084785944,base_link,0,1,40.5913997,-79.9008328,382.420882723,0.489999983311,0.0,0.0,0.0,0.489999983311,0.0,0.0,0.0,1.95999993324,1,86.29157319104323,133.963348963043,382.41888962371337,0.4448079207149361,13.341096433960502,1.3011121913518529,0,Fixed-Wing
1970-01-01 00:01:08.724121120,11940,1536693615468673688,base_link,0,1,40.5914491,-79.900835,382.470859955,0.489999983311,0.0,0.0,0.0,0.489999983311,0.0,0.0,0.0,1.95999993324,1,86.10526360412324,139.44935096147327,382.46875150350365,-0.4662892168846314,13.730176841485546,0.12479259529351183,0,Fixed-Wing
