time,field.header.seq,field.header.stamp,field.header.frame_id,field.status.status,field.status.service,lat,lon,alt,field.position_covariance0,field.position_covariance1,field.position_covariance2,field.position_covariance3,field.position_covariance4,field.position_covariance5,field.position_covariance6,field.position_covariance7,field.position_covariance8,field.position_covariance_type,x,y,z,vel_x,vel_y,vel_z,track_id,uav_category
1970-01-01 00:00:00.000000000,2532,1536703357992094260,base_link,0,1,40.5915504,-79.8974049,381.244318864,0.348099969053,0.0,0.0,0.0,0.348099969053,0.0,0.0,0.0,1.39239987621,1,326.2614400617254,126.12965035445916,381.23473643123776,-18.080348050954193,-0.945062126037017,-1.0246214151966744,0,Fixed-Wing
1970-01-01 00:00:00.369652777,2534,1536703358361597725,base_link,0,1,40.591547,-79.8974903,380.834232883,0.348099969053,0.0,0.0,0.0,0.348099969053,0.0,0.0,0.0,1.39239987621,1,319.03168744728646,125.75175025224499,380.8250231151859,-18.080348050954193,-0.945062126037017,-1.0246214151966744,0,Fixed-Wing
1970-01-01 00:00:00.778908537,2536,1536703358770991885,base_link,0,1,40.591544,-79.8975759,380.294146541,0.348099969053,0.0,0.0,0.0,0.348099969053,0.0,0.0,0.0,1.39239987621,1,311.7849953297384,125.41827500408212,380.285301184933,-18.122710788430272,-0.8339633283055152,-1.3497502432124628,0,Fixed-Wing
1970-01-01 00:00:01.153255256,2538,1536703359145341803,base_link,0,1,40.5915447,-79.8976611,379.724059071,0.348099969053,0.0,0.0,0.0,0.348099969053,0.0,0.0,0.0,1.39239987621,1,304.5721485590085,125.49570245118028,379.7155601824921,-18.03806948975643,0.19363251647583582,-1.424822697592543,0,Fixed-Wing
1970-01-01 00:00:01.586095952,2540,1536703359577833285,base_link,0,1,40.5915503,-79.8977452,378.933970688,0.31360000267,0.0,0.0,0.0,0.31360000267,0.0,0.0,0.0,1.25440001068,1,297.45239446412654,126.11729414694926,378.92579502358444,-17.805260973326085,1.554492221855673,-1.9750646686097457,0,Fixed-Wing
1970-01-01 00:00:01.972555645,2542,1536703359964632625,base_link,0,1,40.5915615,-79.8978275,377.623881816,0.31360000267,0.0,0.0,0.0,0.31360000267,0.0,0.0,0.0,1.25440001068,1,290.4849788049684,127.36078269441725,377.6160020363794,-17.424289163319198,3.1097475853731487,-3.275563403935835,0,Fixed-Wing
1970-01-01 00:00:02.379266372,2544,1536703360371291608,base_link,0,1,40.5915784,-79.8979072,375.633793234,0.31360000267,0.0,0.0,0.0,0.31360000267,0.0,0.0,0.0,1.25440001068,1,283.7376232190595,129.23727156954058,375.6261788964862,-16.8739573707046,4.6927708021730385,-4.976199995731708,0,Fixed-Wing
1970-01-01 00:00:02.765724009,2546,1536703360757440958,base_link,0,1,40.5916023,-79.8979837,373.193705013,0.31360000267,0.0,0.0,0.0,0.31360000267,0.0,0.0,0.0,1.25440001068,1,277.26113020314415,131.89113392960002,373.18632062205154,-16.196577410333827,6.636846059348172,-6.101659233633702,0,Fixed-Wing
1970-01-01 00:00:03.143931345,2548,1536703361135913637,base_link,0,1,40.5916338,-79.8980566,370.663617314,0.31360000267,0.0,0.0,0.0,0.31360000267,0.0,0.0,0.0,1.25440001068,1,271.08937829741114,135.38900800458856,370.6564243650182,-15.434473140468864,8.747571886193805,-6.326828495986998,0,Fixed-Wing
1970-01-01 00:00:03.583034483,2550,1536703361574727433,base_link,0,1,40.591672,-79.8981257,368.243530722,0.31360000267,0.0,0.0,0.0,0.31360000267,0.0,0.0,0.0,1.25440001068,1,265.2393123580412,139.63094968697118,368.2364916955395,-14.629992746031007,10.608354963094364,-6.051828777193289,0,Fixed-Wing
1970-01-01 00:00:03.951598353,2552,1536703361941115630,base_link,0,1,40.591715,-79.8981922,365.793444806,0.31360000267,0.0,0.0,0.0,0.31360000267,0.0,0.0,0.0,1.25440001068,1,259.60934610212087,144.405951307179,365.7865304978053,-14.079561895226302,11.941444727279581,-6.126924879545707,0,Fixed-Wing
1970-01-01 00:00:04.368502978,2554,1536703362360612981,base_link,0,1,40.5917622,-79.8982566,363.523359309,0.348099969053,0.0,0.0,0.0,0.348099969053,0.0,0.0,0.0,1.39239987621,1,254.15716228545818,149.64738376861743,363.51654314973825,-13.634959078152496,13.107906762827787,-5.6768417279378385,0,Fixed-Wing
1970-01-01 00:00:04.770647006,2556,1536703362762504499,base_link,0,1,40.5918132,-79.8983204,361.813272867,0.348099969053,0.0,0.0,0.0,0.348099969053,0.0,0.0,0.0,1.39239987621,1,248.755791866752,155.31083074411936,361.8065336212018,-13.507883648369445,14.16329132489203,-4.276435044905899,0,Fixed-Wing
1970-01-01 00:00:05.205054336,2558,1536703363196825621,base_link,0,1,40.5918662,-79.898385,361.063184803,0.348099969053,0.0,0.0,0.0,0.348099969053,0.0,0.0,0.0,1.39239987621,1,243.28673642397064,161.1964053750438,361.05650981684306,-13.67715206713554,14.718793779258286,-1.8756784847968866,0,Fixed-Wing
1970-01-01 00:00:05.570916707,2560,1536703363562979735,base_link,0,1,40.5919185,-79.89845,361.35309665,0.348099969053,0.0,0.0,0.0,0.348099969053,0.0,0.0,0.0,1.39239987621,1,237.78386940361418,167.0042722772032,361.3464790970588,-13.761708914833049,14.524460327306485,0.7251625041657682,0,Fixed-Wing
1970-01-01 00:00:05.951181486,2562,1536703363941944487,base_link,0,1,40.5919689,-79.8985137,362.333010644,0.348099969053,0.0,0.0,0.0,0.348099969053,0.0,0.0,0.0,1.39239987621,1,232.39109582736486,172.60116652301656,362.32644220564003,-13.48638444749095,13.996854576543658,2.4507165079006485,0,Fixed-Wing
1970-01-01 00:00:06.372133337,2564,1536703364363907822,base_link,0,1,40.5920176,-79.8985742,363.652928637,0.348099969053,0.0,0.0,0.0,0.348099969053,0.0,0.0,0.0,1.39239987621,1,227.26924781186105,178.00929517673003,363.6463954868797,-12.808846958255762,13.524784813272069,3.3009725240321584,0,Fixed-Wing
1970-01-01 00:00:06.764900876,2566,1536703364756758049,base_link,0,1,40.5920655,-79.8986299,364.882851888,0.348099969053,0.0,0.0,0.0,0.348099969053,0.0,0.0,0.0,1.39239987621,1,222.55375634481987,183.32859724589002,364.87633373781637,-11.79262023227959,13.302645045765074,3.0758606613598514,0,Fixed-Wing
1970-01-01 00:00:07.202621733,2568,1536703365191356519,base_link,0,1,40.5921147,-79.8986789,365.952781461,0.348099969053,0.0,0.0,0.0,0.348099969053,0.0,0.0,0.0,1.39239987621,1,218.40545906897512,188.79228439526105,365.94624673110377,-10.374166664611208,13.663726903305657,2.6756654528179373,0,Fixed-Wing
1970-01-01 00:00:07.595594001,2570,1536703365587495686,base_link,0,1,40.5921655,-79.8987212,366.602717232,0.396899993992,0.0,0.0,0.0,0.396899993992,0.0,0.0,0.0,1.58759997597,1,214.82434586881,194.43366312834553,366.59613405673076,-8.955738394082813,14.108102506538357,1.6252546481013528,0,Fixed-Wing
1970-01-01 00:00:07.978776680,2572,1536703365970328382,base_link,0,1,40.5922186,-79.8987566,366.722659113,0.396899993992,0.0,0.0,0.0,0.396899993992,0.0,0.0,0.0,1.58759997597,1,211.82734202308998,200.33046529359262,366.7159931049627,-7.494982958676439,14.746871880838414,0.2997465369370507,0,Fixed-Wing
1970-01-01 00:00:08.379254291,2574,1536703366371166792,base_link,0,1,40.592275,-79.8987828,366.312609036,0.396899993992,0.0,0.0,0.0,0.396899993992,0.0,0.0,0.0,1.58759997597,1,209.60915374687215,206.593746634574,366.3058159245183,-5.547301299973567,15.663372265300962,-1.025781458992485,0,Fixed-Wing
1970-01-01 00:00:08.766277782,2576,1536703366754117917,base_link,0,1,40.5923356,-79.8987947,365.842571834,0.396899993992,0.0,0.0,0.0,0.396899993992,0.0,0.0,0.0,1.58759997597,1,208.60153936310613,213.32347983028302,365.83558964103054,-2.519867515695243,16.829886851933715,-1.175953773464647,0,Fixed-Wing
1970-01-01 00:00:09.168378425,2578,1536703367160307406,base_link,0,1,40.5923986,-79.8987909,365.412549679,0.396899993992,0.0,0.0,0.0,0.396899993992,0.0,0.0,0.0,1.58759997597,1,208.92302307952332,220.31977654926612,365.40531857172226,0.8039746026618562,17.496515647621475,-1.0760327640828369,0,Fixed-Wing
1970-01-01 00:00:09.558051051,2580,1536703367549639777,base_link,0,1,40.5924616,-79.8987712,365.062543763,0.409599981689,0.0,0.0,0.0,0.409599981689,0.0,0.0,0.0,1.63839992676,1,210.59054092916426,227.31611317376735,365.05501179555506,4.170170780459912,17.496615444349697,-0.876056038910844,0,Fixed-Wing
1970-01-01 00:00:09.976094458,2582,1536703367967358514,base_link,0,1,40.5925233,-79.898737,364.672553194,0.409599981689,0.0,0.0,0.0,0.409599981689,0.0,0.0,0.0,1.63839992676,1,213.48557064869937,234.16811493162004,364.66467664209006,7.239963486788397,17.135659162155235,-0.9761600164679415,0,Fixed-Wing
1970-01-01 00:00:10.377824693,2584,1536703368369635754,base_link,0,1,40.5925804,-79.8986863,364.53258137,0.409599981689,0.0,0.0,0.0,0.409599981689,0.0,0.0,0.0,1.63839992676,1,217.77744122684535,240.50932613466932,364.5243234009892,10.733218407439427,15.858261233830373,-0.35099893239982727,0,Fixed-Wing
1970-01-01 00:00:10.749024637,2586,1536703368741002258,base_link,0,1,40.5926306,-79.8986202,364.702628115,0.409599981689,0.0,0.0,0.0,0.409599981689,0.0,0.0,0.0,1.63839992676,1,223.3730386665479,246.08432895918344,364.69396374590076,13.993611491048407,13.94210795691107,0.42424086176327297,0,Fixed-Wing
1970-01-01 00:00:11.143022112,2588,1536703369131348039,base_link,0,1,40.5926711,-79.8985417,365.082691521,0.409599981689,0.0,0.0,0.0,0.409599981689,0.0,0.0,0.0,1.63839992676,1,230.01840114937218,250.58216852728776,365.0736157626345,16.618890440906206,11.248310862845551,0.9494433581425811,0,Fixed-Wing
1970-01-01 00:00:11.549151258,2590,1536703369540681361,base_link,0,1,40.592699,-79.8984525,365.822771046,0.409599981689,0.0,0.0,0.0,0.409599981689,0.0,0.0,0.0,1.63839992676,1,237.56963145261142,253.680797235375,365.8132961181251,18.88430757959936,7.749128982782401,1.8498113264641765,0,Fixed-Wing
1970-01-01 00:00:11.978201569,2592,1536703369970122294,base_link,0,1,40.5927127,-79.8983569,366.802862964,0.409599981689,0.0,0.0,0.0,0.409599981689,0.0,0.0,0.0,1.63839992676,1,245.66271552236512,255.20251711931522,366.7930210548967,20.23938917281128,3.805555543179803,2.4501208818200446,0,Fixed-Wing
1970-01-01 00:00:12.375203402,2594,1536703370363570033,base_link,0,1,40.5927122,-79.8982593,367.832962788,0.409599981689,0.0,0.0,0.0,0.409599981689,0.0,0.0,0.0,1.63839992676,1,253.92516610008346,255.1473090589439,367.822799981294,20.662945216217203,-0.13806571261344655,2.5752971640573503,0,Fixed-Wing
1970-01-01 00:00:12.750518302,2596,1536703370742399091,base_link,0,1,40.5926983,-79.8981631,368.853066723,0.372100017452,0.0,0.0,0.0,0.372100017452,0.0,0.0,0.0,1.48840006981,1,262.0691531885499,253.6040023219847,368.84263667714856,20.36668872844643,-3.8595404907599744,2.5504333826526873,0,Fixed-Wing
1970-01-01 00:00:13.184606757,2598,1536703371176595258,base_link,0,1,40.5926738,-79.8980701,369.603171783,0.372100017452,0.0,0.0,0.0,0.372100017452,0.0,0.0,0.0,1.48840006981,1,269.9422786081653,250.88352704610233,369.5925217153807,19.689311021675667,-6.803433322702403,1.8753314549605138,0,Fixed-Wing
1970-01-01 00:00:13.602588981,2600,1536703371594591434,base_link,0,1,40.5926394,-79.8979818,370.033276153,0.372100017452,0.0,0.0,0.0,0.372100017452,0.0,0.0,0.0,1.48840006981,1,277.41755570482684,247.0636124010598,370.0224552729736,18.69436188107465,-9.552939082503553,1.0751887062553231,0,Fixed-Wing
1970-01-01 00:00:13.997612064,2602,1536703371989619477,base_link,0,1,40.5925955,-79.8979007,370.183377117,0.372100017452,0.0,0.0,0.0,0.372100017452,0.0,0.0,0.0,1.48840006981,1,284.28334603071994,242.18867201231106,370.1724417837712,17.170141961580075,-12.19137412533321,0.3750900567126884,0,Fixed-Wing
1970-01-01 00:00:14.351920970,2604,1536703372343685408,base_link,0,1,40.5925427,-79.8978278,370.033473413,0.372100017452,0.0,0.0,0.0,0.372100017452,0.0,0.0,0.0,1.48840006981,1,290.454990777317,236.3253322458762,370.02248089910637,15.434205154193517,-14.663188268215631,-0.3750259702322659,0,Fixed-Wing
1970-01-01 00:00:14.791386206,2606,1536703372783381459,base_link,0,1,40.5924821,-79.8977635,369.59356418,0.372100017452,0.0,0.0,0.0,0.372100017452,0.0,0.0,0.0,1.48840006981,1,295.89862309991025,229.59574905946778,369.5825682001903,13.61357328566742,-16.829511704883696,-1.1001447950725967,0,Fixed-Wing
1970-01-01 00:00:15.169631208,2608,1536703373161304671,base_link,0,1,40.5924134,-79.8977117,369.193645562,0.372100017452,0.0,0.0,0.0,0.372100017452,0.0,0.0,0.0,1.48840006981,1,300.28409992269206,221.96660444918163,369.1827156381705,10.96731126967352,-19.079157647739123,-0.9999613923088612,0,Fixed-Wing
1970-01-01 00:00:15.567465758,2610,1536703373559011477,base_link,0,1,40.5923396,-79.8976724,368.963716317,0.348099969053,0.0,0.0,0.0,0.348099969053,0.0,0.0,0.0,1.39239987621,1,303.6114124772699,213.77105839358967,368.95290972918093,8.321027325461941,-20.49562869644973,-0.5747044249342035,0,Fixed-Wing
1970-01-01 00:00:15.962883970,2612,1536703373954739896,base_link,0,1,40.5922629,-79.8976439,368.983777271,0.348099969053,0.0,0.0,0.0,0.348099969053,0.0,0.0,0.0,1.39239987621,1,306.0244681182782,205.25343283184733,368.97313599472636,6.034630530595915,-21.301093265133332,0.05058235604107341,0,Fixed-Wing
1970-01-01 00:00:16.394041085,2614,1536703374384933560,base_link,0,1,40.5921857,-79.8976225,369.35383121,0.348099969053,0.0,0.0,0.0,0.348099969053,0.0,0.0,0.0,1.39239987621,1,307.8364872268716,196.6802678469413,369.3433736438109,4.531543180733151,-21.43998765819231,0.9258996696022572,0,Fixed-Wing
1970-01-01 00:00:16.765642890,2616,1536703374757765567,base_link,0,1,40.592109,-79.8976039,369.873882112,0.348099969053,0.0,0.0,0.0,0.348099969053,0.0,0.0,0.0,1.39239987621,1,309.4114771422448,188.1626232564857,369.8636060342989,3.938774584045686,-21.301140852620374,1.3010103096222936,0,Fixed-Wing
1970-01-01 00:00:17.143057568,2618,1536703375135107125,base_link,0,1,40.5920337,-79.8975868,370.07393093,0.348099969053,0.0,0.0,0.0,0.348099969053,0.0,0.0,0.0,1.39239987621,1,310.85946377195063,179.80043687489035,370.06382634176515,3.6211615575785956,-20.912367035109927,0.5007160049471945,0,Fixed-Wing
1970-01-01 00:00:17.576337696,2620,1536703375568239734,base_link,0,1,40.591959,-79.8975691,370.153980144,0.348099969053,0.0,0.0,0.0,0.348099969053,0.0,0.0,0.0,1.39239987621,1,312.3582391680836,171.5048807459839,370.14403144715317,3.748175388210606,-20.745736415283144,0.20057895452503757,0,Fixed-Wing
1970-01-01 00:00:17.965257033,2622,1536703375957275038,base_link,0,1,40.5918855,-79.89755,369.964030321,0.348099969053,0.0,0.0,0.0,0.348099969053,0.0,0.0,0.0,1.39239987621,1,313.97551872104793,163.34258586177953,369.9542171049508,4.044533578491666,-20.412473326708778,-0.4746925040321794,0,Fixed-Wing
1970-01-01 00:00:18.391610900,2624,1536703376383725224,base_link,0,1,40.5918131,-79.8975296,369.5040814,0.348099969053,0.0,0.0,0.0,0.348099969053,0.0,0.0,0.0,1.39239987621,1,315.70283729037726,155.30244772173336,369.4943843660535,4.319721931560733,-20.10698065373115,-1.1499613344836768,0,Fixed-Wing
1970-01-01 00:00:18.772980268,2626,1536703376764913313,base_link,0,1,40.591741,-79.8975072,368.994134431,0.348099969053,0.0,0.0,0.0,0.348099969053,0.0,0.0,0.0,1.39239987621,1,317.59946957556366,147.29563303523503,368.98453376380195,4.743145951129871,-20.023644518937076,-1.2750472712284073,0,Fixed-Wing
1970-01-01 00:00:19.185554792,2628,1536703377177559133,base_link,0,1,40.5916694,-79.8974816,368.434190557,0.348099969053,0.0,0.0,0.0,0.348099969053,0.0,0.0,0.0,1.39239987621,1,319.76700364378763,139.3443569639695,368.4246608479177,5.420623976472166,-19.88475214637215,-1.4001443373418916,0,Fixed-Wing
1970-01-01 00:00:19.548184152,2630,1536703377540311693,base_link,0,1,40.5915987,-79.8974511,367.904251352,0.348099969053,0.0,0.0,0.0,0.348099969053,0.0,0.0,0.0,1.39239987621,1,322.3493596099976,131.4930487645969,367.89475894304303,6.45802106247548,-19.634749965920243,-1.325192075571667,0,Fixed-Wing
1970-01-01 00:00:20.000878993,2632,1536703377991505679,base_link,0,1,40.5915305,-79.897414,367.434317887,0.348099969053,0.0,0.0,0.0,0.348099969053,0.0,0.0,0.0,1.39239987621,1,325.4904498239328,123.91939948741265,367.4248181970996,7.855317789708676,-18.940373516220966,-1.1752396939575165,0,Fixed-Wing
1970-01-01 00:00:20.375237918,2634,1536703378366312889,base_link,0,1,40.5914658,-79.8973687,367.09439138,0.348099969053,0.0,0.0,0.0,0.348099969053,0.0,0.0,0.0,1.39239987621,1,329.32572613517317,116.73446924868531,367.0848309778197,9.591355925556343,-17.968255121008266,-0.8502486302477802,0,Fixed-Wing
1970-01-01 00:00:20.819024776,2636,1536703378810716927,base_link,0,1,40.5914047,-79.8973165,366.834470458,0.348099969053,0.0,0.0,0.0,0.348099969053,0.0,0.0,0.0,1.39239987621,1,333.74513225809625,109.94935805026293,366.8248015374853,11.052162520939605,-16.96837756065098,-0.6502881959406412,0,Fixed-Wing
1970-01-01 00:00:21.165417806,2638,1536703379157489475,base_link,0,1,40.5913478,-79.8972577,366.694554561,0.348099969053,0.0,0.0,0.0,0.348099969053,0.0,0.0,0.0,1.39239987621,1,338.723271003948,103.6306975649976,366.6847296457456,12.449455184840412,-15.801865828886848,-0.35029532680708225,0,Fixed-Wing
1970-01-01 00:00:21.593120124,2640,1536703379585232176,base_link,0,1,40.5912952,-79.8971928,366.454643133,0.348099969053,0.0,0.0,0.0,0.348099969053,0.0,0.0,0.0,1.39239987621,1,344.2178019316655,97.78958841086006,366.4446169389856,13.740861803688981,-14.607593391162936,-0.6004799252754512,0,Fixed-Wing
1970-01-01 00:00:21.997925313,2642,1536703379989608792,base_link,0,1,40.5912463,-79.8971235,366.164734684,0.348099969053,0.0,0.0,0.0,0.348099969053,0.0,0.0,0.0,1.39239987621,1,350.0848127380584,92.35939446568634,366.1544707668379,14.672368897718492,-13.57996625179741,-0.7256048799795736,0,Fixed-Wing
1970-01-01 00:00:22.396889456,2644,1536703380388553128,base_link,0,1,40.5912003,-79.8970508,365.894828526,0.348099969053,0.0,0.0,0.0,0.348099969053,0.0,0.0,0.0,1.39239987621,1,356.2396535175609,87.25127166220926,365.88429640904684,15.392181368607837,-12.774522601151062,-0.6756588619020861,0,Fixed-Wing
1970-01-01 00:00:22.755002067,2646,1536703380746961736,base_link,0,1,40.5911569,-79.8969759,365.764923554,0.348099969053,0.0,0.0,0.0,0.348099969053,0.0,0.0,0.0,1.39239987621,1,362.5807432006825,82.43190151169813,365.7540989031962,15.857957333724116,-12.052402669158656,-0.3256012130268421,0,Fixed-Wing
1970-01-01 00:00:23.128677977,2648,1536703381120676559,base_link,0,1,40.591116,-79.8968996,365.595018989,0.348099969053,0.0,0.0,0.0,0.348099969053,0.0,0.0,0.0,1.39239987621,1,369.0403457163004,77.89017335005141,365.583881619628,16.1543372203275,-11.358068566743816,-0.4256836845364128,0,Fixed-Wing
1970-01-01 00:00:23.578024491,2650,1536703381570036608,base_link,0,1,40.5910776,-79.8968215,365.52511524,0.348099969053,0.0,0.0,0.0,0.348099969053,0.0,0.0,0.0,1.39239987621,1,375.6523318023009,73.62609086877973,365.51364321294506,16.53542190422968,-10.663725232505941,-0.17565398252163436,0,Fixed-Wing
1970-01-01 00:00:23.969050577,2652,1536703381957488447,base_link,0,1,40.5910433,-79.8967415,365.435211732,0.348099969053,0.0,0.0,0.0,0.348099969053,0.0,0.0,0.0,1.39239987621,1,382.4251507813914,69.8173372037927,365.42338073551434,16.937636867892554,-9.525027421516658,-0.2257306847027339,0,Fixed-Wing
1970-01-01 00:00:24.397572246,2654,1536703382389646603,base_link,0,1,40.5910151,-79.8966589,365.295308336,0.348099969053,0.0,0.0,0.0,0.348099969053,0.0,0.0,0.0,1.39239987621,1,389.41804871621906,66.68602035410197,365.2830884318598,17.488015882310364,-7.8308763134102595,-0.3508465384940004,0,Fixed-Wing
1970-01-01 00:00:24.759728492,2656,1536703382751478563,base_link,0,1,40.5909941,-79.8965735,365.02540479,0.348099969053,0.0,0.0,0.0,0.348099969053,0.0,0.0,0.0,1.39239987621,1,396.64794392246745,64.3542986743019,365.01276403424475,18.080704648154857,-5.8312285049067905,-0.6760340852858199,0,Fixed-Wing
1970-01-01 00:00:25.176188166,2658,1536703383167942333,base_link,0,1,40.5909805,-79.8964862,364.495500082,0.348099969053,0.0,0.0,0.0,0.348099969053,0.0,0.0,0.0,1.39239987621,1,404.03863222479805,62.8443779438075,364.4824112034293,18.482820086455035,-3.776047922050277,-1.3263197625602585,0,Fixed-Wing
1970-01-01 00:00:25.535540920,2660,1536703383527437998,base_link,0,1,40.5909774,-79.8963973,363.985592591,0.348099969053,0.0,0.0,0.0,0.348099969053,0.0,0.0,0.0,1.39239987621,1,411.5647119767474,62.50052227563987,363.97202660961545,18.821410445320303,-0.8599229449909335,-1.2763826908226048,0,Fixed-Wing
1970-01-01 00:00:25.953238466,2662,1536703383945154904,base_link,0,1,40.590988,-79.8963099,363.405677779,0.348099969053,0.0,0.0,0.0,0.348099969053,0.0,0.0,0.0,1.39239987621,1,418.9637141780045,63.67808367405382,363.3916190993748,18.503611695002185,2.944875304885504,-1.4514977698657092,0,Fixed-Wing
1970-01-01 00:00:26.373893311,2664,1536703384365694230,base_link,0,1,40.5910132,-79.8962276,362.785751569,0.348099969053,0.0,0.0,0.0,0.348099969053,0.0,0.0,0.0,1.39239987621,1,425.93086197268315,66.47699131489483,362.77120348307056,17.42361928105931,6.999578963160364,-1.551551052607932,0,Fixed-Wing
1970-01-01 00:00:26.798919924,2666,1536703384790672587,base_link,0,1,40.5910537,-79.8961557,362.265808225,0.348099969053,0.0,0.0,0.0,0.348099969053,0.0,0.0,0.0,1.39239987621,1,432.01746966706276,70.97495566349303,362.2508027916943,15.221542344922847,11.248622917058135,-1.3014312007369104,0,Fixed-Wing
1970-01-01 00:00:27.151044431,2668,1536703385142967525,base_link,0,1,40.5911076,-79.8961011,362.185841472,0.348099969053,0.0,0.0,0.0,0.348099969053,0.0,0.0,0.0,1.39239987621,1,436.63943215659947,76.96094484634122,362.170452176112,11.558720601640324,14.969913028419844,-0.2009428500962572,0,Fixed-Wing
1970-01-01 00:00:27.552424534,2670,1536703385540124108,base_link,0,1,40.5911699,-79.8960667,362.665850453,0.348099969053,0.0,0.0,0.0,0.348099969053,0.0,0.0,0.0,1.39239987621,1,439.55128488002856,83.87968275956285,362.65017400159877,7.282034880083158,17.302554626080692,1.1997004648703147,0,Fixed-Wing
1970-01-01 00:00:27.939577289,2672,1536703385931651870,base_link,0,1,40.5912338,-79.8960525,364.095838046,0.348099969053,0.0,0.0,0.0,0.348099969053,0.0,0.0,0.0,1.39239987621,1,440.75310344706475,90.97601897727762,364.07998127549274,3.005538245211381,17.746696954281823,3.57569816512942,0,Fixed-Wing
1970-01-01 00:00:28.418349034,2674,1536703386410004802,base_link,0,1,40.5912948,-79.8960506,365.995814258,0.348099969053,0.0,0.0,0.0,0.348099969053,0.0,0.0,0.0,1.39239987621,1,440.9136834638512,97.7502522704259,365.9798459472863,0.4015825642123616,16.941173820231388,4.751229585247081,0,Fixed-Wing
1970-01-01 00:00:28.825015339,2676,1536703386812317573,base_link,0,1,40.5913526,-79.8960523,367.895788144,0.348099969053,0.0,0.0,0.0,0.348099969053,0.0,0.0,0.0,1.39239987621,1,440.7695171417563,104.16910385575852,367.87972793923757,-0.36053478171526127,16.052426263998665,4.751272899935096,0,Fixed-Wing
1970-01-01 00:00:29.147883294,2678,1536703387139962003,base_link,0,1,40.591408,-79.8960536,369.335763468,0.348099969053,0.0,0.0,0.0,0.348099969053,0.0,0.0,0.0,1.39239987621,1,440.6591980007589,110.32142743317695,369.3196071807891,-0.27588889582906373,15.385886286020458,3.6008863963896163,0,Fixed-Wing
1970-01-01 00:00:29.579907900,2680,1536703387571818898,base_link,0,1,40.591462,-79.8960535,370.065740833,0.348099969053,0.0,0.0,0.0,0.348099969053,0.0,0.0,0.0,1.39239987621,1,440.6673596246256,116.31827439335376,370.04947718178715,0.02041079522909996,14.997066432364706,1.8252773440186814,0,Fixed-Wing
1970-01-01 00:00:29.997146669,2682,1536703387988981764,base_link,0,1,40.5915151,-79.8960515,370.005720541,0.348099969053,0.0,0.0,0.0,0.348099969053,0.0,0.0,0.0,1.39239987621,1,440.836321643837,122.21516988023882,369.98933469824874,0.4225444877094243,14.747105261949086,-0.15040584277414965,0,Fixed-Wing
1970-01-01 00:00:30.351447867,2684,1536703388342665431,base_link,0,1,40.5915686,-79.8960475,369.365702146,0.348099969053,0.0,0.0,0.0,0.348099969053,0.0,0.0,0.0,1.39239987621,1,441.17455530772827,128.15648464076605,369.34917605698195,0.8458632946154419,14.858190104052422,-1.6009249083867523,0,Fixed-Wing
1970-01-01 00:00:30.769381993,2686,1536703388758710900,base_link,0,1,40.5916222,-79.8960406,368.405686697,0.348099969053,0.0,0.0,0.0,0.348099969053,0.0,0.0,0.0,1.39239987621,1,441.75827150527044,134.10891132121543,368.3889975889249,1.459772218687601,14.885979074217936,-2.4012385788736577,0,Fixed-Wing
1970-01-01 00:00:31.168070202,2688,1536703389158710139,base_link,0,1,40.5916772,-79.8960326,367.315671803,0.348099969053,0.0,0.0,0.0,0.348099969053,0.0,0.0,0.0,1.39239987621,1,442.43509120967997,140.21681237975218,367.29880418039284,1.692607821604941,15.274793328140172,-2.72638322779532,0,Fixed-Wing
1970-01-01 00:00:31.582445064,2690,1536703389574524861,base_link,0,1,40.5917339,-79.8960245,366.455656312,0.348099969053,0.0,0.0,0.0,0.348099969053,0.0,0.0,0.0,1.39239987621,1,443.1203800109352,146.51350637282033,366.4385993093058,1.7137875530305997,15.746931470055484,-2.1512220810043186,0,Fixed-Wing
1970-01-01 00:00:31.955710790,2692,1536703389947363166,base_link,0,1,40.5917915,-79.8960175,366.075639331,0.348099969053,0.0,0.0,0.0,0.348099969053,0.0,0.0,0.0,1.39239987621,1,443.71257220250266,152.91015194611282,366.0583907096699,1.480969198754211,15.996892907890825,-0.9508352747304636,0,Fixed-Wing
1970-01-01 00:00:32.359741334,2694,1536703390351672780,base_link,0,1,40.5918495,-79.8960123,365.935620352,0.33639998064,0.0,0.0,0.0,0.33639998064,0.0,0.0,0.0,1.34559992256,1,444.1523949437266,159.35121476065825,365.9181831136316,1.0999198266026875,16.107972667343805,-0.35063469954658655,0,Fixed-Wing
1970-01-01 00:00:32.794884571,2696,1536703390786967376,base_link,0,1,40.5919077,-79.8960092,365.915599151,0.33639998064,0.0,0.0,0.0,0.33639998064,0.0,0.0,0.0,1.34559992256,1,444.4144446090151,165.81448039076503,365.8979785358616,0.6553404255616522,16.16349802961671,-0.0505281187040712,0,Fixed-Wing
1970-01-01 00:00:33.157060457,2698,1536703391149076319,base_link,0,1,40.5919657,-79.8960094,366.065574667,0.33639998064,0.0,0.0,0.0,0.33639998064,0.0,0.0,0.0,1.34559992256,1,444.39713970419916,172.2555235167339,366.04778414467785,-0.04327654329914911,16.107923429653937,0.3746376524658711,0,Fixed-Wing
1970-01-01 00:00:33.593081896,2700,1536703391585173213,base_link,0,1,40.5920234,-79.8960127,366.215547147,0.33639998064,0.0,0.0,0.0,0.33639998064,0.0,0.0,0.0,1.34559992256,1,444.1174011118049,178.66323564395236,366.19759938355605,-0.6995773415083653,16.024568425626644,0.374661735568249,0,Fixed-Wing
1970-01-01 00:00:33.969264897,2702,1536703391961350166,base_link,0,1,40.5920803,-79.8960193,366.165516595,0.33639998064,0.0,0.0,0.0,0.33639998064,0.0,0.0,0.0,1.34559992256,1,443.55828757775623,184.9820837655497,366.14742711524787,-1.3982452560561562,15.80233507456796,-0.1254720765557334,0,Fixed-Wing
1970-01-01 00:00:34.365240798,2704,1536703392356368252,base_link,0,1,40.5921367,-79.8960303,366.175481758,0.33639998064,0.0,0.0,0.0,0.33639998064,0.0,0.0,0.0,1.34559992256,1,442.6266937068895,191.24538535700677,366.15727173018246,-2.329753495820422,15.663422908202369,0.024619661824885238,0,Fixed-Wing
1970-01-01 00:00:34.766200523,2706,1536703392758190785,base_link,0,1,40.5921927,-79.8960469,366.025441364,0.33639998064,0.0,0.0,0.0,0.33639998064,0.0,0.0,0.0,1.34559992256,1,441.2210167783497,197.46423313903796,366.007138631777,-3.5153523876375035,15.552251698138361,-0.37545664670699685,0,Fixed-Wing
1970-01-01 00:00:35.171283454,2708,1536703393163169685,base_link,0,1,40.5922471,-79.8960689,365.745396121,0.33639998064,0.0,0.0,0.0,0.33639998064,0.0,0.0,0.0,1.34559992256,1,439.3581992842018,203.5053659650855,365.7270314430688,-4.658581067121805,15.107817644941692,-0.700499136485541,0,Fixed-Wing
1970-01-01 00:00:35.556617851,2710,1536703393548493394,base_link,0,1,40.5922999,-79.896099,365.575343262,0.33639998064,0.0,0.0,0.0,0.33639998064,0.0,0.0,0.0,1.34559992256,1,436.8096867333113,209.36877832669134,365.55696313580466,-6.373384594142335,14.663369816053894,-0.4253111208302729,0,Fixed-Wing
1970-01-01 00:00:35.941742169,2712,1536703393933765199,base_link,0,1,40.5923502,-79.896137,365.345283367,0.33639998064,0.0,0.0,0.0,0.33639998064,0.0,0.0,0.0,1.34559992256,1,433.5924060099037,214.95451930969108,365.32693619125774,-8.045856941309662,13.968962215030304,-0.5752571962420628,0,Fixed-Wing
1970-01-01 00:00:36.356545283,2714,1536703394348517625,base_link,0,1,40.5923974,-79.8961832,364.875216379,0.33639998064,0.0,0.0,0.0,0.33639998064,0.0,0.0,0.0,1.34559992256,1,429.6809532936275,220.19595050643545,364.8569542877708,-9.78185980442593,13.107903600048948,-1.1753426217825365,0,Fixed-Wing
1970-01-01 00:00:36.756611975,2716,1536703394748547837,base_link,0,1,40.5924399,-79.8962391,364.335141427,0.33639998064,0.0,0.0,0.0,0.33639998064,0.0,0.0,0.0,1.34559992256,1,424.9483673544555,224.91538742021115,364.3170308603528,-11.83537052020166,11.802487105183948,-1.3502541524152694,0,Fixed-Wing
1970-01-01 00:00:37.152595898,2718,1536703395144595728,base_link,0,1,40.5924741,-79.896306,363.915058677,0.33639998064,0.0,0.0,0.0,0.33639998064,0.0,0.0,0.0,1.34559992256,1,419.28463118823373,228.71304362758164,363.89718701789246,-14.16401454035277,9.497274619050522,-1.049956091661129,0,Fixed-Wing
1970-01-01 00:00:37.579506323,2720,1536703395571582856,base_link,0,1,40.5925002,-79.8963829,363.564969067,0.33639998064,0.0,0.0,0.0,0.33639998064,0.0,0.0,0.0,1.34559992256,1,412.7743955599952,231.61113497682462,363.54741659527986,-16.280961787986403,7.24762008773639,-0.8747147123866063,0,Fixed-Wing
1970-01-01 00:00:37.947769916,2722,1536703395939855185,base_link,0,1,40.5925164,-79.8964663,363.38487693,0.33639998064,0.0,0.0,0.0,0.33639998064,0.0,0.0,0.0,1.34559992256,1,405.71397231412465,233.40978941915603,363.3677110852497,-17.656884886688953,4.498120485588773,-0.44941208106211633,0,Fixed-Wing
1970-01-01 00:00:38.361398140,2724,1536703396353404690,base_link,0,1,40.5925222,-79.8965551,363.264783595,0.33639998064,0.0,0.0,0.0,0.33639998064,0.0,0.0,0.0,1.34559992256,1,398.1964759280547,234.05348348339572,363.248067162928,-18.79994494700732,1.6097663835057974,-0.2992085446239755,0,Fixed-Wing
1970-01-01 00:00:38.766736319,2726,1536703396755983950,base_link,0,1,40.5925163,-79.8966469,363.21469206,0.33639998064,0.0,0.0,0.0,0.33639998064,0.0,0.0,0.0,1.34559992256,1,390.4250854496814,233.39786154520704,363.1984794476376,-19.43488970953752,-1.6395959121227195,-0.12401021159579126,0,Fixed-Wing
1970-01-01 00:00:39.179501095,2728,1536703397171517469,base_link,0,1,40.5924975,-79.8967389,363.334605685,0.33639998064,0.0,0.0,0.0,0.33639998064,0.0,0.0,0.0,1.34559992256,1,382.6368462375737,231.30967735345803,363.3189406200506,-19.477025448667234,-5.222183800026528,0.3012523443061255,0,Fixed-Wing
1970-01-01 00:00:39.571479119,2730,1536703397563459237,base_link,0,1,40.5924669,-79.8968274,363.8345278,0.33639998064,0.0,0.0,0.0,0.33639998064,0.0,0.0,0.0,1.34559992256,1,375.144986870463,227.91111162957404,363.81942977044565,-18.73583124208662,-8.499219051997136,1.2516359158397925,0,Fixed-Wing
1970-01-01 00:00:39.961367946,2732,1536703397945481385,base_link,0,1,40.5924276,-79.8969104,364.664459168,0.33639998064,0.0,0.0,0.0,0.33639998064,0.0,0.0,0.0,1.34559992256,1,368.1187949603318,223.5464316356196,364.6499247707993,-17.57127829716611,-10.915302034557502,2.0769228854363555,0,Fixed-Wing
1970-01-01 00:00:40.394240192,2734,1536703398386000057,base_link,0,1,40.5923848,-79.8969891,365.7043964,0.33639998064,0.0,0.0,0.0,0.33639998064,0.0,0.0,0.0,1.34559992256,1,361.45664542101724,218.79309856005534,365.69040769758914,-16.660871936025277,-11.887255483220104,2.602065998754141,0,Fixed-Wing
1970-01-01 00:00:40.749639083,2736,1536703398741696384,base_link,0,1,40.5923414,-79.8970649,366.874336861,0.33639998064,0.0,0.0,0.0,0.33639998064,0.0,0.0,0.0,1.34559992256,1,355.0399988386823,213.97315451834095,366.860871955333,-16.046911936776436,-12.053837870783342,2.927126596136337,0,Fixed-Wing
1970-01-01 00:00:41.183544345,2738,1536703399175372977,base_link,0,1,40.5922992,-79.8971389,367.704278676,0.33639998064,0.0,0.0,0.0,0.33639998064,0.0,0.0,0.0,1.34559992256,1,348.7756982487778,209.28647315843017,367.6913147693505,-15.665921228766763,-11.720571188269075,2.076792376528116,0,Fixed-Wing
1970-01-01 00:00:41.587083528,2740,1536703399578902112,base_link,0,1,40.5922592,-79.8972123,368.054220202,0.291600023174,0.0,0.0,0.0,0.291600023174,0.0,0.0,0.0,1.1664000927,1,342.56214503294905,204.84409818155166,368.04173711589584,-15.539010913173266,-11.109603611388037,0.8763450602331647,0,Fixed-Wing
1970-01-01 00:00:41.945031946,2742,1536703399936308871,base_link,0,1,40.5922211,-79.8972861,368.144160539,0.291600023174,0.0,0.0,0.0,0.291600023174,0.0,0.0,0.0,1.1664000927,1,336.31469793673085,200.6127178838869,368.1321442638932,-15.623773585828811,-10.58194278528107,0.2260924805120246,0,Fixed-Wing
1970-01-01 00:00:42.346347903,2744,1536703400338148631,base_link,0,1,40.5921847,-79.8973609,367.924099157,0.291600023174,0.0,0.0,0.0,0.291600023174,0.0,0.0,0.0,1.1664000927,1,329.9825626981455,196.57011858662435,367.9125393119729,-15.835563832528113,-10.109834488537569,-0.5491936136932761,0,Fixed-Wing
1970-01-01 00:00:42.749989461,2746,1536703400742043563,base_link,0,1,40.5921495,-79.8974367,367.424036262,0.291600023174,0.0,0.0,0.0,0.291600023174,0.0,0.0,0.0,1.1664000927,1,323.56574451652335,192.66077576150138,367.4129242585134,-16.04734107661065,-9.776583335308057,-1.2494499521330436,0,Fixed-Wing
1970-01-01 00:00:43.181267080,2748,1536703401172840610,base_link,0,1,40.5921156,-79.8975138,366.833971507,0.291600023174,0.0,0.0,0.0,0.291600023174,0.0,0.0,0.0,1.1664000927,1,317.03885645797334,188.89579991007378,366.8232996788763,-16.322606606555198,-9.415546758999488,-1.4745480499491705,0,Fixed-Wing
1970-01-01 00:00:43.549312038,2750,1536703401541311292,base_link,0,1,40.5920818,-79.8975919,366.403905697,0.291600023174,0.0,0.0,0.0,0.291600023174,0.0,0.0,0.0,1.1664000927,1,310.42731371992653,185.1419368688151,366.39366893780203,-16.53431316846261,-9.387755562482326,-1.07443141505266,0,Fixed-Wing
1970-01-01 00:00:43.937792346,2752,1536703401929899311,base_link,0,1,40.5920474,-79.8976704,366.063839738,0.291600023174,0.0,0.0,0.0,0.291600023174,0.0,0.0,0.0,1.1664000927,1,303.7819095516654,181.32144995126652,366.05403249882335,-16.61899468890011,-9.554370236049342,-0.8493713900054187,0,Fixed-Wing
1970-01-01 00:00:44.391430333,2754,1536703402383314932,base_link,0,1,40.5920122,-79.897748,365.863775042,0.291600023174,0.0,0.0,0.0,0.291600023174,0.0,0.0,0.0,1.1664000927,1,297.2127003503208,177.41213440082535,365.85438704787265,-16.428444390010252,-9.776515126094521,-0.49927838924519474,0,Fixed-Wing
1970-01-01 00:00:44.766972768,2756,1536703402758058495,base_link,0,1,40.5919758,-79.8978244,365.783712083,0.291600023174,0.0,0.0,0.0,0.291600023174,0.0,0.0,0.0,1.1664000927,1,290.7450834066075,173.36956924492955,365.77473318347614,-16.174379904651843,-10.109749106944793,-0.1992003971223129,0,Fixed-Wing
1970-01-01 00:00:45.157357371,2758,1536703403149478704,base_link,0,1,40.5919384,-79.8978995,365.703650879,0.291600023174,0.0,0.0,0.0,0.291600023174,0.0,0.0,0.0,1.1664000927,1,284.3875176584664,169.2159616133695,365.69507001457004,-15.899161093513605,-10.387446936389132,-0.19922366607507652,0,Fixed-Wing
1970-01-01 00:00:45.553473628,2760,1536703403544857688,base_link,0,1,40.5918998,-79.8979733,365.733591514,0.291600023174,0.0,0.0,0.0,0.291600023174,0.0,0.0,0.0,1.1664000927,1,278.1400086168555,164.92910360153436,365.72539830945266,-15.623928500432385,-10.720682854929967,0.07584576630943769,0,Fixed-Wing
1970-01-01 00:00:46.022069183,2762,1536703404014043701,base_link,0,1,40.5918607,-79.8980463,365.563533184,0.291600023174,0.0,0.0,0.0,0.291600023174,0.0,0.0,0.0,1.1664000927,1,271.9602113446658,160.5867220312453,365.555717158613,-15.454593196228906,-10.85953757312179,-0.424342910259548,0,Fixed-Wing
1970-01-01 00:00:46.359872961,2764,1536703404351175550,base_link,0,1,40.5918215,-79.8981191,365.403475111,0.291600023174,0.0,0.0,0.0,0.291600023174,0.0,0.0,0.0,1.1664000927,1,265.79733939791174,156.2332414533596,365.3960268911693,-15.41226591463703,-10.887294251817362,-0.3993574565699013,0,Fixed-Wing
1970-01-01 00:00:46.769348293,2766,1536703404761325052,base_link,0,1,40.5917827,-79.8981919,365.253416881,0.291600023174,0.0,0.0,0.0,0.291600023174,0.0,0.0,0.0,1.1664000927,1,259.634459420523,151.92418741682394,365.24632648118404,-15.412285997851143,-10.776191234446507,-0.374374568570772,0,Fixed-Wing
1970-01-01 00:00:47.159863992,2768,1536703405151621169,base_link,0,1,40.5917442,-79.8982656,365.063357617,0.291600023174,0.0,0.0,0.0,0.291600023174,0.0,0.0,0.0,1.1664000927,1,253.39537857459555,147.6484509093748,365.05661842318824,-15.602851055666987,-10.692869915695063,-0.4744267058024185,0,Fixed-Wing
1970-01-01 00:00:47.621651180,2770,1536703405613511940,base_link,0,1,40.5917067,-79.8983402,364.793297025,0.291600023174,0.0,0.0,0.0,0.291600023174,0.0,0.0,0.0,1.1664000927,1,247.08009281020531,143.48376796930626,364.7869005160554,-15.793426241635338,-10.415144347806102,-0.6745173585603625,0,Fixed-Wing
1970-01-01 00:00:47.937955265,2772,1536703405929968759,base_link,0,1,40.59167,-79.8984155,364.583235395,0.291600023174,0.0,0.0,0.0,0.291600023174,0.0,0.0,0.0,1.1664000927,1,240.70553994598902,139.4079320691638,364.5771728878482,-15.941642902698636,-10.192953424986408,-0.5244921529285842,0,Fixed-Wing
1970-01-01 00:00:48.399102728,2774,1536703406390973280,base_link,0,1,40.5916338,-79.8984913,364.443173055,0.291600023174,0.0,0.0,0.0,0.291600023174,0.0,0.0,0.0,1.1664000927,1,234.28865277738697,135.38762826555842,364.43743594889804,-16.04751360099344,-10.05407735454043,-0.3494576684059149,0,Fixed-Wing
1970-01-01 00:00:48.828321524,2776,1536703406820333419,base_link,0,1,40.5915983,-79.8985673,364.453110229,0.291600023174,0.0,0.0,0.0,0.291600023174,0.0,0.0,0.0,1.1664000927,1,227.85483050793042,131.44506943626988,364.4476885347411,-16.089865329200027,-9.85965075797149,0.025639925783093452,0,Fixed-Wing
1970-01-01 00:00:49.174817167,2778,1536703407166893700,base_link,0,1,40.5915631,-79.8986432,364.563047389,0.291600023174,0.0,0.0,0.0,0.291600023174,0.0,0.0,0.0,1.1664000927,1,221.4294696118782,127.53583414115573,364.5579312254928,-16.068704912751738,-9.776314421544468,0.27569770712261105,0,Fixed-Wing
1970-01-01 00:00:49.568877594,2780,1536703407560815569,base_link,0,1,40.5915282,-79.8987189,364.602984638,0.291600023174,0.0,0.0,0.0,0.291600023174,0.0,0.0,0.0,1.1664000927,1,215.02102989363553,123.65991911656742,364.5981639215928,-16.02638800364789,-9.69298624693226,0.10061494318129956,0,Fixed-Wing
1970-01-01 00:00:49.946037656,2782,1536703407938097294,base_link,0,1,40.5914933,-79.8987942,364.752922305,0.291600023174,0.0,0.0,0.0,0.291600023174,0.0,0.0,0.0,1.1664000927,1,208.64644995618545,119.78401259473281,364.7483871361954,-15.941710608125879,-9.69296498303092,0.37568201157029407,0,Fixed-Wing
1970-01-01 00:00:50.355824529,2784,1536703408347505642,base_link,0,1,40.5914582,-79.8988685,364.972861087,0.291600023174,0.0,0.0,0.0,0.291600023174,0.0,0.0,0.0,1.1664000927,1,202.3565232840365,115.88590445830147,364.96860046907045,-15.730007582874691,-9.748487341901194,0.5507150681601477,0,Fixed-Wing
1970-01-01 00:00:50.755593516,2786,1536703408747522084,base_link,0,1,40.5914228,-79.8989417,365.332801126,0.291600023174,0.0,0.0,0.0,0.291600023174,0.0,0.0,0.0,1.1664000927,1,196.15971794176767,111.9544905772261,365.3288042048652,-15.497127407716661,-9.83177918982107,0.900806605666758,0,Fixed-Wing
1970-01-01 00:00:51.152994959,2788,1536703409144785832,base_link,0,1,40.5913877,-79.8990145,365.732741458,0.291600023174,0.0,0.0,0.0,0.291600023174,0.0,0.0,0.0,1.1664000927,1,189.99676869338091,108.05639869201607,365.72899822029643,-15.41245923251361,-9.748446700436197,1.0008153076295805,0,Fixed-Wing
1970-01-01 00:00:51.536723847,2790,1536703409528727005,base_link,0,1,40.5913529,-79.8990868,365.902682184,0.291600023174,0.0,0.0,0.0,0.291600023174,0.0,0.0,0.0,1.1664000927,1,183.8761335480583,104.19162443276193,365.89918252906955,-15.306639054194408,-9.665125139431382,0.42560122033550146,0,Fixed-Wing
1970-01-01 00:00:51.950035165,2792,1536703409941708055,base_link,0,1,40.5913181,-79.8991591,365.612622919,0.291600023174,0.0,0.0,0.0,0.291600023174,0.0,0.0,0.0,1.1664000927,1,177.75547892956038,100.32684776444358,365.6093586360461,-15.306687753203365,-9.665131164080002,-0.724798916200907,0,Fixed-Wing
1970-01-01 00:00:52.356051606,2794,1536703410348102412,base_link,0,1,40.591284,-79.8992324,365.16256235,0.291600023174,0.0,0.0,0.0,0.291600023174,0.0,0.0,0.0,1.1664000927,1,171.55015483518807,96.53980879474548,365.15952632361143,-15.518431318265817,-9.470722762756965,-1.1249520152517678,0,Fixed-Wing
1970-01-01 00:00:52.814216683,2796,1536703410805874085,base_link,0,1,40.5912506,-79.899307,364.80250017,0.291600023174,0.0,0.0,0.0,0.291600023174,0.0,0.0,0.0,1.1664000927,1,165.2347709900932,92.83051108748185,364.79968583026096,-15.793671524340175,-9.276305448957231,-0.8998981997821164,0,Fixed-Wing
1970-01-01 00:00:53.171025958,2798,1536703411163131643,base_link,0,1,40.5912175,-79.8993821,364.582437363,0.291600023174,0.0,0.0,0.0,0.291600023174,0.0,0.0,0.0,1.1664000927,1,158.8770555083817,89.15453594426967,364.57983689133823,-15.89953555101064,-9.192971538638211,-0.5498037825550517,0,Fixed-Wing
1970-01-01 00:00:53.577185700,2800,1536703411568998397,base_link,0,1,40.5911844,-79.8994578,364.392373954,0.291600023174,0.0,0.0,0.0,0.291600023174,0.0,0.0,0.0,1.1664000927,1,152.4685402845547,85.47856586271502,364.38998011053775,-16.02657682992133,-9.192958880317136,-0.47479863555093865,0,Fixed-Wing
1970-01-01 00:00:53.994557958,2802,1536703411986554205,base_link,0,1,40.5911509,-79.8995334,364.202310823,0.291600023174,0.0,0.0,0.0,0.291600023174,0.0,0.0,0.0,1.1664000927,1,146.06848576571122,81.75818074743074,364.2001154318615,-16.0054180850768,-9.30403311914,-0.4748183867582761,0,Fixed-Wing
1970-01-01 00:00:54.374881238,2804,1536703412366464242,base_link,0,1,40.5911172,-79.8996093,364.052247479,0.291600023174,0.0,0.0,0.0,0.291600023174,0.0,0.0,0.0,1.1664000927,1,139.6430291933437,78.0155909110027,364.05024278076473,-16.06894418249903,-9.359563246941587,-0.3748053134953464,0,Fixed-Wing
1970-01-01 00:00:54.794408877,2806,1536703412786416643,base_link,0,1,40.5910837,-79.899685,364.082184264,0.291600023174,0.0,0.0,0.0,0.291600023174,0.0,0.0,0.0,1.1664000927,1,133.2345013941088,74.29521969139302,364.0803609815503,-16.026608278819232,-9.303998368485821,0.07532035768198513,0,Fixed-Wing
1970-01-01 00:00:55.193821007,2808,1536703413185900965,base_link,0,1,40.5910499,-79.8997604,364.272121491,0.291600023174,0.0,0.0,0.0,0.291600023174,0.0,0.0,0.0,1.1664000927,1,126.85136824756563,70.54154046147826,364.2704708827273,-15.963100689585495,-9.38729588242808,0.4754316453854311,0,Fixed-Wing
1970-01-01 00:00:55.570444123,2810,1536703413562496625,base_link,0,1,40.5910167,-79.8998356,364.47205868,0.291600023174,0.0,0.0,0.0,0.291600023174,0.0,0.0,0.0,1.1664000927,1,120.485158989433,66.85449829596274,364.4705711346984,-15.920777001742143,-9.220648227703945,0.5004157671308874,0,Fixed-Wing
1970-01-01 00:00:55.965710227,2812,1536703413957484652,base_link,0,1,40.5909858,-79.8999114,364.701994303,0.291600023174,0.0,0.0,0.0,0.291600023174,0.0,0.0,0.0,1.1664000927,1,114.0681448812091,63.42288134256165,364.70065970661545,-16.04783105480786,-8.581874402055403,0.5754113155267866,0,Fixed-Wing
1970-01-01 00:00:56.399358374,2814,1536703414391458428,base_link,0,1,40.590959,-79.899989,364.811926381,0.291600023174,0.0,0.0,0.0,0.291600023174,0.0,0.0,0.0,1.1664000927,1,107.49873140046275,60.44658109884659,364.8107346920142,-16.428955257100714,-7.44320686755394,0.27527830533761016,0,Fixed-Wing
1970-01-01 00:00:56.778636037,2816,1536703414770647740,base_link,0,1,40.5909379,-79.9000688,364.761853837,0.291600023174,0.0,0.0,0.0,0.291600023174,0.0,0.0,0.0,1.1664000927,1,100.74305368940684,58.103281133228734,364.76079410036715,-16.8947695515918,-5.860183774690296,-0.12489269370653235,0,Fixed-Wing
1970-01-01 00:00:57.149604531,2818,1536703415141122671,base_link,0,1,40.590925,-79.900151,364.65177542,0.291600023174,0.0,0.0,0.0,0.291600023174,0.0,0.0,0.0,1.1664000927,1,93.7841801702808,56.67061371323561,364.6508345670235,-17.402926763647077,-3.5828508907767644,-0.27498957992054773,0,Fixed-Wing
1970-01-01 00:00:57.558573932,2820,1536703415548994805,base_link,0,1,40.5909223,-79.9002345,364.651691416,0.291600023174,0.0,0.0,0.0,0.291600023174,0.0,0.0,0.0,1.1664000927,1,86.71523705600347,56.3706867274432,364.65085310454714,-17.67819158891767,-0.7500649859263819,4.635910765133509e-05,0,Fixed-Wing
1970-01-01 00:00:57.969467343,2822,1536703415961244104,base_link,0,1,40.5909299,-79.9003171,364.641604028,0.291600023174,0.0,0.0,0.0,0.291600023174,0.0,0.0,0.0,1.1664000927,1,79.72247326271051,57.21460661691728,364.6408492872291,-17.487680417770278,2.1104961874270503,-0.02501779916878159,0,Fixed-Wing
1970-01-01 00:00:58.391529155,2824,1536703416383613592,base_link,0,1,40.5909471,-79.9003971,364.531515286,0.291600023174,0.0,0.0,0.0,0.291600023174,0.0,0.0,0.0,1.1664000927,1,72.94981036923787,59.12463707522019,364.53082402313237,-16.937246525034865,4.776652441062833,-0.2751539610490169,0,Fixed-Wing
1970-01-01 00:00:58.765937280,2826,1536703416757526076,base_link,0,1,40.5909739,-79.9004726,364.42142713,0.291600023174,0.0,0.0,0.0,0.291600023174,0.0,0.0,0.0,1.1664000927,1,66.55810262004968,62.10077977309848,364.4207773131159,-15.984544272580415,7.442812872943791,-0.275207593547097,0,Fixed-Wing
1970-01-01 00:00:59.142554644,2828,1536703417134610730,base_link,0,1,40.59101,-79.9005411,364.361342236,0.291600023174,0.0,0.0,0.0,0.291600023174,0.0,0.0,0.0,1.1664000927,1,60.758997853765095,66.10972022231084,364.36070982521466,-14.5025477564711,10.025659590695831,-0.15021829178934484,0,Fixed-Wing
1970-01-01 00:00:59.585596824,2830,1536703417575392649,base_link,0,1,40.5910546,-79.9005998,364.541263796,0.324899991846,0.0,0.0,0.0,0.324899991846,0.0,0.0,0.0,1.29959996738,1,55.78954174641684,71.06261912219003,364.54062333356364,-12.427741423040247,12.386334740162223,0.44993224851448144,0,Fixed-Wing
1970-01-01 00:00:59.946981155,2832,1536703417938765948,base_link,0,1,40.5911056,-79.9006462,364.971195236,0.324899991846,0.0,0.0,0.0,0.324899991846,0.0,0.0,0.0,1.29959996738,1,51.861380287655905,76.72626705837095,364.9705221000076,-9.823645449900798,14.163793892436809,1.075101699670779,0,Fixed-Wing
1970-01-01 00:01:00.353549968,2834,1536703418345453928,base_link,0,1,40.5911602,-79.9006795,365.641138538,0.324899991846,0.0,0.0,0.0,0.324899991846,0.0,0.0,0.0,1.29959996738,1,49.04224015006449,82.78971682477456,365.64041166423,-7.050176902356323,15.163628413385435,1.6752767518840903,0,Fixed-Wing
1970-01-01 00:01:00.768770989,2836,1536703418760695941,base_link,0,1,40.5912155,-79.9007007,366.521093892,0.324899991846,0.0,0.0,0.0,0.324899991846,0.0,0.0,0.0,1.29959996738,1,47.2474632315745,88.93091503502504,366.52029767575823,-4.488423475972038,15.35806368664279,2.2004411744081604,0,Fixed-Wing
1970-01-01 00:01:01.154867254,2838,1536703419146649712,base_link,0,1,40.5912708,-79.9007131,367.441058225,0.324899991846,0.0,0.0,0.0,0.324899991846,0.0,0.0,0.0,1.29959996738,1,46.19767632890602,95.07212061306271,367.44018089054805,-2.625333616764731,15.3580821121912,2.300467191147629,0,Fixed-Wing
1970-01-01 00:01:01.556732453,2840,1536703419548834459,base_link,0,1,40.591325,-79.9007194,368.301029245,0.372100017452,0.0,0.0,0.0,0.372100017452,0.0,0.0,0.0,1.48840006981,1,45.664302450540326,101.09117267396906,368.3000629643768,-1.3338748746228606,15.052597509443984,2.150414821463011,0,Fixed-Wing
1970-01-01 00:01:01.969895532,2842,1536703419961807716,base_link,0,1,40.5913782,-79.9007229,368.841003547,0.372100017452,0.0,0.0,0.0,0.372100017452,0.0,0.0,0.0,1.48840006981,1,45.36796877641328,106.99917005329141,368.83994276991336,-0.74107874130225,14.774869155127075,1.350145061711723,0,Fixed-Wing
1970-01-01 00:01:02.383662336,2844,1536703420375076510,base_link,0,1,40.5914309,-79.9007251,368.760979395,0.372100017452,0.0,0.0,0.0,0.372100017452,0.0,0.0,0.0,1.48840006981,1,45.181686180020655,112.85163193854459,368.7598188300524,-0.4658602248557591,14.635984588046998,-0.20037597372378466,0,Fixed-Wing
1970-01-01 00:01:02.717694299,2846,1536703420709408086,base_link,0,1,40.5914829,-79.9007266,368.420956261,0.372100017452,0.0,0.0,0.0,0.372100017452,0.0,0.0,0.0,1.48840006981,1,45.054662691786305,118.62635252673564,368.4196915529037,-0.3176635495572293,14.441567187649571,-0.8505988905055354,0,Fixed-Wing
1970-01-01 00:01:03.146252135,2848,1536703421137934978,base_link,0,1,40.5915349,-79.9007284,367.980932835,0.372100017452,0.0,0.0,0.0,0.372100017452,0.0,0.0,0.0,1.48840006981,1,44.90224151352225,124.4010704437047,367.9795589169104,-0.38117873464257285,14.44156050739007,-1.1006948192737014,0,Fixed-Wing
1970-01-01 00:01:03.566808051,2850,1536703421558330768,base_link,0,1,40.5915869,-79.9007312,367.630908405,0.372100017452,0.0,0.0,0.0,0.372100017452,0.0,0.0,0.0,1.48840006981,1,44.66516397669041,130.1757889516433,367.6294206255218,-0.5928894956131536,14.44156198530169,-0.8756346879184859,0,Fixed-Wing
1970-01-01 00:01:03.961493374,2852,1536703421951718634,base_link,0,1,40.5916393,-79.9007353,367.170882499,0.372100017452,0.0,0.0,0.0,0.372100017452,0.0,0.0,0.0,1.48840006981,1,44.318031474802126,135.99492484936846,367.1692754243855,-0.8681177335727847,14.552642116211217,-1.1507427479475711,0,Fixed-Wing
1970-01-01 00:01:04.370389488,2854,1536703422362171529,base_link,0,1,40.5916923,-79.9007403,366.570855444,0.372100017452,0.0,0.0,0.0,0.372100017452,0.0,0.0,0.0,1.48840006981,1,43.8947068158916,141.88068785950327,366.5691227719973,-1.0586610054080934,14.71926488274833,-1.5008769203542256,0,Fixed-Wing
1970-01-01 00:01:04.722984119,2856,1536703422714553523,base_link,0,1,40.5917458,-79.9007455,366.000827993,0.396899993992,0.0,0.0,0.0,0.396899993992,0.0,0.0,0.0,1.58759997597,1,43.454451380372944,147.8219766430979,365.9989630762324,-1.101001919430057,14.858125140282903,-1.4258697764383685,0,Fixed-Wing
1970-01-01 00:01:05.176756708,2858,1536703423168629084,base_link,0,1,40.5917998,-79.9007506,365.610800451,0.396899993992,0.0,0.0,0.0,0.396899993992,0.0,0.0,0.0,1.58759997597,1,43.02266331278604,153.81879504289506,365.60879631246667,-1.0798265117161356,14.996995007845463,-0.9757389032524794,0,Fixed-Wing
1970-01-01 00:01:05.558876786,2860,1536703423547435796,base_link,0,1,40.5918537,-79.9007545,365.490774187,0.396899993992,0.0,0.0,0.0,0.396899993992,0.0,0.0,0.0,1.58759997597,1,42.69246611403039,159.8045149133801,365.4886247463187,-0.8257654995039575,14.969239525255938,-0.3005280896395157,0,Fixed-Wing
1970-01-01 00:01:05.966842812,2862,1536703423958253179,base_link,0,1,40.5919074,-79.9007573,365.440749141,0.396899993992,0.0,0.0,0.0,0.396899993992,0.0,0.0,0.0,1.58759997597,1,42.45539254654402,165.76802649926435,365.43844871059525,-0.5928795689736852,14.913700485870958,-0.12548149820300417,0,Fixed-Wing
1970-01-01 00:01:06.314311194,2864,1536703424305685785,base_link,0,1,40.591961,-79.9007588,365.310725473,0.396899993992,0.0,0.0,0.0,0.396899993992,0.0,0.0,0.0,1.58759997597,1,42.32837266383494,171.7204312800567,365.3082680256821,-0.31765453276850875,14.88592430700215,-0.3255591468013715,0,Fixed-Wing
1970-01-01 00:01:06.781101296,2866,1536703424773102151,base_link,0,1,40.5920146,-79.900758,365.120704159,0.396899993992,0.0,0.0,0.0,0.396899993992,0.0,0.0,0.0,1.58759997597,1,42.39606294675928,177.6728353037181,365.11808283566717,0.16928157022902277,14.885922413550011,-0.47561992961406113,0,Fixed-Wing
1970-01-01 00:01:07.162933158,2868,1536703425153791212,base_link,0,1,40.5920683,-79.9007547,364.890685362,0.396899993992,0.0,0.0,0.0,0.396899993992,0.0,0.0,0.0,1.58759997597,1,42.675394299205905,183.63634432145983,364.8878928601822,0.6985589055553975,14.91369406339524,-0.5756649081320873,0,Fixed-Wing
1970-01-01 00:01:07.551599787,2870,1536703425543132040,base_link,0,1,40.5921224,-79.9007489,364.490668957,0.396899993992,0.0,0.0,0.0,0.396899993992,0.0,0.0,0.0,1.58759997597,1,43.16636511142006,189.64427009029873,364.4876969261567,1.2278322151664,15.024772597054284,-1.000820105698712,0,Fixed-Wing
1970-01-01 00:01:07.969331038,2872,1536703425954401165,base_link,0,1,40.5921765,-79.9007389,363.920656838,0.396899993992,0.0,0.0,0.0,0.396899993992,0.0,0.0,0.0,1.58759997597,1,44.012891022202865,195.65219205388237,363.9174971282082,2.1170133913761586,15.024763080775758,-1.4259700649926372,0,Fixed-Wing
1970-01-01 00:01:08.313574073,2874,1536703426305644911,base_link,0,1,40.5922304,-79.9007236,363.330650206,0.396899993992,0.0,0.0,0.0,0.396899993992,0.0,0.0,0.0,1.58759997597,1,45.30809421781305,201.63790469831787,363.32729456788405,3.239076884397313,14.969221454168613,-1.4759934786583175,0,Fixed-Wing
1970-01-01 00:01:08.846832561,2876,1536703426835201111,base_link,0,1,40.5922836,-79.9007014,362.900650894,0.396899993992,0.0,0.0,0.0,0.396899993992,0.0,0.0,0.0,1.58759997597,1,47.18742526528936,207.54588875163773,362.8970916825907,4.699878578621728,14.774835829123273,-1.0758622477751167,0,Fixed-Wing
1970-01-01 00:01:09.178763699,2878,1536703427170702987,base_link,0,1,40.5923356,-79.9006697,362.78066175,0.396899993992,0.0,0.0,0.0,0.396899993992,0.0,0.0,0.0,1.58759997597,1,49.870990612914646,213.3206254285941,362.77689116526767,6.711128041316842,14.441607422840452,-0.30060049146978957,0,Fixed-Wing
1970-01-01 00:01:09.519097623,2880,1536703427511200333,base_link,0,1,40.5923846,-79.9006284,363.130683614,0.396899993992,0.0,0.0,0.0,0.396899993992,0.0,0.0,0.0,1.58759997597,1,53.367257266764824,218.7622277389284,363.1267000136133,8.743552006787684,13.608496579707062,0.8748108084308251,0,Fixed-Wing
1970-01-01 00:01:09.963944016,2882,1536703427954102879,base_link,0,1,40.59243,-79.9005796,363.700714596,0.396899993992,0.0,0.0,0.0,0.396899993992,0.0,0.0,0.0,1.58759997597,1,57.49844520063306,223.80405636495246,363.69651980292076,10.331379189803219,12.608732446767574,1.4250197297795109,0,Fixed-Wing
1970-01-01 00:01:10.375241909,2884,1536703428363154049,base_link,0,1,40.5924715,-79.9005242,364.040753903,0.396899993992,0.0,0.0,0.0,0.396899993992,0.0,0.0,0.0,1.58759997597,1,62.188359803708224,228.4127802596676,364.03635139689266,11.728656964486197,11.525613189140303,0.8498594385444549,0,Fixed-Wing
1970-01-01 00:01:10.800880313,2886,1536703428792818129,base_link,0,1,40.5925082,-79.9004613,364.280802818,0.36000002861,0.0,0.0,0.0,0.36000002861,0.0,0.0,0.0,1.44000011444,1,67.51319315587148,232.48845818107964,364.2761986376054,13.316477818088101,10.192558347784827,0.5998160410753551,0,Fixed-Wing
1970-01-01 00:01:11.162505073,2888,1536703429154512200,base_link,0,1,40.5925379,-79.9003907,364.570862449,0.36000002861,0.0,0.0,0.0,0.36000002861,0.0,0.0,0.0,1.44000011444,1,73.48988051150282,235.7867816761881,364.56607093014713,14.94665078383702,8.24853075291962,0.7249199549395269,0,Fixed-Wing
1970-01-01 00:01:11.537635105,2890,1536703429529580952,base_link,0,1,40.5925599,-79.9003135,364.700931963,0.36000002861,0.0,0.0,0.0,0.36000002861,0.0,0.0,0.0,1.44000011444,1,80.0252997279424,238.23000671410307,364.6959709022136,16.34394154180774,6.110078920831301,0.32485713302010266,0,Fixed-Wing
1970-01-01 00:01:11.952638915,2892,1536703429944494204,base_link,0,1,40.5925734,-79.9002308,364.691010571,0.36000002861,0.0,0.0,0.0,0.36000002861,0.0,0.0,0.0,1.44000011444,1,87.02633179522033,239.72929226638607,364.685901651426,17.508357926310516,3.749451199603365,-0.025181436843251845,0,Fixed-Wing
1970-01-01 00:01:12.352036238,2894,1536703430344056261,base_link,0,1,40.592577,-79.9001437,364.581097731,0.36000002861,0.0,0.0,0.0,0.36000002861,0.0,0.0,0.0,1.44000011444,1,94.39985963945163,240.12916650515234,364.5758690186536,18.439904779155384,1.0000156020643638,-0.2751723888193152,0,Fixed-Wing
1970-01-01 00:01:12.801794645,2896,1536703430793862347,base_link,0,1,40.5925696,-79.9000545,364.521191559,0.36000002861,0.0,0.0,0.0,0.36000002861,0.0,0.0,0.0,1.44000011444,1,101.95118144534845,239.30747590729948,364.51587774044646,18.884536411757928,-2.054904613154502,-0.15002770466034157,0,Fixed-Wing
1970-01-01 00:01:13.165098473,2898,1536703431156128878,base_link,0,1,40.5925501,-79.8999655,364.691290171,0.36000002861,0.0,0.0,0.0,0.36000002861,0.0,0.0,0.0,1.44000011444,1,109.48559725742734,237.14206723778025,364.685932726184,18.84225747516403,-5.415308725677532,0.42527780601979204,0,Fixed-Wing
1970-01-01 00:01:13.537326640,2900,1536703431529387335,base_link,0,1,40.5925203,-79.8998799,365.091389575,0.36000002861,0.0,0.0,0.0,0.36000002861,0.0,0.0,0.0,1.44000011444,1,116.73220949042344,233.8328302093953,365.0860262842684,18.12251101112392,-8.275823592747997,1.0005640813579726,0,Fixed-Wing
1970-01-01 00:01:13.962161687,2902,1536703431954229997,base_link,0,1,40.5924834,-79.899799,365.611487136,0.36000002861,0.0,0.0,0.0,0.36000002861,0.0,0.0,0.0,1.44000011444,1,123.5809608835997,229.7351253825936,365.60614428390204,17.127530568028092,-10.247643789454777,1.3007242380825979,0,Fixed-Wing
1970-01-01 00:01:14.346481848,2904,1536703432338459920,base_link,0,1,40.5924415,-79.8997231,366.381581687,0.36000002861,0.0,0.0,0.0,0.36000002861,0.0,0.0,0.0,1.44000011444,1,130.00645497321077,225.08216550941862,366.37627758664166,16.069038006569826,-11.636239642019312,1.925968826561823,0,Fixed-Wing
1970-01-01 00:01:14.752651822,2906,1536703432743018044,base_link,0,1,40.5923984,-79.8996513,367.261672583,0.36000002861,0.0,0.0,0.0,0.36000002861,0.0,0.0,0.0,1.44000011444,1,136.08487292147393,220.29594461251807,367.25640938687667,15.2010612208608,-11.969502177970092,2.2010558490176906,0,Fixed-Wing
1970-01-01 00:01:15.161559440,2908,1536703433153536679,base_link,0,1,40.5923551,-79.8995824,368.111760631,0.36000002861,0.0,0.0,0.0,0.36000002861,0.0,0.0,0.0,1.44000011444,1,141.91779687919262,215.48751119542112,368.1065351662396,14.587123645099611,-12.025051809839622,2.126016033698472,0,Fixed-Wing
1970-01-01 00:01:15.533120210,2910,1536703433524833517,base_link,0,1,40.5923134,-79.8995138,368.451847737,0.396899993992,0.0,0.0,0.0,0.396899993992,0.0,0.0,0.0,1.58759997597,1,147.72531769241422,210.8567476520736,368.44664574344097,14.523594819344385,-11.580730499433594,0.8505571268552571,0,Fixed-Wing
1970-01-01 00:01:15.953918551,2912,1536703433945896814,base_link,0,1,40.5922733,-79.8994462,368.551933186,0.396899993992,0.0,0.0,0.0,0.396899993992,0.0,0.0,0.0,1.58759997597,1,153.4481805161015,206.40366259708634,368.546742289188,14.31187997961147,-11.136387645391153,0.2503239712780756,0,Fixed-Wing
1970-01-01 00:01:16.369495357,2914,1536703434361313719,base_link,0,1,40.5922362,-79.8993765,368.472019559,0.396899993992,0.0,0.0,0.0,0.396899993992,0.0,0.0,0.0,1.58759997597,1,159.34881728068646,202.28373730758415,368.4668164980428,14.756461543771843,-10.303213284139245,-0.1998804384076041,0,Fixed-Wing
1970-01-01 00:01:16.767566253,2916,1536703434759371175,base_link,0,1,40.5922011,-79.8993052,368.252106758,0.396899993992,0.0,0.0,0.0,0.396899993992,0.0,0.0,0.0,1.58759997597,1,165.3849022461609,198.38592038404005,368.2468729870567,15.095193827649199,-9.747759069353133,-0.5500402907612686,0,Fixed-Wing
1970-01-01 00:01:17.147410697,2918,1536703435139086341,base_link,0,1,40.5921678,-79.8992335,368.01219364,0.396899993992,0.0,0.0,0.0,0.396899993992,0.0,0.0,0.0,1.58759997597,1,171.45485058187316,194.68800323043396,368.00691404651195,15.179880199746588,-9.247844672757221,-0.6000953828381832,0,Fixed-Wing
1970-01-01 00:01:17.566200113,2920,1536703435558186665,base_link,0,1,40.5921353,-79.8991614,367.632280619,0.396899993992,0.0,0.0,0.0,0.396899993992,0.0,0.0,0.0,1.58759997597,1,177.5586610998132,191.0789298827268,367.6269436753606,15.264563600838395,-9.025661837674313,-0.9502395069156078,0,Fixed-Wing
1970-01-01 00:01:17.932856490,2922,1536703435924920192,base_link,0,1,40.5921031,-79.8990889,367.282367901,0.396899993992,0.0,0.0,0.0,0.396899993992,0.0,0.0,0.0,1.58759997597,1,183.69633948077043,187.50317943400367,367.27696377218314,15.3492612085919,-8.94232708974747,-0.8752385866773139,0,Fixed-Wing
1970-01-01 00:01:18.363519787,2924,1536703436355494499,base_link,0,1,40.5920708,-79.899016,366.752455653,0.396899993992,0.0,0.0,0.0,0.396899993992,0.0,0.0,0.0,1.58759997597,1,189.86788065916096,183.9163248679049,366.7469757460088,15.433946148205225,-8.970096547107458,-1.3254074498943427,0,Fixed-Wing
