time,field.header.seq,field.header.stamp,field.header.frame_id,field.status.status,field.status.service,lat,lon,alt,field.position_covariance0,field.position_covariance1,field.position_covariance2,field.position_covariance3,field.position_covariance4,field.position_covariance5,field.position_covariance6,field.position_covariance7,field.position_covariance8,field.position_covariance_type,x,y,z,vel_x,vel_y,vel_z,track_id,uav_category
1970-01-01 00:00:00.000000000,3016,1531945830246367739,base_link,0,1,40.5917398,-79.8986695,353.882946851,0.31360000267,0.0,0.0,0.0,0.31360000267,0.0,0.0,0.0,1.25440001068,1,216.82318263348307,168.08063797978116,353.87704684221643,-23.1676106175526,1.9699725999244957,2.4996558625399783,0,Fixed-Wing
1970-01-01 00:00:00.364825485,3018,1531945830610861996,base_link,0,1,40.5917469,-79.898779,354.882832084,0.31360000267,0.0,0.0,0.0,0.31360000267,0.0,0.0,0.0,1.25440001068,1,207.55326560274545,168.86887129635335,354.8772191445594,-23.1676106175526,1.9699725999244957,2.4996558625399783,0,Fixed-Wing
1970-01-01 00:00:00.769846426,3020,1531945831015501700,base_link,0,1,40.591757,-79.8988813,356.12272344,0.31360000267,0.0,0.0,0.0,0.31360000267,0.0,0.0,0.0,1.25440001068,1,198.89287576245658,169.99029575024488,356.1173561727671,-21.64426487860981,2.8026923001158024,3.099381762172972,0,Fixed-Wing
1970-01-01 00:00:01.188153704,3022,1531945831430782037,base_link,0,1,40.5917736,-79.8989738,357.422622116,0.31360000267,0.0,0.0,0.0,0.31360000267,0.0,0.0,0.0,1.25440001068,1,191.0621059265871,171.83359324689076,357.41744436980395,-19.570857623810344,4.606815628769768,3.249213236488866,0,Fixed-Wing
1970-01-01 00:00:01.560931730,3024,1531945831807211044,base_link,0,1,40.5917965,-79.899056,358.542528702,0.31360000267,0.0,0.0,0.0,0.31360000267,0.0,0.0,0.0,1.25440001068,1,184.10328010486762,174.376545685579,358.5374861334323,-17.391673135626636,6.355410919335622,2.7992366457107414,0,Fixed-Wing
1970-01-01 00:00:01.955853960,3026,1531945832201931002,base_link,0,1,40.5918244,-79.8991282,359.332443432,0.31360000267,0.0,0.0,0.0,0.31360000267,0.0,0.0,0.0,1.25440001068,1,177.9910026264825,177.47477800556695,359.3274884449474,-15.27595814893664,7.743180414041506,1.9743937167355161,0,Fixed-Wing
1970-01-01 00:00:02.371653551,3028,1531945832617783098,base_link,0,1,40.5918564,-79.8991905,359.892366576,0.31360000267,0.0,0.0,0.0,0.31360000267,0.0,0.0,0.0,1.25440001068,1,172.71681440475567,181.02834342915844,359.8874562690561,-13.181384325176275,8.881160399254965,1.3994857196986341,0,Fixed-Wing
1970-01-01 00:00:02.772475700,3030,1531945833016795909,base_link,0,1,40.5918924,-79.8992419,360.732299195,0.31360000267,0.0,0.0,0.0,0.31360000267,0.0,0.0,0.0,1.25440001068,1,168.36538645366474,185.0261514304088,360.72739006873246,-10.875198566171802,9.99142266210062,2.099183752227743,0,Fixed-Wing
1970-01-01 00:00:03.156784126,3032,1531945833402420095,base_link,0,1,40.5919296,-79.8992851,361.632239695,0.31360000267,0.0,0.0,0.0,0.31360000267,0.0,0.0,0.0,1.25440001068,1,164.70814587170915,189.15724294933125,361.6273044509162,-9.140267971817714,10.324528193566145,2.24908873795058,0,Fixed-Wing
1970-01-01 00:00:03.571277498,3034,1531945833817681127,base_link,0,1,40.5919662,-79.8993238,362.352185047,0.31360000267,0.0,0.0,0.0,0.31360000267,0.0,0.0,0.0,1.25440001068,1,161.4318603596299,193.2217088160545,362.34721131722125,-8.188175445809938,10.15801568194673,1.7992094108452694,0,Fixed-Wing
1970-01-01 00:00:04.000374919,3036,1531945834246272804,base_link,0,1,40.5920018,-79.899361,362.692132355,0.31360000267,0.0,0.0,0.0,0.31360000267,0.0,0.0,0.0,1.25440001068,1,158.28255561890117,197.1751156205995,362.6871161591399,-7.8708218970337285,9.880454070600642,0.8494987601810114,0,Fixed-Wing
1970-01-01 00:00:04.336321262,3038,1531945834582376213,base_link,0,1,40.5920363,-79.8993983,362.592080028,0.31360000267,0.0,0.0,0.0,0.31360000267,0.0,0.0,0.0,1.25440001068,1,155.1247800771029,201.00635252289575,362.58702142322,-7.891992336871217,9.575123967310734,-0.250159290419781,0,Fixed-Wing
1970-01-01 00:00:04.803957929,3040,1531945835050254883,base_link,0,1,40.5920701,-79.8994369,362.122026678,0.31360000267,0.0,0.0,0.0,0.31360000267,0.0,0.0,0.0,1.25440001068,1,151.85694712707618,204.75983986679074,362.11692691382626,-8.167050589384115,9.380810308541824,-1.1748720631447553,0,Fixed-Wing
1970-01-01 00:00:05.161224980,3042,1531945835407600147,base_link,0,1,40.5921039,-79.899478,361.32197079,0.31360000267,0.0,0.0,0.0,0.31360000267,0.0,0.0,0.0,1.25440001068,1,148.37746899025765,208.51331307904042,361.3168309023481,-8.695999582175848,9.380774990377168,-1.999620146450002,0,Fixed-Wing
1970-01-01 00:00:05.585170773,3044,1531945835830966753,base_link,0,1,40.5921378,-79.8995219,360.501912018,0.31360000267,0.0,0.0,0.0,0.31360000267,0.0,0.0,0.0,1.25440001068,1,144.66095647637272,212.2778869556766,360.49673290057865,-9.2884018801295,9.408518050994635,-2.0496096254397433,0,Fixed-Wing
1970-01-01 00:00:05.972185186,3046,1531945836218338616,base_link,0,1,40.592172,-79.8995686,359.861850281,0.31360000267,0.0,0.0,0.0,0.31360000267,0.0,0.0,0.0,1.25440001068,1,140.7074140723877,216.0757790638637,359.85663163745926,-9.880792964143644,9.491787816244749,-1.5997572330562295,0,Fixed-Wing
1970-01-01 00:00:06.351893061,3048,1531945836597944651,base_link,0,1,40.5922057,-79.8996169,359.341787134,0.31360000267,0.0,0.0,0.0,0.31360000267,0.0,0.0,0.0,1.25440001068,1,136.6184299051706,219.81814803909876,359.3365290661284,-10.21929243738721,9.353023000957336,-1.2998534737503398,0,Fixed-Wing
1970-01-01 00:00:06.772089042,3050,1531945837018439334,base_link,0,1,40.5922391,-79.8996669,358.981722392,0.31360000267,0.0,0.0,0.0,0.31360000267,0.0,0.0,0.0,1.25440001068,1,132.38553869172785,223.52720604010085,358.9764242359221,-10.578948559553393,9.269771373379482,-0.8999830807607051,0,Fixed-Wing
1970-01-01 00:00:07.173187514,3052,1531945837419549684,base_link,0,1,40.5922718,-79.8997177,358.851657137,0.31360000267,0.0,0.0,0.0,0.31360000267,0.0,0.0,0.0,1.25440001068,1,128.08493310480253,227.15853648863202,358.84631806031496,-10.748182030883713,9.075512712387093,-0.3251646379800385,0,Fixed-Wing
1970-01-01 00:00:07.570790952,3054,1531945837816772717,base_link,0,1,40.5923044,-79.8997685,358.741591937,0.31360000267,0.0,0.0,0.0,0.31360000267,0.0,0.0,0.0,1.25440001068,1,123.78433245577239,230.77876478450057,358.7362073743839,-10.748169689971471,9.047765932232366,-0.2751914054918812,0,Fixed-Wing
1970-01-01 00:00:07.951283263,3056,1531945838197623406,base_link,0,1,40.5923377,-79.8998185,358.851527276,0.31360000267,0.0,0.0,0.0,0.31360000267,0.0,0.0,0.0,1.25440001068,1,119.55146394751755,234.47674125697188,358.8460881404832,-10.578891814174703,9.242076137575628,0.27461678404507606,0,Fixed-Wing
1970-01-01 00:00:08.393741103,3058,1531945838639820034,base_link,0,1,40.5923713,-79.8998679,358.931463117,0.31360000267,0.0,0.0,0.0,0.31360000267,0.0,0.0,0.0,1.25440001068,1,115.3693921221273,238.20803563714452,358.92596228821185,-10.451939462242336,9.325345093452635,0.1996234860410122,0,Fixed-Wing
1970-01-01 00:00:08.769324237,3060,1531945839015559946,base_link,0,1,40.592405,-79.8999163,358.711399949,0.31360000267,0.0,0.0,0.0,0.31360000267,0.0,0.0,0.0,1.25440001068,1,111.27197509013476,241.95042756222932,358.7058306056014,-10.240368065880915,9.35308035780109,-0.5501586573422962,0,Fixed-Wing
1970-01-01 00:00:09.202797142,3062,1531945839448954446,base_link,0,1,40.5924401,-79.8999628,358.071338153,0.31360000267,0.0,0.0,0.0,0.31360000267,0.0,0.0,0.0,1.25440001068,1,107.33539965660322,245.84828080285024,358.06568676018026,-9.838388683337026,9.741613201459844,-1.5998636558196069,0,Fixed-Wing
1970-01-01 00:00:09.589926810,3064,1531945839836270667,base_link,0,1,40.5924782,-79.9000051,357.481279412,0.31360000267,0.0,0.0,0.0,0.31360000267,0.0,0.0,0.0,1.25440001068,1,103.75438047282381,250.0792991015182,357.4755223035447,-8.949773529654317,10.574267723675531,-1.474953905878014,0,Fixed-Wing
1970-01-01 00:00:09.971567602,3066,1531945840217674322,base_link,0,1,40.5925189,-79.9000436,357.091223486,0.31360000267,0.0,0.0,0.0,0.31360000267,0.0,0.0,0.0,1.25440001068,1,100.49505781518936,254.59906659264152,357.0853392409218,-8.145781451836072,11.295916993540333,-0.9751553583961365,0,Fixed-Wing
1970-01-01 00:00:10.337012902,3068,1531945840583230843,base_link,0,1,40.5925615,-79.9000795,357.141169439,0.348099969053,0.0,0.0,0.0,0.348099969053,0.0,0.0,0.0,1.39239987621,1,97.45584874265154,259.3298551020896,357.135141232089,-7.595668024257019,11.823306048745078,0.12446639333596002,0,Fixed-Wing
1970-01-01 00:00:10.834855645,3070,1531945841081183878,base_link,0,1,40.5926036,-79.9001139,357.15111714,0.31360000267,0.0,0.0,0.0,0.31360000267,0.0,0.0,0.0,1.25440001068,1,94.54362733159527,264.005118769398,357.1449404343245,-7.278297255491461,11.684536961812839,0.024490413560578458,0,Fixed-Wing
1970-01-01 00:00:11.175666408,3072,1531945841421949211,base_link,0,1,40.5926461,-79.9001455,356.96106754,0.31360000267,0.0,0.0,0.0,0.31360000267,0.0,0.0,0.0,1.25440001068,1,91.86844230724367,268.72479900597284,356.95473229081745,-6.685889934999166,11.795543972805545,-0.47537299313975157,0,Fixed-Wing
1970-01-01 00:00:11.569113057,3074,1531945841815422562,base_link,0,1,40.5926898,-79.9001732,356.30102143,0.31360000267,0.0,0.0,0.0,0.31360000267,0.0,0.0,0.0,1.25440001068,1,89.52340992787276,273.5777264272255,356.2945126706342,-5.860764111552684,12.128558699934704,-1.6500375388210333,0,Fixed-Wing
1970-01-01 00:00:12.006576272,3076,1531945842252772570,base_link,0,1,40.5927366,-79.9001919,355.320983221,0.31360000267,0.0,0.0,0.0,0.31360000267,0.0,0.0,0.0,1.25440001068,1,87.94027340553151,278.7749105247377,355.31427087093465,-3.956614755278986,12.988933674341471,-2.449845047284267,0,Fixed-Wing
1970-01-01 00:00:12.352016111,3078,1531945842598352700,base_link,0,1,40.5927863,-79.9001984,354.260956251,0.31360000267,0.0,0.0,0.0,0.31360000267,0.0,0.0,0.0,1.25440001068,1,87.38993257380204,284.2941533264953,354.25400724370127,-1.3754256973574976,13.793830916809716,-2.6498376184217456,0,Fixed-Wing
1970-01-01 00:00:12.767348281,3080,1531945843013407010,base_link,0,1,40.5928362,-79.9001891,353.260945286,0.31360000267,0.0,0.0,0.0,0.31360000267,0.0,0.0,0.0,1.25440001068,1,88.1771499070405,289.835623255054,353.25373545022165,1.9674334287332405,13.84938151312764,-2.4999045132999083,0,Fixed-Wing
1970-01-01 00:00:13.166677786,3082,1531945843412885097,base_link,0,1,40.5928829,-79.9001613,352.440954461,0.31360000267,0.0,0.0,0.0,0.31360000267,0.0,0.0,0.0,1.25440001068,1,90.53049769824283,295.02175174955426,352.4334733530679,5.8815461986842195,12.961303232248705,-2.050019736766034,0,Fixed-Wing
1970-01-01 00:00:13.568291606,3084,1531945843813228139,base_link,0,1,40.5929234,-79.9001164,351.700983578,0.31360000267,0.0,0.0,0.0,0.31360000267,0.0,0.0,0.0,1.25440001068,1,94.33145785688868,299.51937808939465,351.69323733955326,9.499455565389356,11.24058126940747,-1.8500165286626602,0,Fixed-Wing
1970-01-01 00:00:13.956298715,3086,1531945844202528245,base_link,0,1,40.5929534,-79.9000558,351.191032968,0.31360000267,0.0,0.0,0.0,0.31360000267,0.0,0.0,0.0,1.25440001068,1,99.46151974726334,302.8509860897834,351.18305120750983,12.82118016008703,8.326438804942391,-1.2750700583904728,0,Fixed-Wing
1970-01-01 00:00:14.378068947,3088,1531945844624502478,base_link,0,1,40.5929702,-79.8999847,351.101098444,0.31360000267,0.0,0.0,0.0,0.31360000267,0.0,0.0,0.0,1.25440001068,1,105.48048416214249,304.71674110856077,351.0929310460839,15.042747785384407,4.662942034912551,-0.22523058208441255,0,Fixed-Wing
1970-01-01 00:00:14.755143189,3090,1531945845001360329,base_link,0,1,40.5929746,-79.8999101,351.401172559,0.31360000267,0.0,0.0,0.0,0.31360000267,0.0,0.0,0.0,1.25440001068,1,111.79576628900561,305.2054771113997,351.39287432773534,15.783312490285823,1.221461354077606,0.7496258201243898,0,Fixed-Wing
1970-01-01 00:00:15.248855716,3092,1531945845495146331,base_link,0,1,40.59297,-79.8998378,352.171248022,0.31360000267,0.0,0.0,0.0,0.31360000267,0.0,0.0,0.0,1.25440001068,1,117.9163655211048,304.69476825264906,352.1628642114489,15.296756085861336,-1.2763764701708995,1.9243781520567356,0,Fixed-Wing
1970-01-01 00:00:15.552985555,3094,1531945845799325345,base_link,0,1,40.5929617,-79.8997685,353.161321954,0.31360000267,0.0,0.0,0.0,0.31360000267,0.0,0.0,0.0,1.25440001068,1,123.78301221107961,303.7731774031899,353.1528712170706,14.662071482777376,-2.3032631120831657,2.4742504964003458,0,Fixed-Wing
1970-01-01 00:00:15.973167417,3096,1531945846219044845,base_link,0,1,40.5929534,-79.8997019,354.331393148,0.31360000267,0.0,0.0,0.0,0.31360000267,0.0,0.0,0.0,1.25440001068,1,129.42109638214373,302.85159548466294,354.32287459656357,14.090842266557672,-2.3032407916719664,2.9241019771195487,0,Fixed-Wing
1970-01-01 00:00:16.387803257,3098,1531945846633978585,base_link,0,1,40.5929477,-79.8996371,355.741461453,0.31360000267,0.0,0.0,0.0,0.31360000267,0.0,0.0,0.0,1.25440001068,1,134.90680418272572,302.2187619881191,355.73285948834365,13.710019395442393,-1.5815934473908346,3.5238698298029716,0,Fixed-Wing
1970-01-01 00:00:16.769596185,3100,1531945847016025682,base_link,0,1,40.5929452,-79.8995729,356.901527846,0.31360000267,0.0,0.0,0.0,0.31360000267,0.0,0.0,0.0,1.25440001068,1,140.3417099147243,301.94128673059816,356.8928219589441,13.58305358338561,-0.6934731671205971,2.899007484181094,0,Fixed-Wing
1970-01-01 00:00:17.184179679,3102,1531945847430519022,base_link,0,1,40.5929469,-79.8995095,357.711591712,0.31360000267,0.0,0.0,0.0,0.31360000267,0.0,0.0,0.0,1.25440001068,1,145.70887659458307,302.13021704030984,357.70275667949124,13.41375843453222,0.4721793986656123,2.024209296485887,0,Fixed-Wing
1970-01-01 00:00:17.559573347,3104,1531945847805588055,base_link,0,1,40.5929511,-79.8994457,358.381654967,0.31360000267,0.0,0.0,0.0,0.31360000267,0.0,0.0,0.0,1.25440001068,1,151.1098975872113,302.5967760535203,358.3726722743475,13.498367987494424,1.1660360618468988,1.6742699634519884,0,Fixed-Wing
1970-01-01 00:00:17.978521825,3106,1531945848224076218,base_link,0,1,40.592957,-79.8993821,358.90171733,0.31360000267,0.0,0.0,0.0,0.31360000267,0.0,0.0,0.0,1.25440001068,1,156.49398031815056,303.2521205098994,358.89257379927983,13.456035456356704,1.637853406391798,1.299351013516616,0,Fixed-Wing
1970-01-01 00:00:18.365409042,3108,1531945848611858676,base_link,0,1,40.5929642,-79.8993185,359.331779165,0.31360000267,0.0,0.0,0.0,0.31360000267,0.0,0.0,0.0,1.25440001068,1,161.87805756210616,304.05183268075024,359.32246329170226,13.456021743148629,1.9986608422660301,1.074390669948398,0,Fixed-Wing
1970-01-01 00:00:18.765650211,3110,1531945849012105737,base_link,0,1,40.5929719,-79.8992535,359.401842228,0.31360000267,0.0,0.0,0.0,0.31360000267,0.0,0.0,0.0,1.25440001068,1,167.3806412525694,304.90706042156,359.39234360932045,13.752196045384032,2.1374067559300785,0.174646653582853,0,Fixed-Wing
1970-01-01 00:00:19.148911484,3112,1531945849395366593,base_link,0,1,40.5929793,-79.8991867,359.101907255,0.31360000267,0.0,0.0,0.0,0.31360000267,0.0,0.0,0.0,1.25440001068,1,173.03559424144967,305.7289623043283,359.0922185102856,14.133001241815709,2.054117930362377,-0.7500802227181026,0,Fixed-Wing
1970-01-01 00:00:19.576612370,3114,1531945849823001304,base_link,0,1,40.5929857,-79.8991165,358.651976162,0.31360000267,0.0,0.0,0.0,0.31360000267,0.0,0.0,0.0,1.25440001068,1,178.9783721573041,306.43981576902684,358.64208947104083,14.85234056406123,1.7765829210407682,-1.124973856216466,0,Fixed-Wing
1970-01-01 00:00:19.983993888,3116,1531945850230010901,base_link,0,1,40.5929913,-79.8990433,358.342048462,0.31360000267,0.0,0.0,0.0,0.31360000267,0.0,0.0,0.0,1.25440001068,1,185.17512042122658,307.06184509288636,358.33195514308375,15.487069668209038,1.5545913863190457,-0.7750955402752321,0,Fixed-Wing
1970-01-01 00:00:20.354312956,3118,1531945850600751609,base_link,0,1,40.5929957,-79.8989679,358.482123505,0.31360000267,0.0,0.0,0.0,0.31360000267,0.0,0.0,0.0,1.25440001068,1,191.5581257216315,307.5506432843088,358.47181834742116,15.952567954946296,1.2216167773551727,0.3495496504519009,0,Fixed-Wing
1970-01-01 00:00:20.810153210,3120,1531945851056252470,base_link,0,1,40.5929993,-79.898892,358.852199393,0.31360000267,0.0,0.0,0.0,0.31360000267,0.0,0.0,0.0,1.25440001068,1,197.98346762766965,307.95061737120085,358.8416789669996,16.058376668328172,0.9996253333767279,0.9243649957974188,0,Fixed-Wing
1970-01-01 00:00:21.165741896,3122,1531945851412088250,base_link,0,1,40.5930021,-79.8988162,359.402275518,0.31360000267,0.0,0.0,0.0,0.31360000267,0.0,0.0,0.0,1.25440001068,1,204.4003522487666,308.2617636769555,359.39153791014974,16.037240008339804,0.7776247007294632,1.3742213492570485,0,Fixed-Wing
1970-01-01 00:00:21.557515528,3124,1531945851803962217,base_link,0,1,40.5930045,-79.8987411,360.072351101,0.31360000267,0.0,0.0,0.0,0.31360000267,0.0,0.0,0.0,1.25440001068,1,210.75798390463908,308.52849877030405,360.06139396008933,15.88915350209552,0.6666310777372253,1.6741211472933308,0,Fixed-Wing
1970-01-01 00:00:21.970602440,3126,1531945852216867764,base_link,0,1,40.5930067,-79.8986665,360.802426266,0.31360000267,0.0,0.0,0.0,0.31360000267,0.0,0.0,0.0,1.25440001068,1,217.07329144075288,308.7730305511182,360.79124576834124,15.783375993726462,0.6111399986358147,1.8240640607709313,0,Fixed-Wing
1970-01-01 00:00:22.409769087,3128,1531945852655966282,base_link,0,1,40.5930087,-79.8985922,361.352501217,0.31360000267,0.0,0.0,0.0,0.31360000267,0.0,0.0,0.0,1.25440001068,1,223.3631977684086,308.9953477654235,361.3410930756296,15.719892652417073,0.5556207933173019,1.3741922686176282,0,Fixed-Wing
1970-01-01 00:00:22.818798906,3130,1531945853063715814,base_link,0,1,40.5930096,-79.8985179,361.802576627,0.31360000267,0.0,0.0,0.0,0.31360000267,0.0,0.0,0.0,1.25440001068,1,229.65310496987212,309.0955078653049,361.7909405774437,15.719894836259527,0.2503226496821159,1.124270230763655,0,Fixed-Wing
1970-01-01 00:00:23.208065268,3132,1531945853454360078,base_link,0,1,40.5930094,-79.8984432,362.212652906,0.31360000267,0.0,0.0,0.0,0.31360000267,0.0,0.0,0.0,1.25440001068,1,235.97687743098442,309.07351480517104,362.2007874346408,15.804531747938887,-0.05496561099525657,1.0242996101136745,0,Fixed-Wing
1970-01-01 00:00:23.626147543,3134,1531945853872091658,base_link,0,1,40.5930093,-79.8983671,362.352730582,0.31360000267,0.0,0.0,0.0,0.31360000267,0.0,0.0,0.0,1.25440001068,1,242.4191576754977,309.06262308267037,362.3406243928465,16.100709391371886,-0.02722086778267111,0.3494840554570727,0,Fixed-Wing
1970-01-01 00:00:23.968683445,3136,1531945854215090595,base_link,0,1,40.5930094,-79.8982877,362.042811553,0.31360000267,0.0,0.0,0.0,0.31360000267,0.0,0.0,0.0,1.25440001068,1,249.14078270232335,309.07393487524877,362.0304461798561,16.79885492203829,0.028270717523559603,-0.7752052188582096,0,Fixed-Wing
1970-01-01 00:00:24.351301404,3138,1531945854597683102,base_link,0,1,40.5930104,-79.8982021,361.242898492,0.31360000267,0.0,0.0,0.0,0.31360000267,0.0,0.0,0.0,1.25440001068,1,256.38724727748877,309.1851940762425,361.23024095964274,18.11054716829138,0.2780618033253266,-1.999893083677417,0,Fixed-Wing
1970-01-01 00:00:24.838147185,3140,1531945855084472601,base_link,0,1,40.5930116,-79.8981091,359.782992914,0.31360000267,0.0,0.0,0.0,0.31360000267,0.0,0.0,0.0,1.25440001068,1,264.26013136401775,309.3186608579666,359.7700080351611,19.676110622029633,0.3335635496098953,-3.649450981399913,0,Fixed-Wing
1970-01-01 00:00:25.177678557,3142,1531945855424149066,base_link,0,1,40.5930129,-79.8980068,358.643096803,0.31360000267,0.0,0.0,0.0,0.31360000267,0.0,0.0,0.0,1.25440001068,1,272.92031936894585,309.4632854696026,358.62974073568347,21.643760446581815,0.36144947975128805,-2.849784815401261,0,Fixed-Wing
1970-01-01 00:00:25.601581578,3144,1531945855847883782,base_link,0,1,40.5930138,-79.8978996,358.503205877,0.31360000267,0.0,0.0,0.0,0.31360000267,0.0,0.0,0.0,1.25440001068,1,281.9953608108267,309.5635635054038,358.48945073682785,22.68057262718768,0.25061739810954076,-0.3506163060841675,0,Fixed-Wing
1970-01-01 00:00:25.963139785,3146,1531945856209524173,base_link,0,1,40.5930134,-79.8977941,359.273313769,0.31360000267,0.0,0.0,0.0,0.31360000267,0.0,0.0,0.0,1.25440001068,1,290.92653464130086,309.5195232380799,359.2591602382518,22.321015061516345,-0.1100665476799886,1.9236774135616979,0,Fixed-Wing
1970-01-01 00:00:26.365168330,3148,1531945856611418414,base_link,0,1,40.5930126,-79.8976936,360.683416737,0.31360000267,0.0,0.0,0.0,0.31360000267,0.0,0.0,0.0,1.25440001068,1,299.4344657722301,309.4310868368114,360.66887434410455,21.26323622409366,-0.2210224862005166,3.5231930747786757,0,Fixed-Wing
1970-01-01 00:00:26.766309255,3150,1531945857012589849,base_link,0,1,40.5930114,-79.8975983,362.183514575,0.291600023174,0.0,0.0,0.0,0.291600023174,0.0,0.0,0.0,1.1664000927,1,307.5021990649172,309.29822536228204,362.1685953528836,20.163082676088116,-0.3320507505907256,3.7481405983620917,0,Fixed-Wing
1970-01-01 00:00:27.180041977,3152,1531945857422527587,base_link,0,1,40.5930097,-79.8975078,363.60360773,0.291600023174,0.0,0.0,0.0,0.291600023174,0.0,0.0,0.0,1.1664000927,1,315.163588913019,309.1098252801098,363.5883242461653,19.147538883200724,-0.47085424061596526,3.54822228429619,0,Fixed-Wing
1970-01-01 00:00:27.606708997,3154,1531945857851846009,base_link,0,1,40.5930077,-79.8974207,364.793697549,0.291600023174,0.0,0.0,0.0,0.291600023174,0.0,0.0,0.0,1.1664000927,1,322.53714395130663,308.88809363679826,364.77805676713876,18.428174861512016,-0.5541573195098446,2.973409545474529,0,Fixed-Wing
1970-01-01 00:00:27.986662044,3156,1531945858232967835,base_link,0,1,40.5930055,-79.8973356,365.553785419,0.291600023174,0.0,0.0,0.0,0.291600023174,0.0,0.0,0.0,1.1664000927,1,329.7413700878094,308.6441303668697,365.5377886414677,18.004983796280076,-0.6097191618811733,1.898741076088821,0,Fixed-Wing
1970-01-01 00:00:28.406871984,3158,1531945858652798907,base_link,0,1,40.5930036,-79.8972512,365.773872463,0.291600023174,0.0,0.0,0.0,0.291600023174,0.0,0.0,0.0,1.1664000927,1,336.88630961397627,308.4334608816919,365.75751306653194,17.856813203324133,-0.5265104946912599,0.5491408290035447,0,Fixed-Wing
1970-01-01 00:00:28.787698598,3160,1531945859034134658,base_link,0,1,40.5930011,-79.8971657,365.243960891,0.291600023174,0.0,0.0,0.0,0.291600023174,0.0,0.0,0.0,1.1664000927,1,344.1243336917796,308.15613474036627,365.22722908904154,18.08945246424445,-0.6931004921614358,-1.3252991010046853,0,Fixed-Wing
1970-01-01 00:00:29.210360101,3162,1531945859456756174,base_link,0,1,40.5929989,-79.8970773,363.804052174,0.291600023174,0.0,0.0,0.0,0.291600023174,0.0,0.0,0.0,1.1664000927,1,351.6078061871645,307.9120989371602,363.7869246321851,18.702883344625388,-0.6099004388791688,-3.599645252112941,0,Fixed-Wing
1970-01-01 00:00:29.584027766,3164,1531945859830438983,base_link,0,1,40.5929966,-79.8969855,361.064146988,0.291600023174,0.0,0.0,0.0,0.291600023174,0.0,0.0,0.0,1.1664000927,1,359.3790315526177,307.65691653105625,361.04659928440196,19.422042580433008,-0.6377583101836605,-6.848690275472457,0,Fixed-Wing
1970-01-01 00:00:29.958455119,3166,1531945860204303797,base_link,0,1,40.5929949,-79.8968851,358.714250366,0.291600023174,0.0,0.0,0.0,0.291600023174,0.0,0.0,0.0,1.1664000927,1,367.8783059597558,307.46842856616115,358.69622792178484,21.24160112149759,-0.4710738793351631,-5.874107433238509,0,Fixed-Wing
1970-01-01 00:00:30.384267078,3168,1531945860630343799,base_link,0,1,40.5929945,-79.8967774,358.164360692,0.291600023174,0.0,0.0,0.0,0.291600023174,0.0,0.0,0.0,1.1664000927,1,376.9956573499478,307.4244365756888,358.1458087685991,22.786314717917517,-0.10994589295409372,-1.375621440317788,0,Fixed-Wing
1970-01-01 00:00:30.774386548,3170,1531945861020376061,base_link,0,1,40.5929942,-79.8966715,358.004469155,0.291600023174,0.0,0.0,0.0,0.291600023174,0.0,0.0,0.0,1.1664000927,1,385.9606506567112,307.39157192250593,357.98538341155336,22.405537550267926,-0.0821361707442077,-0.40093910149295525,0,Fixed-Wing
1970-01-01 00:00:31.185121753,3172,1531945861428220390,base_link,0,1,40.5929911,-79.8965705,358.454573779,0.291600023174,0.0,0.0,0.0,0.291600023174,0.0,0.0,0.0,1.1664000927,1,394.51088654113573,307.04777910006885,358.43498227444735,21.36896533180845,-0.8592156992259419,1.123648826098891,0,Fixed-Wing
1970-01-01 00:00:31.552315466,3174,1531945861796912093,base_link,0,1,40.5929844,-79.8964754,359.324673868,0.291600023174,0.0,0.0,0.0,0.291600023174,0.0,0.0,0.0,1.1664000927,1,402.5617058239877,306.3042009388443,359.30461589308464,20.120810755795677,-1.8583693085757111,2.1734102894035217,0,Fixed-Wing
1970-01-01 00:00:31.989022770,3176,1531945862234964836,base_link,0,1,40.592972,-79.8963861,360.124770391,0.291600023174,0.0,0.0,0.0,0.291600023174,0.0,0.0,0.0,1.1664000927,1,410.1215579476727,304.9276025776533,360.1042976227167,18.893773239508263,-3.440429369872805,1.9985847628035993,0,Fixed-Wing
1970-01-01 00:00:32.373042354,3178,1531945862619246849,base_link,0,1,40.5929529,-79.8963022,360.71486417,0.291600023174,0.0,0.0,0.0,0.291600023174,0.0,0.0,0.0,1.1664000927,1,417.2243033769201,302.80692521616254,360.6940326902139,17.751360651316503,-5.300050388106631,1.4738807657056356,0,Fixed-Wing
1970-01-01 00:00:32.771524865,3180,1531945863017808789,base_link,0,1,40.5929268,-79.8962241,360.984954922,0.291600023174,0.0,0.0,0.0,0.291600023174,0.0,0.0,0.0,1.1664000927,1,423.8360754278244,299.90884474576245,360.9638254104128,16.52430759190735,-7.242955859683721,0.6742727759368348,0,Fixed-Wing
1970-01-01 00:00:33.166099762,3182,1531945863410012321,base_link,0,1,40.5928932,-79.8961522,360.925042445,0.31360000267,0.0,0.0,0.0,0.31360000267,0.0,0.0,0.0,1.25440001068,1,429.92301486505016,296.17783161613147,360.90368090852115,15.212632676934495,-9.324642185000101,-0.15031465718544912,0,Fixed-Wing
1970-01-01 00:00:33.561416771,3184,1531945863807634488,base_link,0,1,40.5928505,-79.8960889,360.635124945,0.31360000267,0.0,0.0,0.0,0.31360000267,0.0,0.0,0.0,1.25440001068,1,435.28196586394904,291.4361941330178,360.6136194161744,13.393225597312025,-11.850420077560116,-0.7249290028759872,0,Fixed-Wing
1970-01-01 00:00:33.984413249,3186,1531945864230713437,base_link,0,1,40.5927996,-79.8960354,360.185200825,0.31360000267,0.0,0.0,0.0,0.31360000267,0.0,0.0,0.0,1.25440001068,1,439.81134091292694,285.78387564776625,360.1636414154205,11.319928444626909,-14.126417023851495,-1.1245963770078815,0,Fixed-Wing
1970-01-01 00:00:34.402184944,3188,1531945864648622669,base_link,0,1,40.592741,-79.8959945,359.805267012,0.31360000267,0.0,0.0,0.0,0.31360000267,0.0,0.0,0.0,1.25440001068,1,443.2741163590276,279.2763974473721,359.78375718770405,8.654255795954844,-16.263653768317152,-0.9494162502535348,0,Fixed-Wing
1970-01-01 00:00:34.770644666,3190,1531945865016869714,base_link,0,1,40.5926766,-79.8959672,359.625321695,0.31360000267,0.0,0.0,0.0,0.31360000267,0.0,0.0,0.0,1.25440001068,1,445.5856315923884,272.1247579148669,359.60396092050223,5.776997214265598,-17.87355802827427,-0.44935136908014256,0,Fixed-Wing
1970-01-01 00:00:35.173287743,3192,1531945865419501746,base_link,0,1,40.5926093,-79.8959539,359.675363261,0.31360000267,0.0,0.0,0.0,0.31360000267,0.0,0.0,0.0,1.25440001068,1,446.71200466954537,264.6510063205276,359.65423906272827,2.8150600242849317,-18.678588623375052,0.12565640208044032,0,Fixed-Wing
1970-01-01 00:00:35.582289870,3194,1531945865827187088,base_link,0,1,40.592542,-79.8959527,359.885392452,0.291600023174,0.0,0.0,0.0,0.291600023174,0.0,0.0,0.0,1.1664000927,1,446.81405435979246,257.17719986885663,359.86456758496644,0.2550451616176474,-18.67872572420288,0.5256583515064617,0,Fixed-Wing
1970-01-01 00:00:35.997125388,3196,1531945866243555973,base_link,0,1,40.5924763,-79.8959583,360.20541403,0.291600023174,0.0,0.0,0.0,0.291600023174,0.0,0.0,0.0,1.1664000927,1,446.34044031587547,249.8810465606628,360.1849129948113,-1.1836681726589653,-18.23473050402831,0.8006153338587292,0,Fixed-Wing
1970-01-01 00:00:36.375549645,3198,1531945866621683194,base_link,0,1,40.5924124,-79.8959676,360.465431087,0.31360000267,0.0,0.0,0.0,0.31360000267,0.0,0.0,0.0,1.25440001068,1,445.5535815390527,242.7847658067877,360.4452597162918,-1.966537315489155,-17.735203971456617,0.6506650975209175,0,Fixed-Wing
1970-01-01 00:00:36.794771116,3200,1531945867040966999,base_link,0,1,40.5923496,-79.8959772,360.665447398,0.291600023174,0.0,0.0,0.0,0.291600023174,0.0,0.0,0.0,1.1664000927,1,444.74131287525523,235.810638463799,360.64559492197986,-2.0300423463662614,-17.429915083795795,0.500682802551402,0,Fixed-Wing
1970-01-01 00:00:37.214464299,3202,1531945867460390101,base_link,0,1,40.5922863,-79.8959851,360.575465678,0.291600023174,0.0,0.0,0.0,0.291600023174,0.0,0.0,0.0,1.1664000927,1,444.0729414538623,228.78098282308304,360.55591634264215,-1.6704107261571894,-17.568692807019723,-0.22412696898390208,0,Fixed-Wing
1970-01-01 00:00:37.617585075,3204,1531945867863933478,base_link,0,1,40.5922217,-79.8959911,360.165486468,0.291600023174,0.0,0.0,0.0,0.291600023174,0.0,0.0,0.0,1.1664000927,1,443.56540222412855,221.60695791831074,360.1462263012686,-1.2684548533298823,-17.929504115654886,-1.0239076920493426,0,Fixed-Wing
1970-01-01 00:00:37.986149486,3206,1531945868232524846,base_link,0,1,40.5921549,-79.8959945,359.515510861,0.291600023174,0.0,0.0,0.0,0.291600023174,0.0,0.0,0.0,1.1664000927,1,443.27796665645997,214.18862397323977,359.49652468895357,-0.7183662256415034,-18.540087435572396,-1.6237506680804636,0,Fixed-Wing
1970-01-01 00:00:38.401327311,3208,1531945868647793369,base_link,0,1,40.5920861,-79.8959948,358.915539291,0.291600023174,0.0,0.0,0.0,0.291600023174,0.0,0.0,0.0,1.1664000927,1,443.2529823988016,206.5482042735457,358.89680745831186,-0.062441287346894324,-19.09512975900987,-1.4988284397879548,0,Fixed-Wing
1970-01-01 00:00:38.784608849,3210,1531945869030930967,base_link,0,1,40.592016,-79.8959936,358.605569827,0.291600023174,0.0,0.0,0.0,0.291600023174,0.0,0.0,0.0,1.1664000927,1,443.3550116792886,198.76343474570643,358.5870788582556,0.2549941530301733,-19.45589249292538,-0.7740815348648076,0,Fixed-Wing
1970-01-01 00:00:39.185265384,3212,1531945869431511114,base_link,0,1,40.5919458,-79.8959914,358.555601454,0.291600023174,0.0,0.0,0.0,0.291600023174,0.0,0.0,0.0,1.1664000927,1,443.54171654747375,190.96757368320146,358.5373362766923,0.466617519031929,-19.483612736314164,-0.12431791535447437,0,Fixed-Wing
1970-01-01 00:00:39.607868171,3214,1531945869854117231,base_link,0,1,40.5918763,-79.8959877,358.715634352,0.291600023174,0.0,0.0,0.0,0.291600023174,0.0,0.0,0.0,1.1664000927,1,443.8554169078681,183.2494630506404,358.6975743463904,0.7840078585497596,-19.28929689936386,0.4004710282264894,0,Fixed-Wing
1970-01-01 00:00:39.994734803,3216,1531945870240644725,base_link,0,1,40.5918073,-79.895983,358.865668091,0.291600023174,0.0,0.0,0.0,0.291600023174,0.0,0.0,0.0,1.1664000927,1,444.25377078406285,175.58688304983352,358.84779646177213,0.995576061907641,-19.150513342880917,0.37543890239456557,0,Fixed-Wing
1970-01-01 00:00:40.369708751,3218,1531945870615917087,base_link,0,1,40.5917384,-79.8959788,358.895701299,0.291600023174,0.0,0.0,0.0,0.291600023174,0.0,0.0,0.0,1.1664000927,1,444.6097880086759,167.93540233657637,358.8780114469654,0.8897672336901222,-19.12277372328864,0.07551405362651091,0,Fixed-Wing
1970-01-01 00:00:40.777169986,3220,1531945871022916503,base_link,0,1,40.5916689,-79.8959761,358.855733245,0.291600023174,0.0,0.0,0.0,0.291600023174,0.0,0.0,0.0,1.1664000927,1,444.83881952568703,160.2172809465594,358.8382264705369,0.572401348109964,-19.289323784669158,-0.09943161726991379,0,Fixed-Wing
1970-01-01 00:00:41.179531554,3222,1531945871425890425,base_link,0,1,40.5915991,-79.8959749,358.735763803,0.291600023174,0.0,0.0,0.0,0.291600023174,0.0,0.0,0.0,1.1664000927,1,444.94086225532345,152.4658345694874,358.7184403830229,0.25502776548375816,-19.372610433445633,-0.2993724133368678,0,Fixed-Wing
1970-01-01 00:00:41.586726455,3224,1531945871832909531,base_link,0,1,40.5915291,-79.8959756,358.575792521,0.291600023174,0.0,0.0,0.0,0.291600023174,0.0,0.0,0.0,1.1664000927,1,444.88205504910854,144.69216761477355,358.5586547196034,-0.14697245407650653,-19.428144661939452,-0.399340363036169,0,Fixed-Wing
1970-01-01 00:00:41.981640552,3226,1531945872227745127,base_link,0,1,40.5914591,-79.8959779,358.445819621,0.291600023174,0.0,0.0,0.0,0.291600023174,0.0,0.0,0.0,1.1664000927,1,444.6877981522133,136.9184937097961,358.4288673723903,-0.48549173979876253,-19.42816203221362,-0.3243678140103966,0,Fixed-Wing
1970-01-01 00:00:42.377968793,3228,1531945872624304454,base_link,0,1,40.5913894,-79.8959811,358.375845695,0.291600023174,0.0,0.0,0.0,0.291600023174,0.0,0.0,0.0,1.1664000927,1,444.41735140910265,129.17813257858555,358.35907412216034,-0.6759073265054175,-19.344905907195177,-0.17442905256861282,0,Fixed-Wing
1970-01-01 00:00:42.760741770,3230,1531945873007019259,base_link,0,1,40.5913199,-79.8959847,358.385871298,0.291600023174,0.0,0.0,0.0,0.291600023174,0.0,0.0,0.0,1.1664000927,1,444.1130453630742,121.45998168480915,358.36927290244483,-0.7605293509723079,-19.289397521209416,0.025489049106020605,0,Fixed-Wing
1970-01-01 00:00:43.168106416,3232,1531945873414376061,base_link,0,1,40.5912505,-79.8959886,358.495896575,0.291600023174,0.0,0.0,0.0,0.291600023174,0.0,0.0,0.0,1.1664000927,1,443.78334770672274,113.75293637591429,358.4794635469732,-0.8239887043803181,-19.261642163166577,0.275391240036486,0,Fixed-Wing
1970-01-01 00:00:43.584194272,3234,1531945873830232383,base_link,0,1,40.5911813,-79.8959938,358.335920457,0.291600023174,0.0,0.0,0.0,0.291600023174,0.0,0.0,0.0,1.1664000927,1,443.34357436207097,106.06809031526561,358.31965071385423,-1.0990926429101207,-19.206161241636796,-0.39940826623487413,0,Fixed-Wing
1970-01-01 00:00:43.961467519,3236,1531945874207835643,base_link,0,1,40.5911122,-79.8960037,358.015939495,0.291600023174,0.0,0.0,0.0,0.291600023174,0.0,0.0,0.0,1.1664000927,1,442.5058970987653,98.39432388218665,357.99985112982876,-2.0935441595747646,-19.178470756762785,-0.7992511921941069,0,Fixed-Wing
1970-01-01 00:00:44.376716129,3238,1531945874622953663,base_link,0,1,40.5910439,-79.8960212,357.695950416,0.291600023174,0.0,0.0,0.0,0.291600023174,0.0,0.0,0.0,1.1664000927,1,441.02481364425637,90.80936212154515,357.68007725616195,-3.7015611523150453,-18.956527877961594,-0.7991869362167836,0,Fixed-Wing
1970-01-01 00:00:44.776037118,3240,1531945875022204187,base_link,0,1,40.5909776,-79.8960491,357.465949835,0.291600023174,0.0,0.0,0.0,0.291600023174,0.0,0.0,0.0,1.1664000927,1,438.66327845566593,83.44645532399207,357.4503401111965,-5.9020083488879385,-18.401562509504753,-0.5741648713034975,0,Fixed-Wing
1970-01-01 00:00:45.183276328,3242,1531945875429651527,base_link,0,1,40.5909157,-79.89609,357.385934065,0.291600023174,0.0,0.0,0.0,0.291600023174,0.0,0.0,0.0,1.1664000927,1,435.20116696157584,76.57211724090311,357.3706476026724,-8.652596430331835,-17.1805192467559,-0.19916952875631067,0,Fixed-Wing
1970-01-01 00:00:45.605747277,3244,1531945875851694913,base_link,0,1,40.5908602,-79.8961424,357.375903793,0.291600023174,0.0,0.0,0.0,0.291600023174,0.0,0.0,0.0,1.1664000927,1,430.76544541347056,70.40845982958498,357.36098919794165,-11.085867251415255,-15.404368174161327,-0.02413852888297505,0,Fixed-Wing
1970-01-01 00:00:45.990908107,3246,1531945876237086605,base_link,0,1,40.590813,-79.8962047,357.295859854,0.291600023174,0.0,0.0,0.0,0.291600023174,0.0,0.0,0.0,1.1664000927,1,425.49154410234394,65.1664901630507,357.2813545912213,-13.180667270962557,-13.100862898837082,-0.19902481910690953,0,Fixed-Wing
1970-01-01 00:00:46.388069511,3248,1531945876634447912,base_link,0,1,40.5907761,-79.8962767,357.2558016,0.291600023174,0.0,0.0,0.0,0.291600023174,0.0,0.0,0.0,1.1664000927,1,419.3963897752111,61.06831662461883,357.24174009662795,-15.23316353713557,-10.242258745868444,-0.09900554476453709,0,Fixed-Wing
1970-01-01 00:00:46.783880578,3250,1531945877023687253,base_link,0,1,40.5907502,-79.896355,357.235732225,0.291600023174,0.0,0.0,0.0,0.291600023174,0.0,0.0,0.0,1.1664000927,1,412.76781595127375,58.191693424995236,357.2221294610523,-16.56629900715118,-7.189329306973825,-0.049011395406537914,0,Fixed-Wing
1970-01-01 00:00:47.162136116,3252,1531945877408217288,base_link,0,1,40.590735,-79.8964359,357.065655653,0.291600023174,0.0,0.0,0.0,0.291600023174,0.0,0.0,0.0,1.1664000927,1,405.9190515081232,56.50332179686845,357.0525070058936,-17.116604960338723,-4.219620987810749,-0.4239247212332443,0,Fixed-Wing
1970-01-01 00:00:47.609843807,3254,1531945877855579759,base_link,0,1,40.5907303,-79.8965168,356.965574636,0.291600023174,0.0,0.0,0.0,0.291600023174,0.0,0.0,0.0,1.1664000927,1,399.07022627944485,55.98100563091268,356.9528621666813,-17.116756877063917,-1.305385745308384,-0.24903489721251462,0,Fixed-Wing
1970-01-01 00:00:48.020827898,3256,1531945878265868416,base_link,0,1,40.5907342,-79.8965954,357.185492344,0.291600023174,0.0,0.0,0.0,0.291600023174,0.0,0.0,0.0,1.1664000927,1,392.4160835331925,56.41375807056113,357.1731883134273,-16.630201503164958,1.0815458199169594,0.5506446670182339,0,Fixed-Wing
1970-01-01 00:00:48.409931175,3258,1531945878656301379,base_link,0,1,40.5907436,-79.8966698,357.76541204,0.291600023174,0.0,0.0,0.0,0.291600023174,0.0,0.0,0.0,1.1664000927,1,386.11749559295305,57.45732547809081,357.7534825164862,-15.741589957711682,2.6081100047227332,1.4502859190123158,0,Fixed-Wing
1970-01-01 00:00:48.791992166,3260,1531945879030727580,base_link,0,1,40.5907553,-79.8967396,358.44533549,0.291600023174,0.0,0.0,0.0,0.291600023174,0.0,0.0,0.0,1.1664000927,1,380.20832880793637,58.7563393701183,358.43374857141384,-14.76833877752067,3.246528306293771,1.7001380945098081,0,Fixed-Wing
1970-01-01 00:00:49.167708099,3262,1531945879413813090,base_link,0,1,40.5907668,-79.8968059,359.295262626,0.291600023174,0.0,0.0,0.0,0.291600023174,0.0,0.0,0.0,1.1664000927,1,374.59547750215756,60.03316425906044,359.28399542125976,-14.027779652754656,3.191072989728545,2.124958387514662,0,Fixed-Wing
1970-01-01 00:00:49.610993916,3264,1531945879857403051,base_link,0,1,40.5907762,-79.8968697,360.295193223,0.291600023174,0.0,0.0,0.0,0.291600023174,0.0,0.0,0.0,1.1664000927,1,369.1942922659705,61.076795823235074,360.2842305541451,-13.498778469142254,2.6082703466291246,2.499812890217374,0,Fixed-Wing
1970-01-01 00:00:49.979684371,3266,1531945880225785776,base_link,0,1,40.590782,-79.8969314,361.325127507,0.291600023174,0.0,0.0,0.0,0.291600023174,0.0,0.0,0.0,1.1664000927,1,363.9709102444375,61.720652273547415,361.3144583967644,-13.054408187294401,1.6091422916704363,2.574771427405747,0,Fixed-Wing
1970-01-01 00:00:50.372881782,3268,1531945880619249682,base_link,0,1,40.5907837,-79.8969915,362.265065173,0.291600023174,0.0,0.0,0.0,0.291600023174,0.0,0.0,0.0,1.1664000927,1,358.88299739947,61.90920368062547,362.2546821215113,-12.715840201956121,0.47123243564008066,2.3498308642992827,0,Fixed-Wing
1970-01-01 00:00:50.775030993,3270,1531945881021164830,base_link,0,1,40.5907814,-79.8970495,363.055006691,0.291600023174,0.0,0.0,0.0,0.291600023174,0.0,0.0,0.0,1.1664000927,1,353.9728783151041,61.65355621897629,363.04490011061716,-12.271493547914975,-0.6389205887404292,1.9749327436141886,0,Fixed-Wing
1970-01-01 00:00:51.217635142,3272,1531945881463627568,base_link,0,1,40.590776,-79.897106,363.684951063,0.291600023174,0.0,0.0,0.0,0.291600023174,0.0,0.0,0.0,1.1664000927,1,349.1897523806409,61.05365403457327,363.67511353859464,-11.954109062348566,-1.4992906808964748,1.5750453058988727,0,Fixed-Wing
1970-01-01 00:00:51.589642884,3274,1531945881835530300,base_link,0,1,40.5907691,-79.8971611,364.17489751,0.291600023174,0.0,0.0,0.0,0.291600023174,0.0,0.0,0.0,1.1664000927,1,344.52514640642295,60.28718040413008,364.1653205917172,-11.65790098623921,-1.9155902431325964,1.2251378400759776,0,Fixed-Wing
1970-01-01 00:00:51.994350908,3276,1531945882240557484,base_link,0,1,40.590762,-79.8972155,364.454844763,0.291600023174,0.0,0.0,0.0,0.291600023174,0.0,0.0,0.0,1.1664000927,1,339.9197893705781,59.49849983890604,364.4455220083397,-11.509824544003513,-1.9710903750438395,0.7002864527559045,0,Fixed-Wing
1970-01-01 00:00:52.399474010,3278,1531945882644449537,base_link,0,1,40.5907553,-79.8972697,364.594792056,0.291600023174,0.0,0.0,0.0,0.291600023174,0.0,0.0,0.0,1.1664000927,1,335.3313532602119,58.75424246687126,364.58571874600926,-11.467535339960014,-1.8600668093760457,0.35038322537402206,0,Fixed-Wing
1970-01-01 00:00:52.802337544,3280,1531945883047798741,base_link,0,1,40.5907489,-79.897324,364.544739124,0.291600023174,0.0,0.0,0.0,0.291600023174,0.0,0.0,0.0,1.1664000927,1,330.7344388888531,58.04330149004815,364.53591201313577,-11.488724423825667,-1.776801633551375,-0.12447824392811206,0,Fixed-Wing
1970-01-01 00:00:53.218104320,3282,1531945883460142517,base_link,0,1,40.5907437,-79.897379,364.364684972,0.291600023174,0.0,0.0,0.0,0.291600023174,0.0,0.0,0.0,1.1664000927,1,326.0782504582018,57.46562243521825,364.3561024947961,-11.636863648897087,-1.4437500745516403,-0.4493844866582676,0,Fixed-Wing
1970-01-01 00:00:53.649905744,3284,1531945883896264327,base_link,0,1,40.5907395,-79.8974347,364.074629685,0.291600023174,0.0,0.0,0.0,0.291600023174,0.0,0.0,0.0,1.1664000927,1,321.3627904553816,56.99899514279036,364.06629038309495,-11.784996658086444,-1.1662067069905508,-0.724305744472131,0,Fixed-Wing
1970-01-01 00:00:53.992522067,3286,1531945884238594499,base_link,0,1,40.5907361,-79.8974913,363.814573142,0.291600023174,0.0,0.0,0.0,0.291600023174,0.0,0.0,0.0,1.1664000927,1,316.5711355628865,56.621209791421876,363.8064764876401,-11.975424849534402,-0.944170685508711,-0.6493334452690674,0,Fixed-Wing
1970-01-01 00:00:54.388606737,3288,1531945884634911630,base_link,0,1,40.5907335,-79.8975489,363.554515241,0.291600023174,0.0,0.0,0.0,0.291600023174,0.0,0.0,0.0,1.1664000927,1,311.6948185879048,56.332265891026054,363.5466609616701,-12.187014462970742,-0.7221358888640063,-0.6493375202937037,0,Fixed-Wing
1970-01-01 00:00:54.784147724,3290,1531945885030443269,base_link,0,1,40.5907319,-79.8976073,363.314456103,0.291600023174,0.0,0.0,0.0,0.291600023174,0.0,0.0,0.0,1.1664000927,1,306.7507714084272,56.154374939194554,363.30684273910833,-12.356287499569117,-0.444589556816138,-0.5993597548804376,0,Fixed-Wing
1970-01-01 00:00:55.204259537,3292,1531945885450476998,base_link,0,1,40.5907312,-79.897666,363.004396284,0.291600023174,0.0,0.0,0.0,0.291600023174,0.0,0.0,0.0,1.1664000927,1,301.7813195305831,56.076432741635415,362.9970203231972,-12.419779562945758,-0.194795107414549,-0.7743160018172573,0,Fixed-Wing
1970-01-01 00:00:55.624836500,3294,1531945885870811541,base_link,0,1,40.5907316,-79.8977251,362.444335596,0.291600023174,0.0,0.0,0.0,0.291600023174,0.0,0.0,0.0,1.1664000927,1,296.7779882475704,56.12064788267543,362.4371936668805,-12.504451827465234,0.11050359648512185,-1.3991329095898166,0,Fixed-Wing
1970-01-01 00:00:56.007849463,3296,1531945886252736564,base_link,0,1,40.5907331,-79.8977846,361.694274039,0.291600023174,0.0,0.0,0.0,0.291600023174,0.0,0.0,0.0,1.1664000927,1,291.7407811434902,56.287020920975294,361.6873626922637,-12.589115134508827,0.4158036966037191,-1.873996497627662,0,Fixed-Wing
1970-01-01 00:00:56.396484453,3298,1531945886642800648,base_link,0,1,40.590735,-79.8978443,360.724212114,0.291600023174,0.0,0.0,0.0,0.291600023174,0.0,0.0,0.0,1.1664000927,1,286.6866322161734,56.49781564073126,360.71752773768924,-12.631456566756349,0.5268234841098428,-2.4238359972770454,0,Fixed-Wing
1970-01-01 00:00:56.783675270,3300,1531945887029603858,base_link,0,1,40.5907371,-79.8979043,359.634149805,0.291600023174,0.0,0.0,0.0,0.291600023174,0.0,0.0,0.0,1.1664000927,1,281.60708151892055,56.73082215082192,359.6276893150296,-12.694941311325593,0.5823357511437977,-2.723751693624039,0,Fixed-Wing
1970-01-01 00:00:57.174491168,3302,1531945887420733408,base_link,0,1,40.5907396,-79.8979655,358.754086104,0.291600023174,0.0,0.0,0.0,0.291600023174,0.0,0.0,0.0,1.1664000927,1,276.4259504753493,57.00825106142159,358.74784945349603,-12.948813476750383,0.6933573357250934,-2.198917989257287,0,Fixed-Wing
1970-01-01 00:00:57.583346248,3304,1531945887829156475,base_link,0,1,40.5907416,-79.898027,358.134022315,0.291600023174,0.0,0.0,0.0,0.291600023174,0.0,0.0,0.0,1.1664000927,1,271.219436850238,57.230158783674,358.1280068656955,-13.01225026519593,0.5545973804430893,-1.5491262403667854,0,Fixed-Wing
1970-01-01 00:00:57.971873379,3306,1531945888217766526,base_link,0,1,40.5907425,-79.8980883,357.753959201,0.291600023174,0.0,0.0,0.0,0.291600023174,0.0,0.0,0.0,1.1664000927,1,266.02987053717754,57.32991539546617,357.7481610963531,-12.969895115165503,0.2493142420653936,-0.9493201341144489,0,Fixed-Wing
1970-01-01 00:00:58.416359446,3308,1531945888662573417,base_link,0,1,40.590743,-79.8981485,357.373897388,0.291600023174,0.0,0.0,0.0,0.291600023174,0.0,0.0,0.0,1.1664000927,1,260.9334305262678,57.38525797089795,357.36830900906057,-12.737151510306205,0.13831356137542364,-0.949335924094865,0,Fixed-Wing
1970-01-01 00:00:58.810909083,3310,1531945889051473237,base_link,0,1,40.5907439,-79.8982079,356.833836231,0.291600023174,0.0,0.0,0.0,0.291600023174,0.0,0.0,0.0,1.1664000927,1,255.90470980077032,57.4850257960363,356.8284503962651,-12.567905762957146,0.24934226674316806,-1.3492282712245602,0,Fixed-Wing
1970-01-01 00:00:59.207614879,3312,1531945889453507961,base_link,0,1,40.5907451,-79.8982672,356.583775056,0.291600023174,0.0,0.0,0.0,0.291600023174,0.0,0.0,0.0,1.1664000927,1,250.8844661449448,57.61811557498251,356.5785871698883,-12.54671965647027,0.3326213347517625,-0.6244644819526378,0,Fixed-Wing
1970-01-01 00:00:59.594126782,3314,1531945889840526729,base_link,0,1,40.5907465,-79.8983261,356.603714211,0.291600023174,0.0,0.0,0.0,0.291600023174,0.0,0.0,0.0,1.1664000927,1,245.89809598552796,57.77342273811726,356.59871882080904,-12.462062159272753,0.3881475820864299,0.05031353010753134,0,Fixed-Wing
1970-01-01 00:00:59.968669710,3316,1531945890214676222,base_link,0,1,40.5907474,-79.8983839,356.953654709,0.291600023174,0.0,0.0,0.0,0.291600023174,0.0,0.0,0.0,1.1664000927,1,241.00486422596452,57.87321313335292,356.9488449114723,-12.229288319529532,0.24939867450005007,0.8750439630295919,0,Fixed-Wing
1970-01-01 00:01:00.386668649,3318,1531945890632653935,base_link,0,1,40.5907474,-79.8984406,357.363596717,0.291600023174,0.0,0.0,0.0,0.291600023174,0.0,0.0,0.0,1.1664000927,1,236.20476143133473,57.87306322978688,357.35896622603514,-11.996538059775954,-0.0003746427758399046,1.024985540889433,0,Fixed-Wing
1970-01-01 00:01:00.815594597,3320,1531945891061913129,base_link,0,1,40.5907468,-79.8984962,357.373540108,0.291600023174,0.0,0.0,0.0,0.291600023174,0.0,0.0,0.0,1.1664000927,1,231.49776958724382,57.80628432315052,357.3690825497205,-11.763832822052434,-0.1668955289769127,0.02528297149218268,0,Fixed-Wing
1970-01-01 00:01:01.196755033,3322,1531945891442977872,base_link,0,1,40.5907458,-79.8985521,357.123483366,0.291600023174,0.0,0.0,0.0,0.291600023174,0.0,0.0,0.0,1.1664000927,1,226.765372311605,57.69508436054704,357.1191965762737,-11.827326717814522,-0.2779137532451909,-0.6245213320040642,0,Fixed-Wing
1970-01-01 00:01:01.595700387,3324,1531945891841861245,base_link,0,1,40.5907445,-79.8986091,356.833425632,0.291600023174,0.0,0.0,0.0,0.291600023174,0.0,0.0,0.0,1.1664000927,1,221.939850884465,57.55056860600905,356.82930963900094,-12.060064947716253,-0.3611774213443617,-0.724492750429218,0,Fixed-Wing
1970-01-01 00:01:02.002501021,3326,1531945892248230506,base_link,0,1,40.5907429,-79.8986672,356.673366904,0.291600023174,0.0,0.0,0.0,0.291600023174,0.0,0.0,0.0,1.1664000927,1,217.02121111242425,57.37273878105455,356.66942152571914,-12.292788665615495,-0.4444367869822862,-0.39959640831790916,0,Fixed-Wing
1970-01-01 00:01:02.388561766,3328,1531945892634726113,base_link,0,1,40.5907412,-79.8987258,356.393307713,0.291600023174,0.0,0.0,0.0,0.291600023174,0.0,0.0,0.0,1.1664000927,1,212.0602386029138,57.1838047042105,356.38953066023095,-12.398587711585511,-0.47218881357791354,-0.6995103155226841,0,Fixed-Wing
1970-01-01 00:01:02.749290459,3330,1531945892995581363,base_link,0,1,40.5907402,-79.8987851,355.883247517,0.291600023174,0.0,0.0,0.0,0.291600023174,0.0,0.0,0.0,1.1664000927,1,207.0399959472844,57.07260679126074,355.87963615665456,-12.546717156754914,-0.27790863069889005,-1.274341213164895,0,Fixed-Wing
1970-01-01 00:01:03.217188050,3332,1531945893460661937,base_link,0,1,40.5907397,-79.8988455,355.413185992,0.291600023174,0.0,0.0,0.0,0.291600023174,0.0,0.0,0.0,1.1664000927,1,201.92662973423725,57.01693621670458,355.409738822543,-12.779453901908303,-0.13913330506582983,-1.1743792777028592,0,Fixed-Wing
1970-01-01 00:01:03.597205704,3334,1531945893843446247,base_link,0,1,40.5907395,-79.8989072,355.113123018,0.291600023174,0.0,0.0,0.0,0.291600023174,0.0,0.0,0.0,1.1664000927,1,196.70321295902014,56.994583434398294,355.10983903917344,-13.054495044578974,-0.055864637728017405,-0.7495171081203322,0,Fixed-Wing
1970-01-01 00:01:03.987084132,3336,1531945894233482991,base_link,0,1,40.590739,-79.898969,355.013060075,0.291600023174,0.0,0.0,0.0,0.291600023174,0.0,0.0,0.0,1.1664000927,1,191.47133768086553,56.938920228587904,355.0099355660421,-13.07563474861444,-0.139114888910413,-0.24968128163106593,0,Fixed-Wing
1970-01-01 00:01:04.435178727,3338,1531945894680717818,base_link,0,1,40.5907381,-79.8990306,355.07299751,0.291600023174,0.0,0.0,0.0,0.291600023174,0.0,0.0,0.0,1.1664000927,1,186.25639989316863,56.83884166803023,355.07002808821,-13.033304144957306,-0.2501188645461822,0.15018474814783989,0,Fixed-Wing
1970-01-01 00:01:04.787624451,3340,1531945895033574937,base_link,0,1,40.5907373,-79.8990921,355.142935012,0.291600023174,0.0,0.0,0.0,0.291600023174,0.0,0.0,0.0,1.1664000927,1,181.04992769645816,56.74987226802119,355.14011607930183,-13.012146726291048,-0.22235457010585324,0.17516567636992242,0,Fixed-Wing
1970-01-01 00:01:05.193980009,3342,1531945895440116215,base_link,0,1,40.5907363,-79.8991543,355.13287189,0.291600023174,0.0,0.0,0.0,0.291600023174,0.0,0.0,0.0,1.1664000927,1,175.78419287370858,56.638693952741534,355.1302010302919,-13.160257377087051,-0.2778596517071184,-0.024779940743167445,0,Fixed-Wing
1970-01-01 00:01:05.582027969,3344,1531945895828365519,base_link,0,1,40.590735,-79.8992176,355.032807776,0.291600023174,0.0,0.0,0.0,0.291600023174,0.0,0.0,0.0,1.1664000927,1,170.42533230101031,56.4942007660168,355.030283427473,-13.392999601869077,-0.36112101929584467,-0.24971659490280834,0,Fixed-Wing
1970-01-01 00:01:06.033096199,3346,1531945896274293998,base_link,0,1,40.590734,-79.8992818,354.792742624,0.291600023174,0.0,0.0,0.0,0.291600023174,0.0,0.0,0.0,1.1664000927,1,164.9902749946118,56.38302416782031,354.79036196209097,-13.58343240195166,-0.2778553603295319,-0.5996177819427319,0,Fixed-Wing
1970-01-01 00:01:06.427072604,3348,1531945896673248444,base_link,0,1,40.590733,-79.8993474,354.482676049,0.291600023174,0.0,0.0,0.0,0.291600023174,0.0,0.0,0.0,1.1664000927,1,159.43669477469814,56.27184838828978,354.4804374056679,-13.879647858947902,-0.2778533142988839,-0.7745712739627819,0,Fixed-Wing
1970-01-01 00:01:06.784799713,3350,1531945897030872977,base_link,0,1,40.5907313,-79.899414,354.382608754,0.291600023174,0.0,0.0,0.0,0.291600023174,0.0,0.0,0.0,1.1664000927,1,153.79846344134427,56.08294032972245,354.38051002343354,-14.091210058266618,-0.47212378804404515,-0.24974103586473487,0,Fixed-Wing
1970-01-01 00:01:07.195687182,3352,1531945897441983368,base_link,0,1,40.590729,-79.8994811,354.552541208,0.291600023174,0.0,0.0,0.0,0.291600023174,0.0,0.0,0.0,1.1664000927,1,148.11791050657348,55.827406754353945,354.5505789748351,-14.196981272732422,-0.6386359612732625,0.4250406159129689,0,Fixed-Wing
1970-01-01 00:01:07.612457858,3354,1531945897856330206,base_link,0,1,40.5907267,-79.8995487,354.682473159,0.291600023174,0.0,0.0,0.0,0.291600023174,0.0,0.0,0.0,1.1664000927,1,142.3950269084493,55.571876336270634,354.68064330459697,-14.302775135018607,-0.6386280705064191,0.32506005578736813,0,Fixed-Wing
1970-01-01 00:01:07.989905492,3356,1531945898236248709,base_link,0,1,40.5907263,-79.8996165,355.062404114,0.291600023174,0.0,0.0,0.0,0.291600023174,0.0,0.0,0.0,1.1664000927,1,136.65521253285553,55.52735134878577,355.06070002438275,-14.34508896140638,-0.11127797254066935,0.9498473467869573,0,Fixed-Wing
1970-01-01 00:01:08.400003435,3358,1531945898646365988,base_link,0,1,40.5907279,-79.8996843,355.642334236,0.291600023174,0.0,0.0,0.0,0.291600023174,0.0,0.0,0.0,1.1664000927,1,130.91539760262006,55.70493694467305,355.64074881247336,-14.345090347580921,0.4438264035331038,1.4496725717292829,0,Fixed-Wing
1970-01-01 00:01:08.820704072,3360,1531945899064570112,base_link,0,1,40.5907302,-79.8997526,356.132263562,0.291600023174,0.0,0.0,0.0,0.291600023174,0.0,0.0,0.0,1.1664000927,1,125.13324974859276,55.96026204629433,356.13079178825143,-14.450889859211896,0.638114938422292,1.2247277738352789,0,Fixed-Wing
1970-01-01 00:01:09.197127380,3362,1531945899443139399,base_link,0,1,40.5907325,-79.8998216,356.472192182,0.291600023174,0.0,0.0,0.0,0.291600023174,0.0,0.0,0.0,1.1664000927,1,119.2918378769325,56.21558939800934,356.47082992174546,-14.599003987914386,0.6381205619133327,0.84983188585047,0,Fixed-Wing
1970-01-01 00:01:09.625830470,3364,1531945899872153292,base_link,0,1,40.5907345,-79.8998918,356.662119712,0.291600023174,0.0,0.0,0.0,0.291600023174,0.0,0.0,0.0,1.1664000927,1,113.3488338123015,56.43760280865078,356.66086371190124,-14.85290576079165,0.5548615195325394,0.4749372448435497,0,Fixed-Wing
1970-01-01 00:01:09.989005444,3366,1531945900235349909,base_link,0,1,40.5907363,-79.8999629,356.782046416,0.291600023174,0.0,0.0,0.0,0.291600023174,0.0,0.0,0.0,1.1664000927,1,107.32963653159428,56.637408803807006,356.78089261540447,-15.043329769539524,0.49936018623283146,0.2999792651858564,0,Fixed-Wing
1970-01-01 00:01:10.405870565,3368,1531945900652100480,base_link,0,1,40.5907387,-79.900034,357.091972877,0.291600023174,0.0,0.0,0.0,0.291600023174,0.0,0.0,0.0,1.1664000927,1,101.31044145662983,56.90385270517953,357.09091500459124,-15.043324256891474,0.66590332340106,0.7748157800751017,0,Fixed-Wing
1970-01-01 00:01:10.805025971,3370,1531945901051410839,base_link,0,1,40.5907418,-79.9001046,357.521899563,0.291600023174,0.0,0.0,0.0,0.291600023174,0.0,0.0,0.0,1.1664000927,1,95.33357611426314,57.248039684570244,357.5209306039535,-14.937532720773294,0.8602007862330505,1.074705839595385,0,Fixed-Wing
1970-01-01 00:01:11.205164564,3372,1531945901451499008,base_link,0,1,40.5907468,-79.9001742,357.92182648,0.291600023174,0.0,0.0,0.0,0.291600023174,0.0,0.0,0.0,1.1664000927,1,89.44136574929166,57.80323152603245,357.92093772414034,-14.725960864560676,1.3875494633218795,0.9997078910208892,0,Fixed-Wing
1970-01-01 00:01:11.587177565,3374,1531945901833502340,base_link,0,1,40.5907553,-79.9002426,358.441753162,0.291600023174,0.0,0.0,0.0,0.291600023174,0.0,0.0,0.0,1.1664000927,1,83.65074254777093,58.74711325201082,358.44093421879944,-14.472071661586735,2.358973033305605,1.2995883642548227,0,Fixed-Wing
1970-01-01 00:01:11.996719083,3376,1531945902243090184,base_link,0,1,40.5907679,-79.9003098,358.871679356,0.291600023174,0.0,0.0,0.0,0.291600023174,0.0,0.0,0.0,1.1664000927,1,77.96170381348034,60.1463141562578,358.87091931049014,-14.218189197075384,3.4969182159705037,1.0746295940525843,0,Fixed-Wing
1970-01-01 00:01:12.359250039,3378,1531945902605744976,base_link,0,1,40.5907848,-79.900376,359.201604778,0.291600023174,0.0,0.0,0.0,0.291600023174,0.0,0.0,0.0,1.1664000927,1,72.35731883720031,62.023044233041304,359.20089265917693,-14.00662038837968,4.690371176893919,0.8246777216232772,0,Fixed-Wing
1970-01-01 00:01:12.808298015,3380,1531945903054295915,base_link,0,1,40.5908068,-79.9004409,359.291529398,0.291600023174,0.0,0.0,0.0,0.291600023174,0.0,0.0,0.0,1.1664000927,1,66.86298407937099,64.46614391538702,359.2908528728266,-13.731580104740834,6.105856390383276,0.2248308365647822,0,Fixed-Wing
1970-01-01 00:01:13.207466675,3382,1531945903453734559,base_link,0,1,40.5908343,-79.9005035,359.111454072,0.291600023174,0.0,0.0,0.0,0.291600023174,0.0,0.0,0.0,1.1664000927,1,61.56335874142781,67.52003400479705,359.1107991486589,-13.244957408061442,7.632359192175507,-0.44999481202750163,0,Fixed-Wing
1970-01-01 00:01:13.648870831,3384,1531945903895168522,base_link,0,1,40.5908684,-79.9005619,358.741380276,0.291600023174,0.0,0.0,0.0,0.291600023174,0.0,0.0,0.0,1.1664000927,1,56.619294589761225,71.30687326809871,358.7407297791203,-12.356329916892234,9.464164267331274,-0.9248867089667507,0,Fixed-Wing
1970-01-01 00:01:13.973281653,3386,1531945904219467834,base_link,0,1,40.5909095,-79.9006142,358.461309783,0.291600023174,0.0,0.0,0.0,0.291600023174,0.0,0.0,0.0,1.1664000927,1,52.19164505501277,75.87108590796942,358.4606442106468,-11.065693471894848,11.40699543109312,-0.6999969221377695,0,Fixed-Wing
1970-01-01 00:01:14.397188067,3388,1531945904642844429,base_link,0,1,40.5909567,-79.9006583,358.401245111,0.291600023174,0.0,0.0,0.0,0.291600023174,0.0,0.0,0.0,1.1664000927,1,48.458193582620126,81.1127268875675,358.4005442912384,-9.330736152774252,13.100041436150015,-0.15020323551799217,0,Fixed-Wing
1970-01-01 00:01:14.802731720,3390,1531945905048854191,base_link,0,1,40.5910087,-79.9006923,358.461188742,0.291600023174,0.0,0.0,0.0,0.291600023174,0.0,0.0,0.0,1.1664000927,1,45.57978941335029,86.88742737069015,358.46043287605755,-7.193780351265696,14.432277201874028,0.1496750627783747,0,Fixed-Wing
1970-01-01 00:01:15.204871774,3392,1531945905451120386,base_link,0,1,40.5910632,-79.9007156,358.541142246,0.291600023174,0.0,0.0,0.0,0.291600023174,0.0,0.0,0.0,1.1664000927,1,43.60722652244209,92.93976533585337,358.54031462469817,-4.929878964791416,15.126155804608619,0.1996424824319873,0,Fixed-Wing
1970-01-01 00:01:15.571518636,3394,1531945905817809219,base_link,0,1,40.5911186,-79.900728,358.891106495,0.291600023174,0.0,0.0,0.0,0.291600023174,0.0,0.0,0.0,1.1664000927,1,42.55743716216834,99.09206049213336,358.8901931142153,-2.623660066063893,15.375971339584705,0.8744251519957627,0,Fixed-Wing
1970-01-01 00:01:16.001558328,3396,1531945906244884177,base_link,0,1,40.5911733,-79.9007307,359.441080931,0.291600023174,0.0,0.0,0.0,0.291600023174,0.0,0.0,0.0,1.1664000927,1,42.32883046454757,105.16662785672193,359.44007156662366,-0.5713396287670054,15.181712080726411,1.3742701072875814,0,Fixed-Wing
1970-01-01 00:01:16.406998732,3398,1531945906653134202,base_link,0,1,40.5912261,-79.9007271,360.13106259,0.291600023174,0.0,0.0,0.0,0.291600023174,0.0,0.0,0.0,1.1664000927,1,42.63356911568188,111.03020244320737,360.1299515829339,0.7616105285719121,14.654393604196303,1.7241655494553418,0,Fixed-Wing
1970-01-01 00:01:16.770090339,3400,1531945907016068550,base_link,0,1,40.5912769,-79.9007202,360.801048455,0.291600023174,0.0,0.0,0.0,0.291600023174,0.0,0.0,0.0,1.1664000927,1,43.21767840772586,116.67167498870697,360.7998325787213,1.4598206856973925,14.099310577469975,1.6741834925857144,0,Fixed-Wing
1970-01-01 00:01:17.211028322,3402,1531945907457239988,base_link,0,1,40.5913262,-79.9007122,361.381036077,0.291600023174,0.0,0.0,0.0,0.291600023174,0.0,0.0,0.0,1.1664000927,1,43.89491054243921,122.14656914852998,361.3797128374416,1.6925556445335694,13.682993671519352,1.449251378873356,0,Fixed-Wing
1970-01-01 00:01:17.620282408,3404,1531945907865165892,base_link,0,1,40.5913743,-79.9007044,361.831024006,0.291600023174,0.0,0.0,0.0,0.291600023174,0.0,0.0,0.0,1.1664000927,1,44.5552102083704,127.48819890572625,361.82959141077276,1.6502375911746963,13.349935912857697,1.12434788548337,0,Fixed-Wing
1970-01-01 00:01:17.976456461,3406,1531945908222796347,base_link,0,1,40.5914221,-79.9006985,362.041010135,0.291600023174,0.0,0.0,0.0,0.291600023174,0.0,0.0,0.0,1.1664000927,1,45.054658497122716,132.7965078374874,362.03946546215934,1.2482337694122798,13.266659664906783,0.5245225264832346,0,Fixed-Wing
1970-01-01 00:01:18.418148625,3408,1531945908664267799,base_link,0,1,40.5914698,-79.9006957,362.090993161,0.291600023174,0.0,0.0,0.0,0.291600023174,0.0,0.0,0.0,1.1664000927,1,45.29166733693854,138.0937068894523,362.08933405099094,0.5923384746124243,13.238893572904638,0.12463283589987202,0,Fixed-Wing
1970-01-01 00:01:18.803579504,3410,1531945909049581758,base_link,0,1,40.591518,-79.9006963,361.93097253,0.291600023174,0.0,0.0,0.0,0.291600023174,0.0,0.0,0.0,1.1664000927,1,45.24083932508526,143.4464257617583,361.9291953574174,-0.12703065013165088,13.377650109231102,-0.40022266490766606,0,Fixed-Wing
