time,field.header.seq,field.header.stamp,field.header.frame_id,field.status.status,field.status.service,lat,lon,alt,field.position_covariance0,field.position_covariance1,field.position_covariance2,field.position_covariance3,field.position_covariance4,field.position_covariance5,field.position_covariance6,field.position_covariance7,field.position_covariance8,field.position_covariance_type,x,y,z,vel_x,vel_y,vel_z,track_id,uav_category
1970-01-01 00:00:00.000000000,4377,1539875887156887528,base_link,0,1,40.5914094,-79.8957657,377.266058336,0.489999983311,0.0,0.0,0.0,0.489999983311,0.0,0.0,0.0,1.95999993324,1,464.39772667172963,124.48221017663383,377.2479590248866,-16.76553476964229,4.719518824575154,-0.8992638858618421,0,Fixed-Wing
1970-01-01 00:00:00.403625120,4379,1539875887560525640,base_link,0,1,40.5914264,-79.8958449,376.905969879,0.489999983311,0.0,0.0,0.0,0.489999983311,0.0,0.0,0.0,1.95999993324,1,457.69270311684136,126.36968262062734,376.88831731827776,-16.76553476964229,4.719518824575154,-0.8992638858618421,0,Fixed-Wing
1970-01-01 00:00:00.810215744,4381,1539875887967007464,base_link,0,1,40.5914496,-79.8959202,377.025882829,0.489999983311,0.0,0.0,0.0,0.489999983311,0.0,0.0,0.0,1.95999993324,1,451.3178403750314,128.94571665936428,377.00863218661664,-15.939986202075813,6.441228414885981,0.30084057004838455,0,Fixed-Wing
1970-01-01 00:00:01.186890176,4383,1539875888343610888,base_link,0,1,40.5914774,-79.8959904,376.765799091,0.489999983311,0.0,0.0,0.0,0.489999983311,0.0,0.0,0.0,1.95999993324,1,445.374678125323,132.03261612506418,376.7489022962784,-14.860543370719288,7.718618719072388,-0.6494400014458448,0,Fixed-Wing
1970-01-01 00:00:01.587921440,4385,1539875888744684200,base_link,0,1,40.5915116,-79.8960538,376.185719654,0.489999983311,0.0,0.0,0.0,0.489999983311,0.0,0.0,0.0,1.95999993324,1,440.00712807091054,135.83028379898343,376.16911491904807,-13.421257409221257,9.495854699007198,-1.4497257693998984,0,Fixed-Wing
1970-01-01 00:00:02.010445568,4387,1539875889167284904,base_link,0,1,40.5915508,-79.8961109,375.245644594,0.489999983311,0.0,0.0,0.0,0.489999983311,0.0,0.0,0.0,1.95999993324,1,435.1728691723896,140.18324073762878,375.2292766199172,-12.0877928295296,10.884324314179139,-2.3500128751125415,0,Fixed-Wing
1970-01-01 00:00:02.419053792,4389,1539875889575846312,base_link,0,1,40.5915923,-79.8961642,373.835572484,0.489999983311,0.0,0.0,0.0,0.489999983311,0.0,0.0,0.0,1.95999993324,1,430.6602687596284,144.79162831021483,373.81940714889834,-11.28350385383699,11.523014266497437,-3.5252994181938573,0,Fixed-Wing
1970-01-01 00:00:02.810767424,4391,1539875889967498568,base_link,0,1,40.5916346,-79.8962152,371.895502415,0.489999983311,0.0,0.0,0.0,0.489999983311,0.0,0.0,0.0,1.95999993324,1,426.3423471414584,149.48885730522954,371.87951811370334,-10.796720463307318,11.745157252949177,-4.850583566570553,0,Fixed-Wing
1970-01-01 00:00:03.203802784,4393,1539875890360488040,base_link,0,1,40.5916776,-79.8962654,369.41543289,0.489999983311,0.0,0.0,0.0,0.489999983311,0.0,0.0,0.0,1.95999993324,1,422.092119232018,154.26381344847442,369.3996168788149,-10.627456147067134,11.939509621069938,-6.200853738759671,0,Fixed-Wing
1970-01-01 00:00:03.603141344,4395,1539875890760013256,base_link,0,1,40.5917214,-79.8963166,366.625362024,0.489999983311,0.0,0.0,0.0,0.489999983311,0.0,0.0,0.0,1.95999993324,1,417.7572177459124,159.12759777499707,366.6097112081641,-10.839177669300286,12.16161950376854,-6.9760024170561605,0,Fixed-Wing
1970-01-01 00:00:04.030404768,4397,1539875891186624872,base_link,0,1,40.591766,-79.8963691,363.465289509,0.489999983311,0.0,0.0,0.0,0.489999983311,0.0,0.0,0.0,1.95999993324,1,413.3122427706144,164.0802066494923,363.4498020611319,-11.1144102460637,12.383720296590747,-7.901175326200853,0,Fixed-Wing
1970-01-01 00:00:04.400478528,4399,1539875891557360712,base_link,0,1,40.5918115,-79.8964236,360.285214588,0.489999983311,0.0,0.0,0.0,0.489999983311,0.0,0.0,0.0,1.95999993324,1,408.6979576026757,169.13275056028897,360.2698917384896,-11.537760872401611,12.633602241389491,-7.9511871423234775,0,Fixed-Wing
1970-01-01 00:00:04.807603936,4401,1539875891964352712,base_link,0,1,40.5918577,-79.896481,357.315136423,0.489999983311,0.0,0.0,0.0,0.489999983311,0.0,0.0,0.0,1.95999993324,1,403.83818772363014,174.26302134638706,357.29998422615995,-12.151581603348419,12.827953927067291,-7.426086911250885,0,Fixed-Wing
1970-01-01 00:00:05.212483584,4403,1539875892369365736,base_link,0,1,40.5919059,-79.8965425,355.275053243,0.489999983311,0.0,0.0,0.0,0.489999983311,0.0,0.0,0.0,1.95999993324,1,398.6313828586318,179.6154026611552,355.26007926611874,-13.019323092344724,13.383328827787278,-5.100667768631964,0,Fixed-Wing
1970-01-01 00:00:05.578806976,4405,1539875892735713832,base_link,0,1,40.5919552,-79.896607,354.554966555,0.489999983311,0.0,0.0,0.0,0.489999983311,0.0,0.0,0.0,1.95999993324,1,393.1706938198156,185.089966637651,354.5401741344212,-13.65414620799245,13.68883971028808,-1.8000823438598959,0,Fixed-Wing
1970-01-01 00:00:05.980710592,4407,1539875893137313384,base_link,0,1,40.5920039,-79.896673,354.614878608,0.489999983311,0.0,0.0,0.0,0.489999983311,0.0,0.0,0.0,1.95999993324,1,387.58308001934813,190.4979188473729,354.60026806345877,-13.971514444982649,13.522280729134133,0.1502614940091309,0,Fixed-Wing
1970-01-01 00:00:06.399116768,4409,1539875893555913352,base_link,0,1,40.5920514,-79.8967374,355.244792827,0.489999983311,0.0,0.0,0.0,0.489999983311,0.0,0.0,0.0,1.95999993324,1,382.13096553262704,195.77263720738154,355.23035067419653,-13.632706022121644,13.189136971834124,1.5754861756405734,0,Fixed-Wing
1970-01-01 00:00:06.832638016,4411,1539875893989412360,base_link,0,1,40.5920976,-79.8967984,356.464711094,0.489999983311,0.0,0.0,0.0,0.489999983311,0.0,0.0,0.0,1.95999993324,1,376.96673172380895,200.90302590424338,356.45041588173143,-12.912876557634222,12.828248756308852,3.050704518889356,0,Fixed-Wing
1970-01-01 00:00:07.177600896,4413,1539875894329402248,base_link,0,1,40.5921424,-79.8968568,357.82463263,0.489999983311,0.0,0.0,0.0,0.489999983311,0.0,0.0,0.0,1.95999993324,1,372.0226256364652,205.87796251246067,357.81046826162856,-12.362459554930389,12.439549540586682,3.40073458013079,0,Fixed-Wing
1970-01-01 00:00:07.604273248,4415,1539875894761241608,base_link,0,1,40.5921857,-79.8969133,358.994556758,0.489999983311,0.0,0.0,0.0,0.489999983311,0.0,0.0,0.0,1.95999993324,1,367.2393684454069,210.68632774221058,358.98051178833913,-11.960265924847368,12.023047165246608,2.9256281157669783,0,Fixed-Wing
1970-01-01 00:00:07.997702560,4417,1539875895154614888,base_link,0,1,40.5922276,-79.8969681,360.094483228,0.489999983311,0.0,0.0,0.0,0.489999983311,0.0,0.0,0.0,1.95999993324,1,362.60003503624824,215.33922922655452,360.08054753663544,-11.600392592581851,11.634318802447291,2.750577598264459,0,Fixed-Wing
1970-01-01 00:00:08.410981824,4419,1539875895567815528,base_link,0,1,40.592268,-79.897022,360.964411262,0.489999983311,0.0,0.0,0.0,0.489999983311,0.0,0.0,0.0,1.95999993324,1,358.0368915998728,219.82555244450793,360.9505795637319,-11.409883845321218,11.217799204242285,2.175466212993913,0,Fixed-Wing
1970-01-01 00:00:08.790858816,4421,1539875895947339208,base_link,0,1,40.5923071,-79.8970754,361.324340366,0.489999983311,0.0,0.0,0.0,0.489999983311,0.0,0.0,0.0,1.95999993324,1,353.5160591648332,224.167495696961,361.3106089834524,-11.304087563141337,10.856785210507525,0.9002333407193456,0,Fixed-Wing
1970-01-01 00:00:09.199827648,4423,1539875896356715112,base_link,0,1,40.5923459,-79.8971281,361.514270328,0.489999983311,0.0,0.0,0.0,0.489999983311,0.0,0.0,0.0,1.95999993324,1,349.05448310453846,228.476123177379,361.5006310555729,-11.155920326594872,10.773480993921448,0.47513951756557943,0,Fixed-Wing
1970-01-01 00:00:09.611550688,4425,1539875896768101288,base_link,0,1,40.5923842,-79.8971809,362.024200413,0.489999983311,0.0,0.0,0.0,0.489999983311,0.0,0.0,0.0,1.95999993324,1,344.58446615011275,232.7292387510528,362.01064970460953,-11.177026308234003,10.634676589279087,1.2752729835461396,0,Fixed-Wing
1970-01-01 00:00:09.991869984,4427,1539875897147991560,base_link,0,1,40.5924224,-79.897234,362.294130248,0.489999983311,0.0,0.0,0.0,0.489999983311,0.0,0.0,0.0,1.95999993324,1,340.0890444712256,236.9712423819392,362.28066389759175,-11.240549394735488,10.606891800510558,0.6751553225252899,0,Fixed-Wing
1970-01-01 00:00:10.413705472,4429,1539875897570247144,base_link,0,1,40.5924615,-79.8972871,362.534059728,0.489999983311,0.0,0.0,0.0,0.489999983311,0.0,0.0,0.0,1.95999993324,1,335.5936214525535,241.3131951043851,362.52066795399753,-11.240552744792343,10.856808889692697,0.6001166617219066,0,Fixed-Wing
1970-01-01 00:00:10.799581568,4431,1539875897955705896,base_link,0,1,40.5925009,-79.8973409,362.523988385,0.489999983311,0.0,0.0,0.0,0.489999983311,0.0,0.0,0.0,1.95999993324,1,331.0389296752347,245.68845432123996,362.51066684692523,-11.388750946590006,10.940089908095832,-0.025007206459892906,0,Fixed-Wing
1970-01-01 00:00:11.209363936,4433,1539875898364122920,base_link,0,1,40.5925417,-79.8973945,362.143916684,0.489999983311,0.0,0.0,0.0,0.489999983311,0.0,0.0,0.0,1.95999993324,1,326.5011487312367,250.21917584084915,362.13065214843675,-11.34646635777358,11.328814663625764,-0.9502054076810645,0,Fixed-Wing
1970-01-01 00:00:11.603778016,4435,1539875898760611560,base_link,0,1,40.592586,-79.8974459,361.813845802,0.489999983311,0.0,0.0,0.0,0.489999983311,0.0,0.0,0.0,1.95999993324,1,322.1496025802621,255.1385929079483,361.8006068545144,-10.880796718854024,12.300726046621143,-0.8252597184059003,0,Fixed-Wing
1970-01-01 00:00:11.985529440,4437,1539875899142416488,base_link,0,1,40.5926347,-79.8974933,361.59377721,0.489999983311,0.0,0.0,0.0,0.489999983311,0.0,0.0,0.0,1.95999993324,1,318.1366706473776,260.5466613356354,361.58052023921425,-10.03411088689367,13.52257132562808,-0.5503142190242445,0,Fixed-Wing
1970-01-01 00:00:12.407519648,4439,1539875899564307656,base_link,0,1,40.5926879,-79.8975353,361.373712299,0.489999983311,0.0,0.0,0.0,0.489999983311,0.0,0.0,0.0,1.95999993324,1,314.58086494655015,266.4544864482074,361.3603867791777,-8.891092420973417,14.77218484423978,-0.5504313516562938,0,Fixed-Wing
1970-01-01 00:00:12.806690976,4441,1539875899963427560,base_link,0,1,40.592746,-79.8975684,360.893654483,0.489999983311,0.0,0.0,0.0,0.489999983311,0.0,0.0,0.0,1.95999993324,1,311.7784654620527,272.90648972694754,360.8801929021499,-7.007242496786858,16.132871781591646,-1.2006978164319912,0,Fixed-Wing
1970-01-01 00:00:13.197870944,4443,1539875900354709544,base_link,0,1,40.5928102,-79.897588,360.523607968,0.489999983311,0.0,0.0,0.0,0.489999983311,0.0,0.0,0.0,1.95999993324,1,310.11889923728233,280.0359646950327,360.5099173925343,-4.14965212517808,17.82685168638724,-0.9258531129664691,0,Fixed-Wing
1970-01-01 00:00:13.595821056,4445,1539875900752387208,base_link,0,1,40.5928781,-79.8975915,360.303576403,0.489999983311,0.0,0.0,0.0,0.489999983311,0.0,0.0,0.0,1.95999993324,1,309.8222805259921,287.57639621337955,360.2895638889809,-0.7416784261462668,18.854425456385634,-0.5509815581100227,0,Fixed-Wing
1970-01-01 00:00:14.015842464,4447,1539875901171926344,base_link,0,1,40.5929474,-79.8975768,360.383562878,0.489999983311,0.0,0.0,0.0,0.489999983311,0.0,0.0,0.0,1.95999993324,1,311.06639945137465,295.27237863297654,360.36913741244,3.110849489240754,19.243371747477646,0.19896912566752925,0,Fixed-Wing
1970-01-01 00:00:14.420565568,4449,1539875901576545576,base_link,0,1,40.5930149,-79.8975461,360.923566461,0.489999983311,0.0,0.0,0.0,0.489999983311,0.0,0.0,0.0,1.95999993324,1,313.66503242849257,302.76854608676643,360.90866163693937,6.497735790897674,18.743745649327494,1.3490500176265279,0,Fixed-Wing
1970-01-01 00:00:14.809474944,4451,1539875901966161352,base_link,0,1,40.5930775,-79.8975009,361.563586892,0.489999983311,0.0,0.0,0.0,0.489999983311,0.0,0.0,0.0,1.95999993324,1,317.4911903255972,309.7206162924179,361.5481584320898,9.567092901751616,17.38326104296379,1.5990258149582086,0,Fixed-Wing
1970-01-01 00:00:15.207976832,4453,1539875902363847624,base_link,0,1,40.5931326,-79.897441,362.29362544,0.489999983311,0.0,0.0,0.0,0.489999983311,0.0,0.0,0.0,1.95999993324,1,322.56181412638847,315.83985534530416,362.2776421308777,12.678809990751564,15.300813526616619,1.8240330128296043,0,Fixed-Wing
1970-01-01 00:00:15.596104416,4455,1539875902752331560,base_link,0,1,40.5931783,-79.8973679,363.083681349,0.489999983311,0.0,0.0,0.0,0.489999983311,0.0,0.0,0.0,1.95999993324,1,328.749928101294,320.91525907750446,363.0671285958405,15.47303140033743,12.690761940745233,1.9740665592211353,0,Fixed-Wing
1970-01-01 00:00:16.012932992,4457,1539875903169855368,base_link,0,1,40.5932143,-79.8972855,363.743750756,0.489999983311,0.0,0.0,0.0,0.489999983311,0.0,0.0,0.0,1.95999993324,1,335.72536960393256,324.9134897043885,363.7266322774095,17.44169965828571,9.997351097029817,1.649051910636761,0,Fixed-Wing
1970-01-01 00:00:16.391373600,4459,1539875903546825640,base_link,0,1,40.5932403,-79.8971964,364.153831128,0.489999983311,0.0,0.0,0.0,0.489999983311,0.0,0.0,0.0,1.95999993324,1,343.2680319858814,327.8012167905107,364.13616364607753,18.86000360551209,7.220599371693969,1.0240101834775994,0,Fixed-Wing
1970-01-01 00:00:16.797866656,4461,1539875903952752712,base_link,0,1,40.5932563,-79.8971021,364.293920933,0.489999983311,0.0,0.0,0.0,0.489999983311,0.0,0.0,0.0,1.95999993324,1,351.25093343844196,329.5784344674116,364.2757276537902,19.96079667281081,4.443832972604968,0.3489719618049522,0,Fixed-Wing
1970-01-01 00:00:17.184689536,4463,1539875904341398376,base_link,0,1,40.5932611,-79.8970051,364.154018112,0.489999983311,0.0,0.0,0.0,0.489999983311,0.0,0.0,0.0,1.95999993324,1,359.462444369517,330.11187022084493,364.13534035340626,20.532421832562918,1.3338261377227194,-0.3510305588841107,0,Fixed-Wing
1970-01-01 00:00:17.606963424,4465,1539875904763472456,base_link,0,1,40.5932554,-79.8969067,363.864121052,0.532900027847,0.0,0.0,0.0,0.532900027847,0.0,0.0,0.0,2.13160011139,1,367.7925197775924,329.4792627994172,363.8450018704971,20.82888564739092,-1.5817993229491623,-0.7259750678475229,0,Fixed-Wing
1970-01-01 00:00:17.992739904,4467,1539875905147323560,base_link,0,1,40.5932409,-79.8968085,363.544227423,0.489999983311,0.0,0.0,0.0,0.489999983311,0.0,0.0,0.0,1.95999993324,1,376.1057123655877,327.8694012290383,363.5247073205994,20.786671104109168,-4.025368428843326,-0.8008785306833295,0,Fixed-Wing
1970-01-01 00:00:18.413240064,4469,1539875905569668872,base_link,0,1,40.5932219,-79.8967124,363.104333518,0.489999983311,0.0,0.0,0.0,0.489999983311,0.0,0.0,0.0,1.95999993324,1,384.2411504981198,325.75979801963604,363.08443756441307,20.342206072908194,-5.274944326123588,-1.1008697948544701,0,Fixed-Wing
1970-01-01 00:00:18.785210784,4471,1539875905941991048,base_link,0,1,40.5931991,-79.8966179,362.764439562,0.489999983311,0.0,0.0,0.0,0.489999983311,0.0,0.0,0.0,1.95999993324,1,392.2411722299646,323.2282028837356,362.7441864667885,20.003604969494113,-6.330111434530709,-0.8507787572908176,0,Fixed-Wing
1970-01-01 00:00:19.203941088,4473,1539875906360577608,base_link,0,1,40.5931742,-79.8965245,362.324545368,0.489999983311,0.0,0.0,0.0,0.489999983311,0.0,0.0,0.0,1.95999993324,1,400.1480841054159,320.46339658365383,362.30394168785847,19.77078900367633,-6.913242850810452,-1.1008073406280534,0,Fixed-Wing
1970-01-01 00:00:19.613385664,4475,1539875906770034472,base_link,0,1,40.5931473,-79.896432,361.8246511,0.489999983311,0.0,0.0,0.0,0.489999983311,0.0,0.0,0.0,1.95999993324,1,407.9788194005789,317.4764871656438,361.8037017956393,19.580313743597085,-7.468599221386905,-1.2508217514087652,0,Fixed-Wing
1970-01-01 00:00:19.977831936,4477,1539875907125847752,base_link,0,1,40.5931163,-79.8963432,361.34475476,0.489999983311,0.0,0.0,0.0,0.489999983311,0.0,0.0,0.0,1.95999993324,1,415.49636207363267,314.034255312275,361.3234917006419,18.79719318442462,-8.607107394984634,-1.2007383685539266,0,Fixed-Wing
1970-01-01 00:00:20.395389312,4479,1539875907551884264,base_link,0,1,40.5930803,-79.8962583,360.664856514,0.489999983311,0.0,0.0,0.0,0.489999983311,0.0,0.0,0.0,1.95999993324,1,422.6837732649174,310.03674136010136,360.6433179223293,17.971717958149455,-9.99555909217291,-1.7007363264795037,0,Fixed-Wing
1970-01-01 00:00:20.783253664,4481,1539875907940005416,base_link,0,1,40.5930396,-79.8961773,359.934956241,0.489999983311,0.0,0.0,0.0,0.489999983311,0.0,0.0,0.0,1.95999993324,1,429.5410616445326,305.51726782215064,359.9131788114358,17.146264410970872,-11.300689717301612,-1.8256718339842912,0,Fixed-Wing
1970-01-01 00:00:21.193302272,4483,1539875908349334024,base_link,0,1,40.5929912,-79.8961023,359.545053033,0.489999983311,0.0,0.0,0.0,0.489999983311,0.0,0.0,0.0,1.95999993324,1,435.8904978463386,300.1426851302223,359.52310126356105,15.876408567035615,-13.438842124297981,-0.9753669973288738,0,Fixed-Wing
1970-01-01 00:00:21.601533600,4485,1539875908758340392,base_link,0,1,40.5929376,-79.8960334,359.005145756,0.489999983311,0.0,0.0,0.0,0.489999983311,0.0,0.0,0.0,1.95999993324,1,441.7235681786975,294.1905989530102,358.9830712518841,14.585264715384339,-14.882857150174395,-1.3503147100534025,0,Fixed-Wing
1970-01-01 00:00:22.003645696,4487,1539875909160558472,base_link,0,1,40.5928764,-79.895974,358.325231924,0.489999983311,0.0,0.0,0.0,0.489999983311,0.0,0.0,0.0,1.95999993324,1,446.75246047203746,287.3944663387897,358.30311826569624,12.574462700479176,-16.993347854795434,-1.700184248173693,0,Fixed-Wing
1970-01-01 00:00:22.398561568,4489,1539875909555566632,base_link,0,1,40.5928077,-79.8959291,357.755306376,0.489999983311,0.0,0.0,0.0,0.489999983311,0.0,0.0,0.0,1.95999993324,1,450.55391325486227,279.7653770305633,357.73326572291955,9.505319151211367,-19.076109279963223,-1.4248842739003342,0,Fixed-Wing
1970-01-01 00:00:22.788167424,4491,1539875909933839496,base_link,0,1,40.5927331,-79.8959016,357.575365478,0.489999983311,0.0,0.0,0.0,0.489999983311,0.0,0.0,0.0,1.95999993324,1,452.8824321787034,271.48100968419556,357.55351901481504,5.822330773315161,-20.714595206568493,-0.44944654702338915,0,Fixed-Wing
1970-01-01 00:00:23.163668448,4493,1539875910320520232,base_link,0,1,40.5926565,-79.8958906,357.755408534,0.489999983311,0.0,0.0,0.0,0.489999983311,0.0,0.0,0.0,1.95999993324,1,453.8141751965415,262.9744687971043,357.7338532007859,2.329771078961699,-21.270127665388763,0.45091550242887624,0,Fixed-Wing
1970-01-01 00:00:23.595875456,4495,1539875910752787976,base_link,0,1,40.59258,-79.8958917,358.325439179,0.489999983311,0.0,0.0,0.0,0.489999983311,0.0,0.0,0.0,1.95999993324,1,453.721611428376,254.47898606786543,358.304235870582,-0.23145050287805818,-21.24247736282905,1.4262098267343974,0,Fixed-Wing
1970-01-01 00:00:23.977587840,4497,1539875911134441896,base_link,0,1,40.5925055,-79.8959007,359.065460923,0.489999983311,0.0,0.0,0.0,0.489999983311,0.0,0.0,0.0,1.95999993324,1,452.96026378341077,246.2055724504913,359.04463716438903,-1.9037070204091542,-20.687206022504327,1.8513318459202852,0,Fixed-Wing
1970-01-01 00:00:24.394342496,4499,1539875911549641000,base_link,0,1,40.592434,-79.8959141,359.965476935,0.489999983311,0.0,0.0,0.0,0.489999983311,0.0,0.0,0.0,1.95999993324,1,451.8264186437707,238.26529745127579,359.94503577312025,-2.8351160822047734,-19.854211620601454,2.2513961446437314,0,Fixed-Wing
1970-01-01 00:00:24.811563360,4501,1539875911968467848,base_link,0,1,40.5923655,-79.8959284,360.945490798,0.489999983311,0.0,0.0,0.0,0.489999983311,0.0,0.0,0.0,1.95999993324,1,450.61636571065924,230.6581757774555,360.92541543003193,-3.025669389095204,-19.02118044407951,2.4513842629858797,0,Fixed-Wing
1970-01-01 00:00:25.224450432,4503,1539875912381367080,base_link,0,1,40.592299,-79.8959411,361.63550549,0.489999983311,0.0,0.0,0.0,0.489999983311,0.0,0.0,0.0,1.95999993324,1,449.5417261728352,223.27315474116438,361.6157692741566,-2.687075800514729,-18.46583027560176,1.7261910092158168,0,Fixed-Wing
1970-01-01 00:00:25.567411008,4505,1539875912723673928,base_link,0,1,40.5922345,-79.8959521,362.16552111,0.489999983311,0.0,0.0,0.0,0.489999983311,0.0,0.0,0.0,1.95999993324,1,448.6109754869743,216.1102402853152,362.1460976476892,-2.3272898085931697,-17.91046524720432,1.3260563088263109,0,Fixed-Wing
1970-01-01 00:00:25.998281536,4507,1539875913155054408,base_link,0,1,40.5921714,-79.8959605,362.705538832,0.489999983311,0.0,0.0,0.0,0.489999983311,0.0,0.0,0.0,1.95999993324,1,447.90032097751583,209.10281168823423,362.6863993874915,-1.776951682569889,-17.521681591184873,1.3509941509675885,0,Fixed-Wing
1970-01-01 00:00:26.390987072,4509,1539875913547841352,base_link,0,1,40.592109,-79.8959672,362.895558022,0.489999983311,0.0,0.0,0.0,0.489999983311,0.0,0.0,0.0,1.95999993324,1,447.3335519376622,202.1731162217678,362.87668225204516,-1.417174148045341,-17.32731426444801,0.47579161439564877,0,Fixed-Wing
1970-01-01 00:00:26.781877216,4511,1539875913938645320,base_link,0,1,40.5920473,-79.8959727,362.665578169,0.489999983311,0.0,0.0,0.0,0.489999983311,0.0,0.0,0.0,1.95999993324,1,446.8683356960627,195.32115031163954,362.64694898889167,-1.1632470803556003,-17.132955874988454,-0.5744351201175494,0,Fixed-Wing
1970-01-01 00:00:27.190934272,4513,1539875914347860744,base_link,0,1,40.5919855,-79.8959772,362.065599402,0.489999983311,0.0,0.0,0.0,0.489999983311,0.0,0.0,0.0,1.95999993324,1,446.4877501093318,188.45807387579947,362.04720381110485,-0.951632881663715,-17.160737120439055,-1.4996291286373709,0,Fixed-Wing
1970-01-01 00:00:27.615067808,4515,1539875914771990504,base_link,0,1,40.591923,-79.8959807,361.255621972,0.489999983311,0.0,0.0,0.0,0.489999983311,0.0,0.0,0.0,1.95999993324,1,446.1918106182061,181.5172612658668,361.23744884722913,-0.7399800742774183,-17.355112057221817,-2.0247468022466957,0,Fixed-Wing
1970-01-01 00:00:27.992497312,4517,1539875915149173480,base_link,0,1,40.5918594,-79.8959829,360.325646356,0.489999983311,0.0,0.0,0.0,0.489999983311,0.0,0.0,0.0,1.95999993324,1,446.0059234268486,174.4542962533739,360.30768378185445,-0.4648004804790211,-17.660547278374153,-2.324825319930991,0,Fixed-Wing
1970-01-01 00:00:28.394525472,4519,1539875915551415784,base_link,0,1,40.5917947,-79.8959839,359.305672451,0.489999983311,0.0,0.0,0.0,0.489999983311,0.0,0.0,0.0,1.95999993324,1,445.92162521221906,167.2691795702856,359.2879087017566,-0.2107829505475753,-17.96598066928961,-2.549890305773956,0,Fixed-Wing
1970-01-01 00:00:28.793028416,4521,1539875915949926120,base_link,0,1,40.5917288,-79.8959838,358.405700199,0.489999983311,0.0,0.0,0.0,0.489999983311,0.0,0.0,0.0,1.95999993324,1,445.9304658477452,159.95081112421505,358.38812401074017,0.022105512543865134,-18.299169217712485,-2.249861077882342,0,Fixed-Wing
1970-01-01 00:00:29.207585792,4523,1539875916363465736,base_link,0,1,40.5916618,-79.8959818,358.06573038,0.489999983311,0.0,0.0,0.0,0.489999983311,0.0,0.0,0.0,1.95999993324,1,446.10020124899967,152.51031038988322,358.04832502949284,0.42441383659213644,-18.604554144190182,-0.8496482656854767,0,Fixed-Wing
1970-01-01 00:00:29.590764832,4525,1539875916747043144,base_link,0,1,40.5915944,-79.8959774,358.295763214,0.489999983311,0.0,0.0,0.0,0.489999983311,0.0,0.0,0.0,1.95999993324,1,446.47315652653265,145.02541479038513,358.278506810026,0.9325537221181279,-18.715561010824644,0.5755566126316018,0,Fixed-Wing
1970-01-01 00:00:30.022985568,4527,1539875917179452040,base_link,0,1,40.5915278,-79.8959717,358.795797069,0.489999983311,0.0,0.0,0.0,0.489999983311,0.0,0.0,0.0,1.95999993324,1,446.95618050845627,137.62937301849084,358.7786711610357,1.2077743347534753,-18.493387005929275,1.2506328648577296,0,Fixed-Wing
1970-01-01 00:00:30.379343168,4529,1539875917535948104,base_link,0,1,40.5914622,-79.8959657,359.185830834,0.489999983311,0.0,0.0,0.0,0.489999983311,0.0,0.0,0.0,1.95999993324,1,447.46458833936543,130.34438175943026,359.16882273763275,1.2712452233000453,-18.215711436431405,0.9755521019907962,0,Fixed-Wing
1970-01-01 00:00:30.789161024,4531,1539875917946134344,base_link,0,1,40.5913974,-79.8959606,359.40586336,0.489999983311,0.0,0.0,0.0,0.489999983311,0.0,0.0,0.0,1.95999993324,1,447.8967883239601,123.14822369276104,359.3889683189069,1.0806917842783612,-17.99358902872567,0.5504616601300553,0,Fixed-Wing
1970-01-01 00:00:31.195228224,4533,1539875918351947400,base_link,0,1,40.5913331,-79.8959578,359.365893338,0.489999983311,0.0,0.0,0.0,0.489999983311,0.0,0.0,0.0,1.95999993324,1,448.1342554284216,116.00757493415915,359.34911583650916,0.5937731558889947,-17.854791121928855,-0.09964889367299744,0,Fixed-Wing
1970-01-01 00:00:31.592498752,4535,1539875918749138504,base_link,0,1,40.591269,-79.8959581,359.30592007,0.489999983311,0.0,0.0,0.0,0.489999983311,0.0,0.0,0.0,1.95999993324,1,448.10928187655895,108.88912068705591,359.2892701238821,-0.062444963637726045,-17.799294992619302,-0.14964084281726495,0,Fixed-Wing
1970-01-01 00:00:32.001476480,4537,1539875919158221704,base_link,0,1,40.5912052,-79.8959638,359.085941154,0.489999983311,0.0,0.0,0.0,0.489999983311,0.0,0.0,0.0,1.95999993324,1,447.62714392405246,101.80395231434306,359.0694423180921,-1.205558867965292,-17.71606553341429,-0.5496670803817069,0,Fixed-Wing
1970-01-01 00:00:32.398024128,4539,1539875919554675560,base_link,0,1,40.591142,-79.8959774,358.945953894,0.489999983311,0.0,0.0,0.0,0.489999983311,0.0,0.0,0.0,1.95999993324,1,446.4762109118719,94.78537701666428,358.92964403559404,-2.8778433476456757,-17.54955328990591,-0.3495577527463056,0,Fixed-Wing
1970-01-01 00:00:32.810629152,4541,1539875919967257992,base_link,0,1,40.5910799,-79.8959999,358.835957053,0.489999983311,0.0,0.0,0.0,0.489999983311,0.0,0.0,0.0,1.95999993324,1,444.5718164191999,87.88891522831057,358.8198790199431,-4.761831456763569,-17.24421531910344,-0.2744612560003511,0,Fixed-Wing
1970-01-01 00:00:33.186597888,4543,1539875920343474696,base_link,0,1,40.5910199,-79.8960325,358.705948971,0.489999983311,0.0,0.0,0.0,0.489999983311,0.0,0.0,0.0,1.95999993324,1,441.8123590051355,81.22561303187081,358.69015095009354,-6.899868261777466,-16.661212856381404,-0.32437775167475785,0,Fixed-Wing
1970-01-01 00:00:33.588615712,4545,1539875920745535720,base_link,0,1,40.5909632,-79.8960761,358.565928217,0.489999983311,0.0,0.0,0.0,0.489999983311,0.0,0.0,0.0,1.95999993324,1,438.1216374439936,74.9287297793341,358.5504616758283,-9.228441951300997,-15.745002869351065,-0.3492851837832849,0,Fixed-Wing
1970-01-01 00:00:33.989401632,4547,1539875921146317256,base_link,0,1,40.5909113,-79.8961304,358.395894459,0.489999983311,0.0,0.0,0.0,0.489999983311,0.0,0.0,0.0,1.95999993324,1,433.52503634876274,69.1648465049638,358.3808068088824,-11.493542841931646,-14.412266363205221,-0.42421246507717114,0,Fixed-Wing
1970-01-01 00:00:34.420095296,4549,1539875921575819080,base_link,0,1,40.5908665,-79.8961957,358.345846414,0.489999983311,0.0,0.0,0.0,0.489999983311,0.0,0.0,0.0,1.95999993324,1,427.9971527182806,64.18938516070779,358.3311836878638,-13.822162510050948,-12.440861613576457,-0.12407982671577315,0,Fixed-Wing
1970-01-01 00:00:34.793819552,4551,1539875921950746920,base_link,0,1,40.5908322,-79.8962716,358.63578305,0.489999983311,0.0,0.0,0.0,0.489999983311,0.0,0.0,0.0,1.95999993324,1,421.57184255231084,60.37992919807161,358.62158491097534,-16.0661271524939,-9.525330652781316,0.7261319461992761,0,Fixed-Wing
1970-01-01 00:00:35.191304384,4553,1539875922348192712,base_link,0,1,40.5908092,-79.8963544,359.255707825,0.489999983311,0.0,0.0,0.0,0.489999983311,0.0,0.0,0.0,1.95999993324,1,414.5623357905923,57.82533960565789,359.24199218986854,-17.526877925128133,-6.387607781415501,1.5512935518384432,0,Fixed-Wing
1970-01-01 00:00:35.601462976,4555,1539875922758156872,base_link,0,1,40.5907968,-79.8964404,360.125624834,0.489999983311,0.0,0.0,0.0,0.489999983311,0.0,0.0,0.0,1.95999993324,1,407.2818683989398,56.44789777722016,360.112389934672,-18.204399760088542,-3.4442159194200093,2.1763806695775587,0,Fixed-Wing
1970-01-01 00:00:35.992560736,4557,1539875923149061736,base_link,0,1,40.5907912,-79.8965267,360.675538664,0.489999983311,0.0,0.0,0.0,0.489999983311,0.0,0.0,0.0,1.95999993324,1,399.9759383285949,55.82561420480849,360.6627709166951,-18.268067757889312,-1.5559851183877011,1.376196729977214,0,Fixed-Wing
1970-01-01 00:00:36.366237024,4559,1539875923522403112,base_link,0,1,40.5907886,-79.8966127,360.825451543,0.489999983311,0.0,0.0,0.0,0.489999983311,0.0,0.0,0.0,1.95999993324,1,392.6953610897861,55.53649246530506,360.8131380710976,-18.204674426732755,-0.7229326693073743,0.37598462327699445,0,Fixed-Wing
1970-01-01 00:00:36.809908704,4561,1539875923966620296,base_link,0,1,40.5907906,-79.8966965,361.355364741,0.489999983311,0.0,0.0,0.0,0.489999983311,0.0,0.0,0.0,1.95999993324,1,385.60102743439774,55.758231392883346,361.3434815388123,-17.738982807919328,0.5544457330633348,1.326094050980695,0,Fixed-Wing
1970-01-01 00:00:37.176544384,4563,1539875924333222152,base_link,0,1,40.5907951,-79.8967779,361.805279355,0.489999983311,0.0,0.0,0.0,0.489999983311,0.0,0.0,0.0,1.95999993324,1,378.7098537937553,56.257617529319475,361.7938040451591,-17.230992602793048,1.2486869830298113,1.1260061319554775,0,Fixed-Wing
1970-01-01 00:00:37.596966208,4565,1539875924753531240,base_link,0,1,40.5908012,-79.8968574,362.055195251,0.489999983311,0.0,0.0,0.0,0.489999983311,0.0,0.0,0.0,1.95999993324,1,371.9795101137862,56.93470006735188,362.0441094052758,-16.828846320144603,1.69300685379757,0.6258744930141846,0,Fixed-Wing
1970-01-01 00:00:38.033590688,4567,1539875925190197096,base_link,0,1,40.590808,-79.8969352,362.265112606,0.577599985504,0.0,0.0,0.0,0.577599985504,0.0,0.0,0.0,2.31039994202,1,365.3930799030704,57.68953205641657,362.25440012657424,-16.46899877407198,1.8874149888222254,0.5258201363203551,0,Fixed-Wing
1970-01-01 00:00:38.413171040,4569,1539875925569260392,base_link,0,1,40.5908144,-79.8970118,362.385031372,0.489999983311,0.0,0.0,0.0,0.489999983311,0.0,0.0,0.0,1.95999993324,1,358.90823745921074,58.399953044998824,362.37468007977407,-16.214984269356897,1.7763677767360133,0.30075326670440666,0,Fixed-Wing
1970-01-01 00:00:38.813249280,4571,1539875925969732680,base_link,0,1,40.5908199,-79.8970877,362.624951248,0.489999983311,0.0,0.0,0.0,0.489999983311,0.0,0.0,0.0,1.95999993324,1,352.4826680574378,59.0104365183671,362.6149521359083,-16.066775357058173,1.5264796335556474,0.6007867799890602,0,Fixed-Wing
1970-01-01 00:00:39.189921504,4573,1539875926346622248,base_link,0,1,40.5908242,-79.8971632,362.814872052,0.489999983311,0.0,0.0,0.0,0.489999983311,0.0,0.0,0.0,1.95999993324,1,346.09096596115614,59.48766387113295,362.8052180083987,-15.982092062045204,1.193280189148202,0.47574912669595315,0,Fixed-Wing
1970-01-01 00:00:39.601908256,4575,1539875926756885128,base_link,0,1,40.5908274,-79.8972381,362.604793946,0.577599985504,0.0,0.0,0.0,0.577599985504,0.0,0.0,0.0,2.31039994202,1,339.7500434792301,59.84273770849552,362.59547699044856,-15.855120488701854,0.8878421853943268,-0.5244456339753724,0,Fixed-Wing
1970-01-01 00:00:40.005706208,4577,1539875927161984552,base_link,0,1,40.5908302,-79.8973125,361.864716531,0.577599985504,0.0,0.0,0.0,0.577599985504,0.0,0.0,0.0,2.31039994202,1,333.4514254035766,60.153392866066895,361.85572855847226,-15.749340697107506,0.7767757716279019,-1.8496994015845194,0,Fixed-Wing
1970-01-01 00:00:40.405661472,4579,1539875927562134632,base_link,0,1,40.5908329,-79.8973872,360.824638861,0.577599985504,0.0,0.0,0.0,0.577599985504,0.0,0.0,0.0,2.31039994202,1,327.127397002491,60.45294407662331,360.8159750535191,-15.812877788521389,0.7490109758392515,-2.5998452349121535,0,Fixed-Wing
1970-01-01 00:00:40.805371808,4581,1539875927957229256,base_link,0,1,40.5908353,-79.8974629,359.954560304,0.577599985504,0.0,0.0,0.0,0.577599985504,0.0,0.0,0.0,2.31039994202,1,320.7187230466187,60.71918284791175,359.9462189531534,-16.0245292436215,0.6657150926500515,-2.174776273702811,0,Fixed-Wing
1970-01-01 00:00:41.201201632,4583,1539875928357969992,base_link,0,1,40.5908377,-79.89754,359.264480323,0.577599985504,0.0,0.0,0.0,0.577599985504,0.0,0.0,0.0,2.31039994202,1,314.1915388364023,60.985423785274065,359.256460819575,-16.32085747774338,0.6657205087960913,-1.7247014684566007,0,Fixed-Wing
1970-01-01 00:00:41.633203040,4585,1539875928789435048,base_link,0,1,40.5908389,-79.8976182,358.624399732,0.489999983311,0.0,0.0,0.0,0.489999983311,0.0,0.0,0.0,1.95999993324,1,307.5712405336618,61.118404297342266,358.6167011619357,-16.55368403576755,0.33251030074888555,-1.5996830878464208,0,Fixed-Wing
1970-01-01 00:00:42.031319040,4587,1539875929188116264,base_link,0,1,40.5908391,-79.8976973,357.864318653,0.489999983311,0.0,0.0,0.0,0.489999983311,0.0,0.0,0.0,1.95999993324,1,300.8747503665483,61.14033417823393,357.8569388081173,-16.74419751284227,0.054834435341427915,-1.899743088944187,0,Fixed-Wing
1970-01-01 00:00:42.387948768,4589,1539875929544008168,base_link,0,1,40.5908377,-79.8977771,357.554237543,0.577599985504,0.0,0.0,0.0,0.577599985504,0.0,0.0,0.0,2.31039994202,1,294.1190289277887,60.98458845956955,357.54717383535126,-16.892301980500594,-0.38943342109318746,-0.7745499145249807,0,Fixed-Wing
1970-01-01 00:00:42.788198912,4591,1539875929944464680,base_link,0,1,40.5908347,-79.897857,357.814157016,0.489999983311,0.0,0.0,0.0,0.489999983311,0.0,0.0,0.0,1.95999993324,1,287.354874548205,60.65117039708517,357.8074043737531,-16.913388075342663,-0.8336931367427316,0.6506918438069167,0,Fixed-Wing
1970-01-01 00:00:43.182559104,4593,1539875930339046920,base_link,0,1,40.5908311,-79.8979365,358.204077163,0.489999983311,0.0,0.0,0.0,0.489999983311,0.0,0.0,0.0,1.95999993324,1,280.6245904622808,60.25112959570646,358.19762754950364,-16.828697308582658,-1.0002795530674395,0.9757311316521697,0,Fixed-Wing
1970-01-01 00:00:43.624853184,4595,1539875930781761288,base_link,0,1,40.5908275,-79.8980153,358.383998035,0.577599985504,0.0,0.0,0.0,0.577599985504,0.0,0.0,0.0,2.31039994202,1,273.9535564855645,59.85109502383713,358.3778417940169,-16.68054573865944,-1.000263976529151,0.45061559555133973,0,Fixed-Wing
1970-01-01 00:00:44.032631904,4597,1539875931186383720,base_link,0,1,40.5908246,-79.898093,358.763919748,0.577599985504,0.0,0.0,0.0,0.577599985504,0.0,0.0,0.0,2.31039994202,1,267.3756508986021,59.52880819507362,358.75804526120123,-16.447683431215047,-0.8058601120786676,0.9506774132017043,0,Fixed-Wing
1970-01-01 00:00:44.387470656,4599,1539875931544134888,base_link,0,1,40.5908229,-79.8981698,359.403841885,0.577599985504,0.0,0.0,0.0,0.577599985504,0.0,0.0,0.0,2.31039994202,1,260.87394220644273,59.339794954194474,359.3982380098413,-16.2571573758326,-0.47261699171390104,1.6007660075664956,0,Fixed-Wing
1970-01-01 00:00:44.816771392,4601,1539875931972738568,base_link,0,1,40.5908214,-79.8982457,359.873764869,0.577599985504,0.0,0.0,0.0,0.577599985504,0.0,0.0,0.0,2.31039994202,1,254.4484166536227,59.172998822465104,359.86842174091396,-16.066665715214537,-0.4170643582470145,1.1756680087532188,0,Fixed-Wing
1970-01-01 00:00:45.201712416,4603,1539875932356015656,base_link,0,1,40.5908202,-79.8983204,359.913688963,0.577599985504,0.0,0.0,0.0,0.577599985504,0.0,0.0,0.0,2.31039994202,1,248.12446179800904,59.03952328402829,359.9085958573905,-15.812693892200027,-0.33374808637736264,0.10045312162039075,0,Fixed-Wing
1970-01-01 00:00:45.589383584,4605,1539875932745616072,base_link,0,1,40.59082,-79.8983949,359.553612849,0.577599985504,0.0,0.0,0.0,0.577599985504,0.0,0.0,0.0,2.31039994202,1,241.81741951510696,59.01710223769874,359.54876183474823,-15.770404954134545,-0.0560625669295172,-0.8997447613007472,0,Fixed-Wing
1970-01-01 00:00:46.028547840,4607,1539875933183731976,base_link,0,1,40.5908201,-79.8984692,359.153536822,0.489999983311,0.0,0.0,0.0,0.489999983311,0.0,0.0,0.0,1.95999993324,1,235.52730699792605,59.028002375330885,359.1489207378868,-15.728073025914389,0.027255181875154588,-0.9997802031396842,0,Fixed-Wing
1970-01-01 00:00:46.383878080,4609,1539875933540437480,base_link,0,1,40.5908203,-79.898544,358.703460252,0.577599985504,0.0,0.0,0.0,0.577599985504,0.0,0.0,0.0,2.31039994202,1,229.19486410196316,59.05001128096018,358.69907432018283,-15.833917760309667,0.055032032258956046,-1.1248156990464615,0,Fixed-Wing
1970-01-01 00:00:46.818321920,4611,1539875933975211464,base_link,0,1,40.590821,-79.8986195,358.183382765,0.489999983311,0.0,0.0,0.0,0.489999983311,0.0,0.0,0.0,1.95999993324,1,222.80315737264527,59.12754927023596,358.1792222597744,-15.98210364669201,0.19387938678061006,-1.2998608763266108,0,Fixed-Wing
1970-01-01 00:00:47.191825344,4613,1539875934348450888,base_link,0,1,40.590822,-79.8986958,357.953304343,0.577599985504,0.0,0.0,0.0,0.577599985504,0.0,0.0,0.0,2.31039994202,1,216.3437342062506,59.2384091381125,357.94936484937625,-16.15142479388763,0.27719887249122166,-0.5747455433293251,0,Fixed-Wing
1970-01-01 00:00:47.599676416,4615,1539875934755834088,base_link,0,1,40.5908219,-79.8987724,358.273226088,0.577599985504,0.0,0.0,0.0,0.577599985504,0.0,0.0,0.0,2.31039994202,1,209.85893578329012,59.22712152144857,358.26950304497393,-16.214874197571234,-0.028224051428966883,0.8004875755388545,0,Fixed-Wing
1970-01-01 00:00:47.983998560,4617,1539875935140401320,base_link,0,1,40.5908202,-79.8988493,358.553148209,0.577599985504,0.0,0.0,0.0,0.577599985504,0.0,0.0,0.0,2.31039994202,1,203.34874283616972,59.03815485368588,358.54963749309775,-16.27837177879174,-0.472500538252252,0.7004604520397808,0,Fixed-Wing
1970-01-01 00:00:48.363084384,4619,1539875935519236168,base_link,0,1,40.5908182,-79.8989266,358.513070058,0.577599985504,0.0,0.0,0.0,0.577599985504,0.0,0.0,0.0,2.31039994202,1,196.80467676912582,58.81587432385311,358.50976637910964,-16.363069612465964,-0.5557999790782184,-0.09969548091814533,0,Fixed-Wing
1970-01-01 00:00:48.821763264,4621,1539875935978625384,base_link,0,1,40.5908163,-79.8990042,358.382991568,0.577599985504,0.0,0.0,0.0,0.577599985504,0.0,0.0,0.0,2.31039994202,1,190.23520999989893,58.604703289050605,358.3798888703906,-16.426582641486096,-0.5280213107889256,-0.32475141517384837,0,Fixed-Wing
1970-01-01 00:00:49.202984928,4623,1539875936359797544,base_link,0,1,40.5908147,-79.8990813,358.462913472,0.577599985504,0.0,0.0,0.0,0.577599985504,0.0,0.0,0.0,2.31039994202,1,183.70807739297845,58.426856703563914,358.4600034667064,-16.32072844660046,-0.4446953971497212,0.20032204795303465,0,Fixed-Wing
1970-01-01 00:00:49.593018336,4625,1539875936749712648,base_link,0,1,40.5908132,-79.8991576,358.662836161,0.489999983311,0.0,0.0,0.0,0.489999983311,0.0,0.0,0.0,1.95999993324,1,177.24867386126982,58.260123761501575,358.6601101934742,-16.151375698458054,-0.41690635603404336,0.5003556300439385,0,Fixed-Wing
1970-01-01 00:00:49.985645568,4627,1539875937142523048,base_link,0,1,40.5908124,-79.8992332,358.862759281,0.489999983311,0.0,0.0,0.0,0.489999983311,0.0,0.0,0.0,1.95999993324,1,170.84852852978517,58.171134353513054,358.860208519397,-16.00320389740342,-0.222513016031648,0.5003346242027837,0,Fixed-Wing
1970-01-01 00:00:50.413272000,4629,1539875937569952904,base_link,0,1,40.5908122,-79.8993078,359.102683179,0.489999983311,0.0,0.0,0.0,0.489999983311,0.0,0.0,0.0,1.95999993324,1,164.5330403159415,58.14878403325051,359.1002984201489,-15.79152353003578,-0.05588572037173242,0.6003313106872836,0,Fixed-Wing
1970-01-01 00:00:50.805975680,4631,1539875937962774856,base_link,0,1,40.5908128,-79.8993816,359.512607566,0.577599985504,0.0,0.0,0.0,0.577599985504,0.0,0.0,0.0,2.31039994202,1,158.2852804103242,58.215283878020216,359.510380075904,-15.62217269969745,0.16627912646922008,1.025386145428581,0,Fixed-Wing
1970-01-01 00:00:51.196116160,4633,1539875938353035624,base_link,0,1,40.5908131,-79.8994549,359.8525326,0.577599985504,0.0,0.0,0.0,0.577599985504,0.0,0.0,0.0,2.31039994202,1,152.07984788661824,58.248473501726636,359.85045556379555,-15.516335458808818,0.08298878977623524,0.8503396550176849,0,Fixed-Wing
1970-01-01 00:00:51.607410304,4635,1539875938764077544,base_link,0,1,40.5908132,-79.8995275,359.982458441,0.577599985504,0.0,0.0,0.0,0.577599985504,0.0,0.0,0.0,2.31039994202,1,145.93367108175724,58.259457072684796,359.9805246803569,-15.36816986230306,0.02746380222029478,0.32523051982062906,0,Fixed-Wing
1970-01-01 00:00:51.991394112,4637,1539875939143046344,base_link,0,1,40.5908129,-79.8996,359.942384561,0.489999983311,0.0,0.0,0.0,0.489999983311,0.0,0.0,0.0,1.95999993324,1,139.79595696973195,58.226023398465884,359.94058838279494,-15.347009374227158,-0.08359902437410716,-0.09985846878308663,0,Fixed-Wing
1970-01-01 00:00:52.434429632,4639,1539875939591119208,base_link,0,1,40.5908125,-79.8996725,359.782310732,0.489999983311,0.0,0.0,0.0,0.489999983311,0.0,0.0,0.0,1.95999993324,1,133.6582405699927,58.18148845068336,359.7806463414257,-15.347015094527398,-0.11135713534783226,-0.3999260903040792,0,Fixed-Wing
1970-01-01 00:00:52.833986944,4641,1539875939989854824,base_link,0,1,40.5908121,-79.8997453,359.642236606,0.489999983311,0.0,0.0,0.0,0.489999983311,0.0,0.0,0.0,1.95999993324,1,127.49512736507018,58.13695830816013,359.6406986115387,-15.41051837931864,-0.11134512006688371,-0.3499314375476958,0,Fixed-Wing
1970-01-01 00:00:53.178712832,4643,1539875940335441736,base_link,0,1,40.5908115,-79.8998185,359.252162164,0.489999983311,0.0,0.0,0.0,0.489999983311,0.0,0.0,0.0,1.95999993324,1,121.29814672572358,58.07021997290252,359.25074546357047,-15.495201996720898,-0.1668754585379179,-0.9750559423503731,0,Fixed-Wing
1970-01-01 00:00:53.588728992,4645,1539875940745418536,base_link,0,1,40.590811,-79.8998925,358.752086873,0.489999983311,0.0,0.0,0.0,0.489999983311,0.0,0.0,0.0,1.95999993324,1,115.03343808977607,58.01458997399939,358.7507865732839,-15.66455204785728,-0.13909968745234483,-1.25011912186054,0,Fixed-Wing
1970-01-01 00:00:54.002475008,4647,1539875941159260328,base_link,0,1,40.5908105,-79.8999671,358.442010979,0.489999983311,0.0,0.0,0.0,0.489999983311,0.0,0.0,0.0,1.95999993324,1,108.71793871579735,57.958966240693485,358.4408217998182,-15.791551435326582,-0.1390840206784387,-0.7750495049513996,0,Fixed-Wing
1970-01-01 00:00:54.379844768,4649,1539875941535855176,base_link,0,1,40.59081,-79.9000417,358.351935095,0.489999983311,0.0,0.0,0.0,0.489999983311,0.0,0.0,0.0,1.95999993324,1,102.402443386492,57.90334986397605,358.3508507908828,-15.791541321848003,-0.13906562594220034,-0.2249674540615432,0,Fixed-Wing
1970-01-01 00:00:54.793358080,4651,1539875941950118760,base_link,0,1,40.5908109,-79.9001157,358.591859244,0.489999983311,0.0,0.0,0.0,0.489999983311,0.0,0.0,0.0,1.95999993324,1,96.13774596522387,58.00321566563818,358.5908713917805,-15.66452400618141,0.24970882747220993,0.6001580302946472,0,Fixed-Wing
1970-01-01 00:00:55.195129664,4653,1539875942351960040,base_link,0,1,40.5908143,-79.9001891,358.851782966,0.489999983311,0.0,0.0,0.0,0.489999983311,0.0,0.0,0.0,1.95999993324,1,89.92384003806627,58.380718211581836,358.85088216238154,-15.537522728178246,0.943923911353406,0.6501423267655347,0,Fixed-Wing
1970-01-01 00:00:55.619097024,4655,1539875942775763144,base_link,0,1,40.5908211,-79.9002614,359.221706394,0.489999983311,0.0,0.0,0.0,0.489999983311,0.0,0.0,0.0,1.95999993324,1,83.80305534972598,59.13580577043558,359.22088185258116,-15.304678301249206,1.8880540267241064,0.925163442010007,0,Fixed-Wing
1970-01-01 00:00:56.002360096,4657,1539875943159159784,base_link,0,1,40.5908318,-79.9003326,359.321629319,0.489999983311,0.0,0.0,0.0,0.489999983311,0.0,0.0,0.0,1.95999993324,1,77.77538729607951,60.324000760521045,359.32086986208446,-15.0718453866723,2.9710148303460455,0.25001440131449915,0,Fixed-Wing
1970-01-01 00:00:56.442252192,4659,1539875943598073416,base_link,0,1,40.5908481,-79.9004024,359.251551336,0.489999983311,0.0,0.0,0.0,0.489999983311,0.0,0.0,0.0,1.95999993324,1,71.86623437367814,62.13409291868936,359.2508436780058,-14.775504958133508,4.52603376641433,-0.17509653983242646,0,Fixed-Wing
1970-01-01 00:00:56.813142592,4661,1539875943969848232,base_link,0,1,40.5908702,-79.9004703,359.141472872,0.489999983311,0.0,0.0,0.0,0.489999983311,0.0,0.0,0.0,1.95999993324,1,66.11792861525359,64.58829395242157,359.14080286168723,-14.373315659590954,6.136591829380225,-0.2751508800776826,0,Fixed-Wing
1970-01-01 00:00:57.188802592,4663,1539875944345332232,base_link,0,1,40.5908983,-79.9005353,358.851394866,0.489999983311,0.0,0.0,0.0,0.489999983311,0.0,0.0,0.0,1.95999993324,1,60.615127941531476,67.70881306989475,358.8507470035328,-13.75944398561273,7.802682769874602,-0.7252683805236932,0,Fixed-Wing
1970-01-01 00:00:57.629901376,4665,1539875944786316424,base_link,0,1,40.5909348,-79.9005943,358.591319475,0.489999983311,0.0,0.0,0.0,0.489999983311,0.0,0.0,0.0,1.95999993324,1,55.62027344049187,71.76217913771558,358.5906726351766,-12.48935311277653,10.135214170067268,-0.6503013493799797,0,Fixed-Wing
1970-01-01 00:00:57.985844512,4667,1539875945142784392,base_link,0,1,40.5909802,-79.9006436,358.631250263,0.489999983311,0.0,0.0,0.0,0.489999983311,0.0,0.0,0.0,1.95999993324,1,51.44660201090485,76.80392264149566,358.6305795429122,-10.43603096946464,12.60659643031659,0.09978498117315551,0,Fixed-Wing
1970-01-01 00:00:58.392477728,4669,1539875945549340392,base_link,0,1,40.5910323,-79.9006821,359.161189273,0.489999983311,0.0,0.0,0.0,0.489999983311,0.0,0.0,0.0,1.95999993324,1,48.187239701983046,82.5897310189587,359.1604715034867,-8.149852371100375,14.467088851928821,1.324965082738443,0,Fixed-Wing
1970-01-01 00:00:58.779824000,4671,1539875945936693992,base_link,0,1,40.5910884,-79.9007105,359.651136921,0.489999983311,0.0,0.0,0.0,0.489999983311,0.0,0.0,0.0,1.95999993324,1,45.782922437863824,88.81975564181275,359.65035291937903,-6.011860265495179,15.577826621360407,1.224920963201822,0,Fixed-Wing
1970-01-01 00:00:59.181380416,4673,1539875946338265608,base_link,0,1,40.5911466,-79.9007307,359.991092065,0.489999983311,0.0,0.0,0.0,0.489999983311,0.0,0.0,0.0,1.95999993324,1,44.0727996033255,95.28299371415221,359.99022658877203,-4.276066088076446,16.16096375191463,0.8498350191984089,0,Fixed-Wing
1970-01-01 00:00:59.585553952,4675,1539875946742213832,base_link,0,1,40.5912057,-79.9007431,360.291054798,0.489999983311,0.0,0.0,0.0,0.489999983311,0.0,0.0,0.0,1.95999993324,1,43.02300824291284,101.84618314934562,360.2900948108663,-2.6249443286499914,16.41088652034088,0.7498036453827797,0,Fixed-Wing
1970-01-01 00:00:59.985014112,4677,1539875947141975784,base_link,0,1,40.5912652,-79.9007491,360.6210239,0.489999983311,0.0,0.0,0.0,0.489999983311,0.0,0.0,0.0,1.95999993324,1,42.515026967859114,108.45379792417316,360.61995811845975,-1.2701786443436784,16.521969586670483,0.8248046718128159,0,Fixed-Wing
1970-01-01 00:01:00.385128320,4679,1539875947542072040,base_link,0,1,40.591324,-79.9007513,360.750997181,0.489999983311,0.0,0.0,0.0,0.489999983311,0.0,0.0,0.0,1.95999993324,1,42.328744118087926,114.98367506862155,360.74981798515535,-0.465789802117848,16.327591008524994,0.3247073022851476,0,Fixed-Wing
1970-01-01 00:01:00.798569216,4681,1539875947955298568,base_link,0,1,40.5913817,-79.9007512,360.730973278,0.489999983311,0.0,0.0,0.0,0.489999983311,0.0,0.0,0.0,1.95999993324,1,42.33717334331298,121.39139324628911,360.72967500442587,0.02107680419538902,16.022139373907773,-0.05036639185824084,0,Fixed-Wing
1970-01-01 00:01:01.182372416,4683,1539875948339346568,base_link,0,1,40.5914385,-79.9007501,360.640950785,0.489999983311,0.0,0.0,0.0,0.489999983311,0.0,0.0,0.0,1.95999993324,1,42.43026000002794,127.69916344019526,360.639528426702,0.2327579563246459,15.77222505471259,-0.22540645395529071,0,Fixed-Wing
1970-01-01 00:01:01.611940320,4685,1539875948768106216,base_link,0,1,40.5914944,-79.9007488,360.630928885,0.489999983311,0.0,0.0,0.0,0.489999983311,0.0,0.0,0.0,1.95999993324,1,42.54027905346523,133.906988218516,360.62937817787684,0.27509646321543135,15.52231715709724,-0.025380127035401937,0,Fixed-Wing
1970-01-01 00:01:01.977300768,4687,1539875949133972552,base_link,0,1,40.5915498,-79.9007478,360.930906902,0.489999983311,0.0,0.0,0.0,0.489999983311,0.0,0.0,0.0,1.95999993324,1,42.62490314948373,140.05929355851077,360.92922318067247,0.21159779865551487,15.38349392015775,0.7497455868307149,0,Fixed-Wing
1970-01-01 00:01:02.384926688,4689,1539875949541686728,base_link,0,1,40.5916048,-79.9007474,361.26088449,0.489999983311,0.0,0.0,0.0,0.489999983311,0.0,0.0,0.0,1.95999993324,1,42.658733284317265,146.16717900672782,361.25906316393764,0.08459035187129807,15.272424475887089,0.8247463506401735,0,Fixed-Wing
1970-01-01 00:01:02.815399232,4691,1539875949972251816,base_link,0,1,40.5916593,-79.9007467,361.510862606,0.489999983311,0.0,0.0,0.0,0.489999983311,0.0,0.0,0.0,1.95999993324,1,42.71796027236182,152.21953721074996,361.50889897045556,0.14809375675321634,15.133581720810797,0.6247004006159139,0,Fixed-Wing
1970-01-01 00:01:03.201739904,4693,1539875950358541608,base_link,0,1,40.5917137,-79.9007457,361.560841083,0.489999983311,0.0,0.0,0.0,0.489999983311,0.0,0.0,0.0,1.95999993324,1,42.80258299493133,158.26078588558352,361.5587294856184,0.21159436442345012,15.105802967110547,0.12459840412386415,0,Fixed-Wing
1970-01-01 00:01:03.582458112,4695,1539875950739429896,base_link,0,1,40.591768,-79.9007453,361.280819005,0.489999983311,0.0,0.0,0.0,0.489999983311,0.0,0.0,0.0,1.95999993324,1,42.83640927063448,164.2909206661974,361.2785543384992,0.08458070233255346,15.07801329889525,-0.7005622175916808,0,Fixed-Wing
1970-01-01 00:01:03.992386176,4697,1539875951149345768,base_link,0,1,40.5918226,-79.9007454,360.90079631,0.489999983311,0.0,0.0,0.0,0.489999983311,0.0,0.0,0.0,1.95999993324,1,42.827906192872156,170.3543677513411,360.89837225056976,-0.021261468316444654,15.161308845179288,-0.9506239555756819,0,Fixed-Wing
1970-01-01 00:01:04.413781600,4699,1539875951570680488,base_link,0,1,40.5918781,-79.9007461,360.660772647,0.489999983311,0.0,0.0,0.0,0.489999983311,0.0,0.0,0.0,1.95999993324,1,42.76860942132038,176.5177648489694,360.6581809855639,-0.1482682464931993,15.41122823708281,-0.6005847663107107,0,Fixed-Wing
1970-01-01 00:01:04.786574592,4701,1539875951942457320,base_link,0,1,40.5919344,-79.9007474,360.380748058,0.489999983311,0.0,0.0,0.0,0.489999983311,0.0,0.0,0.0,1.95999993324,1,42.65851794983712,182.77000195803407,360.37798061009687,-0.27527754047157965,15.633367695427639,-0.7006252996582347,0,Fixed-Wing
1970-01-01 00:01:05.196843520,4703,1539875952353324936,base_link,0,1,40.5919914,-79.9007484,360.060723502,0.489999983311,0.0,0.0,0.0,0.489999983311,0.0,0.0,0.0,1.95999993324,1,42.57382295172755,189.09997415378237,360.05777164540564,-0.21177508535157252,15.827739913205338,-0.8006645296821004,0,Fixed-Wing
1970-01-01 00:01:05.631960448,4705,1539875952788806344,base_link,0,1,40.5920488,-79.9007489,359.500699306,0.489999983311,0.0,0.0,0.0,0.489999983311,0.0,0.0,0.0,1.95999993324,1,42.53145453554829,195.4743595714774,359.4975550937349,-0.10593984477059155,15.938792679938285,-1.4007900194053162,0,Fixed-Wing
1970-01-01 00:01:05.994218400,4707,1539875953151133736,base_link,0,1,40.5921064,-79.9007475,358.940676976,0.489999983311,0.0,0.0,0.0,0.489999983311,0.0,0.0,0.0,1.95999993324,1,42.649933380450335,201.87095530570673,358.93733224740987,0.29624969657625,15.994328328851678,-1.4008057588347396,0,Fixed-Wing
1970-01-01 00:01:06.400209824,4709,1539875953557168328,base_link,0,1,40.592164,-79.9007455,358.690655274,0.489999983311,0.0,0.0,0.0,0.489999983311,0.0,0.0,0.0,1.95999993324,1,42.81920791673255,208.26756041919975,358.6871032538042,0.4232614696163983,15.99435178117372,-0.6256835428430398,0,Fixed-Wing
1970-01-01 00:01:06.791155456,4711,1539875953948123752,base_link,0,1,40.5922216,-79.9007444,358.650632672,0.489999983311,0.0,0.0,0.0,0.489999983311,0.0,0.0,0.0,1.95999993324,1,42.912292867503496,214.6641717449764,358.64686743937733,0.23275369070746038,15.99436731463993,-0.10060739387957522,0,Fixed-Wing
1970-01-01 00:01:07.212399136,4713,1539875954369280296,base_link,0,1,40.5922788,-79.9007444,358.680609133,0.489999983311,0.0,0.0,0.0,0.489999983311,0.0,0.0,0.0,1.95999993324,1,42.91225650225791,221.01636403016687,358.6766264234815,-9.092925390404514e-05,15.883299998725983,0.07441066815396875,0,Fixed-Wing
1970-01-01 00:01:07.599992032,4715,1539875954756906856,base_link,0,1,40.5923354,-79.9007444,358.740585857,0.489999983311,0.0,0.0,0.0,0.489999983311,0.0,0.0,0.0,1.95999993324,1,42.91222072196146,227.30192613256696,358.7363817110746,-8.946662145062619e-05,15.716694969357293,0.1494147400992031,0,Fixed-Wing
1970-01-01 00:01:07.999516352,4717,1539875955156437256,base_link,0,1,40.5923917,-79.9007434,358.930563737,0.489999983311,0.0,0.0,0.0,0.489999983311,0.0,0.0,0.0,1.95999993324,1,42.99684212475576,233.55417798412407,358.92613259780234,0.21159106439967534,15.633404558201844,0.4744614337237921,0,Fixed-Wing
1970-01-01 00:01:08.433752128,4719,1539875955589418344,base_link,0,1,40.5924477,-79.9007417,359.140542468,0.489999983311,0.0,0.0,0.0,0.489999983311,0.0,0.0,0.0,1.95999993324,1,43.140722952684854,239.77311567658325,359.1358790484294,0.35976592827500703,15.55010437467445,0.5244592180788371,0,Fixed-Wing
1970-01-01 00:01:08.788587680,4721,1539875955945570600,base_link,0,1,40.5925035,-79.9007396,359.240521703,0.489999983311,0.0,0.0,0.0,0.489999983311,0.0,0.0,0.0,1.95999993324,1,43.31846532504704,245.96983932296519,359.2356205490071,0.44443481808568364,15.494559400248395,0.24939801959271005,0,Fixed-Wing
1970-01-01 00:01:09.201676480,4723,1539875956358602376,base_link,0,1,40.5925593,-79.9007376,358.790500851,0.489999983311,0.0,0.0,0.0,0.489999983311,0.0,0.0,0.0,1.95999993324,1,43.48773807164692,252.1665413813747,358.78535598160346,0.42325699461624444,15.494505420736001,-1.1258612588825059,0,Fixed-Wing
1970-01-01 00:01:09.590137696,4725,1539875956742095752,base_link,0,1,40.5926157,-79.9007335,358.680481905,0.489999983311,0.0,0.0,0.0,0.489999983311,0.0,0.0,0.0,1.95999993324,1,43.83478969403591,258.429888858686,358.67508335577617,0.867783087470498,15.661148547145368,-0.27573050673317606,0,Fixed-Wing
1970-01-01 00:01:09.992244992,4727,1539875957142597064,base_link,0,1,40.5926729,-79.9007276,358.890464476,0.489999983311,0.0,0.0,0.0,0.489999983311,0.0,0.0,0.0,1.95999993324,1,44.334222779969764,264.78209225798213,358.88480131145224,1.2488043776116557,15.883327788922823,0.524387968054503,0,Fixed-Wing
1970-01-01 00:01:10.411176096,4729,1539875957567691304,base_link,0,1,40.5927303,-79.9007178,358.940450946,0.489999983311,0.0,0.0,0.0,0.489999983311,0.0,0.0,0.0,1.95999993324,1,45.163810985126055,271.1565018102337,358.93451351231664,2.0743387080114,15.93885302704121,0.12430256586645513,0,Fixed-Wing
1970-01-01 00:01:10.816195264,4731,1539875957972901256,base_link,0,1,40.5927867,-79.9007003,358.970445667,0.489999983311,0.0,0.0,0.0,0.489999983311,0.0,0.0,0.0,1.95999993324,1,46.64524659934097,277.4198624855298,358.96422758738834,3.704246539298017,15.661181547965011,0.07429837564091346,0,Fixed-Wing
1970-01-01 00:01:11.220091776,4733,1539875958376958216,base_link,0,1,40.5928419,-79.900675,359.010448822,0.489999983311,0.0,0.0,0.0,0.489999983311,0.0,0.0,0.0,1.95999993324,1,48.78699396822049,283.5499655397605,359.00394451563966,5.355318991319763,15.327978351734153,0.09930994814410364,0,Fixed-Wing
1970-01-01 00:01:11.603858816,4735,1539875958758755976,base_link,0,1,40.5928947,-79.9006415,358.950461305,0.489999983311,0.0,0.0,0.0,0.489999983311,0.0,0.0,0.0,1.95999993324,1,51.622913831787635,289.4135440173324,358.943670705622,7.091058321769969,14.661548618809675,-0.15071127629562717,0,Fixed-Wing
1970-01-01 00:01:12.002751744,4737,1539875959159219464,base_link,0,1,40.5929436,-79.9005974,358.940486168,0.489999983311,0.0,0.0,0.0,0.489999983311,0.0,0.0,0.0,1.95999993324,1,55.35618024096789,294.844028426438,358.93341498333257,9.334822954024972,13.578621228031947,-0.025643857508351436,0,Fixed-Wing
1970-01-01 00:01:12.398186944,4739,1539875959554511784,base_link,0,1,40.5929869,-79.9005431,359.080523695,0.489999983311,0.0,0.0,0.0,0.489999983311,0.0,0.0,0.0,1.95999993324,1,59.952932279316826,299.65263573852866,359.0731863792761,11.49392026671969,12.023652478541585,0.3494905244268665,0,Fixed-Wing
1970-01-01 00:01:12.804408000,4741,1539875959960870664,base_link,0,1,40.5930239,-79.9004809,359.280571832,0.489999983311,0.0,0.0,0.0,0.489999983311,0.0,0.0,0.0,1.95999993324,1,65.21846231867067,303.76162520491357,359.2729880883532,13.166162092155979,10.27429735374257,0.4995929504415068,0,Fixed-Wing
1970-01-01 00:01:13.178736128,4743,1539875960335222088,base_link,0,1,40.5930559,-79.9004135,359.290627303,0.489999983311,0.0,0.0,0.0,0.489999983311,0.0,0.0,0.0,1.95999993324,1,70.92419751948727,307.315352053102,359.28281210573334,14.266870371532425,8.885894366721175,0.024564403631994802,0,Fixed-Wing
1970-01-01 00:01:13.609080736,4745,1539875960761258984,base_link,0,1,40.5930813,-79.9003407,359.110690964,0.489999983311,0.0,0.0,0.0,0.489999983311,0.0,0.0,0.0,1.95999993324,1,77.08707090363306,310.13613342633477,359.10266749982,15.40991872093746,7.05320537703633,-0.4504414681440195,0,Fixed-Wing
1970-01-01 00:01:13.978579264,4747,1539875961135287432,base_link,0,1,40.5930996,-79.9002634,359.040762105,0.489999983311,0.0,0.0,0.0,0.489999983311,0.0,0.0,0.0,1.95999993324,1,83.63089803322626,312.16845796729433,359.0325569309615,16.36247216279189,5.0817133565196935,-0.175307539234383,0,Fixed-Wing
1970-01-01 00:01:14.392012000,4749,1539875961548436712,base_link,0,1,40.5931124,-79.900184,358.940837633,0.489999983311,0.0,0.0,0.0,0.489999983311,0.0,0.0,0.0,1.95999993324,1,90.3525043563902,313.5900011462139,358.93247101662706,16.806999050241267,3.55448886907324,-0.25025920684532205,0,Fixed-Wing
1970-01-01 00:01:14.802658720,4751,1539875961959234248,base_link,0,1,40.593119,-79.9001024,359.160917937,0.489999983311,0.0,0.0,0.0,0.489999983311,0.0,0.0,0.0,1.95999993324,1,97.26036318208035,314.32304423027745,359.1524137024975,17.272712970777704,1.8329330557762116,0.5499543315699073,0,Fixed-Wing
1970-01-01 00:01:15.193559680,4753,1539875962349735016,base_link,0,1,40.593122,-79.9000206,359.090999924,0.489999983311,0.0,0.0,0.0,0.489999983311,0.0,0.0,0.0,1.95999993324,1,104.18515302084859,314.6562912965006,359.082370023343,17.31504801794377,0.8332655701966597,-0.17514028528683914,0,Fixed-Wing
1970-01-01 00:01:15.603952000,4755,1539875962760261992,base_link,0,1,40.5931215,-79.8999391,359.111083044,0.489999983311,0.0,0.0,0.0,0.489999983311,0.0,0.0,0.0,1.95999993324,1,111.08455288935356,314.60086574535114,359.1023396256593,17.2515618234861,-0.1385884773284333,0.049932868874925526,0,Fixed-Wing
1970-01-01 00:01:15.978971072,4757,1539875963134385768,base_link,0,1,40.5931193,-79.8998586,359.191165852,0.489999983311,0.0,0.0,0.0,0.489999983311,0.0,0.0,0.0,1.95999993324,1,117.89930179683644,314.3566592622376,359.1823123555306,17.039896850398147,-0.6106245936492327,0.1999673188773885,0,Fixed-Wing
1970-01-01 00:01:16.409546816,4759,1539875963564110152,base_link,0,1,40.593117,-79.8997793,359.241247491,0.489999983311,0.0,0.0,0.0,0.489999983311,0.0,0.0,0.0,1.95999993324,1,124.61246467314211,314.1013505900985,359.23227916454493,16.78588668565089,-0.6383849936841496,0.12493919924370557,0,Fixed-Wing
1970-01-01 00:01:16.770133888,4761,1539875963927020456,base_link,0,1,40.5931144,-79.8997007,359.01132855,0.489999983311,0.0,0.0,0.0,0.489999983311,0.0,0.0,0.0,1.95999993324,1,131.266364300034,313.8127174108589,359.0022411918088,16.637702259380788,-0.721711051810652,-0.5751970293129862,0,Fixed-Wing
1970-01-01 00:01:17.199367744,4763,1539875964355880904,base_link,0,1,40.5931123,-79.8996224,358.701409112,0.489999983311,0.0,0.0,0.0,0.489999983311,0.0,0.0,0.0,1.95999993324,1,137.89486464597363,313.57961193618223,358.6921935878102,16.574192784068206,-0.5828671456100377,-0.7752566180462331,0,Fixed-Wing
1970-01-01 00:01:17.612771776,4765,1539875964768258760,base_link,0,1,40.5931105,-79.8995441,358.561489561,0.489999983311,0.0,0.0,0.0,0.489999983311,0.0,0.0,0.0,1.95999993324,1,144.52336796383915,313.3798364420447,358.55213734240164,16.574200215202005,-0.49952740145764546,-0.3502027745139087,0,Fixed-Wing
1970-01-01 00:01:18.012261472,4767,1539875965168493096,base_link,0,1,40.5931092,-79.8994654,358.551570224,0.489999983311,0.0,0.0,0.0,0.489999983311,0.0,0.0,0.0,1.95999993324,1,151.1857353810981,313.23560009061015,358.5420708928111,16.658875493547512,-0.3606548948301545,-0.02517059175631357,0,Fixed-Wing
1970-01-01 00:01:18.408697696,4769,1539875965564308552,base_link,0,1,40.5931083,-79.8993867,358.471650734,0.489999983311,0.0,0.0,0.0,0.489999983311,0.0,0.0,0.0,1.95999993324,1,157.84810036424483,313.1357871725104,358.46199515014104,16.658869407186568,-0.2495765950950244,-0.20022489659436993,0,Fixed-Wing
