time,field.header.seq,field.header.stamp,field.header.frame_id,field.status.status,field.status.service,lat,lon,alt,field.position_covariance0,field.position_covariance1,field.position_covariance2,field.position_covariance3,field.position_covariance4,field.position_covariance5,field.position_covariance6,field.position_covariance7,field.position_covariance8,field.position_covariance_type,x,y,z,vel_x,vel_y,vel_z,track_id,uav_category
1970-01-01 00:00:00.000000000,3387,1536703528955757583,base_link,0,1,40.5914392,-79.8985808,343.153162897,0.31360000267,0.0,0.0,0.0,0.31360000267,0.0,0.0,0.0,1.25440001068,1,227.9054050050762,114.00946537144497,343.1480756829899,-18.70615716033378,3.19162876298185,-0.6245325611228605,0,Fixed-Wing
1970-01-01 00:00:00.390802576,3389,1536703529346512256,base_link,0,1,40.5914507,-79.8986692,342.903067778,0.31360000267,0.0,0.0,0.0,0.31360000267,0.0,0.0,0.0,1.25440001068,1,220.4216701222558,115.2863339073936,342.8982201903266,-18.70615716033378,3.19162876298185,-0.6245325611228605,0,Fixed-Wing
1970-01-01 00:00:00.829880348,3391,1536703529785410224,base_link,0,1,40.5914655,-79.8987563,342.702972625,0.31360000267,0.0,0.0,0.0,0.31360000267,0.0,0.0,0.0,1.25440001068,1,213.04798377918348,116.92968552062939,342.6983452463672,-18.431082573643252,4.107680727365833,-0.49960242748582934,0,Fixed-Wing
1970-01-01 00:00:01.239457694,3393,1536703530195287212,base_link,0,1,40.5914868,-79.8988402,342.782878043,0.31360000267,0.0,0.0,0.0,0.31360000267,0.0,0.0,0.0,1.25440001068,1,205.94519279323242,119.29489504440892,342.77843971384834,-17.753959291798047,5.912018766258552,0.20020213434006304,0,Fixed-Wing
1970-01-01 00:00:01.605441401,3395,1536703530560565142,base_link,0,1,40.5915173,-79.8989189,343.222784948,0.31360000267,0.0,0.0,0.0,0.31360000267,0.0,0.0,0.0,1.25440001068,1,199.28260655363104,122.68180854351858,343.2184935551355,-16.653634481141662,8.465844554199954,1.0999476121238916,0,Fixed-Wing
1970-01-01 00:00:01.974020479,3397,1536703530929809166,base_link,0,1,40.5915569,-79.8989898,344.002696042,0.31360000267,0.0,0.0,0.0,0.31360000267,0.0,0.0,0.0,1.25440001068,1,193.2803339764729,127.07932574134804,343.99850278482506,-15.003130910640571,10.991924367431183,1.94969162664732,0,Fixed-Wing
1970-01-01 00:00:02.412165911,3399,1536703531368024452,base_link,0,1,40.5916051,-79.899049,345.192615517,0.31360000267,0.0,0.0,0.0,0.31360000267,0.0,0.0,0.0,1.25440001068,1,188.26854109339604,132.43192990549943,345.18846279131816,-12.527352557757307,13.379235940268623,2.9743943691899757,0,Fixed-Wing
1970-01-01 00:00:02.794258484,3401,1536703531743841058,base_link,0,1,40.5916585,-79.899095,346.992546322,0.31360000267,0.0,0.0,0.0,0.31360000267,0.0,0.0,0.0,1.25440001068,1,184.3742277154157,138.36205106208507,346.98838100238993,-9.734128643081489,14.822783018350986,4.499030692461706,0,Fixed-Wing
1970-01-01 00:00:03.214041532,3403,1536703532169898857,base_link,0,1,40.5917134,-79.899133,349.07248469,0.31360000267,0.0,0.0,0.0,0.31360000267,0.0,0.0,0.0,1.25440001068,1,181.15717695387315,144.45877861682283,349.0682759233234,-8.041259889675171,15.239228218047318,5.198853497239214,0,Fixed-Wing
1970-01-01 00:00:03.595132347,3405,1536703532550094651,base_link,0,1,40.5917678,-79.8991667,351.282427676,0.31360000267,0.0,0.0,0.0,0.31360000267,0.0,0.0,0.0,1.25440001068,1,178.3041585604864,150.4999972970203,351.27815916436793,-7.131333656745223,15.100479618958428,5.523769061870754,0,Fixed-Wing
1970-01-01 00:00:03.985249215,3407,1536703532941075500,base_link,0,1,40.5918202,-79.8991996,353.73237233,0.31360000267,0.0,0.0,0.0,0.31360000267,0.0,0.0,0.0,1.25440001068,1,175.51888005053402,156.3191244227342,353.7280406599892,-6.962012732716381,14.545345105616844,6.123662716391317,0,Fixed-Wing
1970-01-01 00:00:04.393790676,3409,1536703533348647125,base_link,0,1,40.5918697,-79.899233,356.242317697,0.31360000267,0.0,0.0,0.0,0.31360000267,0.0,0.0,0.0,1.25440001068,1,172.69128446787153,161.8162061590818,356.23792567568034,-7.067787432792667,13.740368478227657,6.273646019404621,0,Fixed-Wing
1970-01-01 00:00:04.800817285,3411,1536703533754045641,base_link,0,1,40.5919156,-79.8992683,358.992262639,0.31360000267,0.0,0.0,0.0,0.31360000267,0.0,0.0,0.0,1.25440001068,1,169.702858558146,166.9135077422831,358.987819041589,-7.469794909179242,12.741087973047833,6.873564908737098,0,Fixed-Wing
1970-01-01 00:00:05.173872883,3413,1536703534127842023,base_link,0,1,40.5919584,-79.899305,361.782207454,0.31360000267,0.0,0.0,0.0,0.31360000267,0.0,0.0,0.0,1.25440001068,1,166.59592352290082,171.66655113653496,361.7777191867764,-7.766017365160889,11.880588785536148,6.9735648569428275,0,Fixed-Wing
1970-01-01 00:00:05.569896759,3415,1536703534525702309,base_link,0,1,40.5919989,-79.8993416,364.37215334,0.36000002861,0.0,0.0,0.0,0.36000002861,0.0,0.0,0.0,1.44000011444,1,163.49745588615656,176.16417417235743,364.36762220232583,-7.744852466941271,11.242146424663986,6.473657017180712,0,Fixed-Wing
1970-01-01 00:00:06.007250397,3417,1536703534963075435,base_link,0,1,40.592038,-79.8993774,366.292100635,0.36000002861,0.0,0.0,0.0,0.36000002861,0.0,0.0,0.0,1.44000011444,1,160.46670132502177,180.5063112322939,366.2875246549834,-7.575598551083278,10.853497555256798,4.798940311790842,0,Fixed-Wing
1970-01-01 00:00:06.378348921,3419,1536703535334021258,base_link,0,1,40.5920759,-79.8994114,367.602050275,0.36000002861,0.0,0.0,0.0,0.36000002861,0.0,0.0,0.0,1.44000011444,1,157.58831818822947,184.7151747327249,367.59742516537943,-7.194734737075469,10.520370288128502,3.2741946628974627,0,Fixed-Wing
1970-01-01 00:00:06.777213998,3421,1536703535732661764,base_link,0,1,40.592114,-79.8994435,368.102001782,0.36000002861,0.0,0.0,0.0,0.36000002861,0.0,0.0,0.0,1.44000011444,1,154.8707645609654,188.9462308875664,368.0973189038068,-6.792729304178458,10.575842493879783,1.2495219273407885,0,Fixed-Wing
1970-01-01 00:00:07.173546035,3423,1536703536129175557,base_link,0,1,40.5921537,-79.899472,367.761956308,0.36000002861,0.0,0.0,0.0,0.36000002861,0.0,0.0,0.0,1.44000011444,1,152.45795348256183,193.35495337234437,367.7571990290554,-6.031002425596559,11.019932823364949,-0.8501551605012011,0,Fixed-Wing
1970-01-01 00:00:07.580345264,3425,1536703536531878872,base_link,0,1,40.5921959,-79.8994955,366.77191491,0.348099969053,0.0,0.0,0.0,0.348099969053,0.0,0.0,0.0,1.39239987621,1,150.46840699953557,198.04129561381296,366.76706067086036,-4.973020794030664,11.713864246749539,-2.4749251582107394,0,Fixed-Wing
1970-01-01 00:00:08.016984925,3427,1536703536972753900,base_link,0,1,40.5922418,-79.8995102,365.361880964,0.348099969053,0.0,0.0,0.0,0.348099969053,0.0,0.0,0.0,1.39239987621,1,149.223821937023,203.13853237695412,365.35689522972245,-3.1109337975358797,12.740925950441312,-3.524814384399417,0,Fixed-Wing
1970-01-01 00:00:08.362978372,3429,1536703537318709396,base_link,0,1,40.592291,-79.8995137,363.841857083,0.348099969053,0.0,0.0,0.0,0.348099969053,0.0,0.0,0.0,1.39239987621,1,148.9273799697903,208.6022552860765,363.83670148556644,-0.7409789516599209,13.656985585256496,-3.7998383878641073,0,Fixed-Wing
1970-01-01 00:00:08.787160098,3431,1536703537743126093,base_link,0,1,40.592343,-79.8995035,362.311846021,0.348099969053,0.0,0.0,0.0,0.348099969053,0.0,0.0,0.0,1.39239987621,1,149.79072241150456,214.37694512828762,362.3064782936719,2.1579892461137913,14.434270779495245,-3.8249077454196527,0,Fixed-Wing
1970-01-01 00:00:09.195168076,3433,1536703538151004570,base_link,0,1,40.5923948,-79.8994774,361.161851257,0.348099969053,0.0,0.0,0.0,0.348099969053,0.0,0.0,0.0,1.39239987621,1,152.00010519040944,220.129462348818,361.1562349219102,5.522518119181943,14.378848647055984,-2.8751196590621837,0,Fixed-Wing
1970-01-01 00:00:09.596433272,3435,1536703538551926829,base_link,0,1,40.5924435,-79.8994351,360.671874291,0.348099969053,0.0,0.0,0.0,0.348099969053,0.0,0.0,0.0,1.39239987621,1,155.58093523915957,225.5377678887529,360.6659823359847,8.950553527775604,13.518465710666439,-1.2254231428793985,0,Fixed-Wing
1970-01-01 00:00:09.982024430,3437,1536703538936321596,base_link,0,1,40.5924862,-79.8993795,360.541913361,0.348099969053,0.0,0.0,0.0,0.348099969053,0.0,0.0,0.0,1.39239987621,1,160.2877078034185,230.27979755978126,360.53573517718746,11.764931372314024,11.853059157514094,-0.32556255135942,0,Fixed-Wing
1970-01-01 00:00:10.449744531,3439,1536703539405420004,base_link,0,1,40.5925215,-79.8993125,360.491967105,0.372100017452,0.0,0.0,0.0,0.372100017452,0.0,0.0,0.0,1.48840006981,1,165.95957255222558,234.20006716526586,360.4855009862592,14.177251739222037,9.79900818232052,-0.12556413141835657,0,Fixed-Wing
1970-01-01 00:00:10.834276077,3441,1536703539789735651,base_link,0,1,40.5925471,-79.8992362,360.462034332,0.33639998064,0.0,0.0,0.0,0.33639998064,0.0,0.0,0.0,1.34559992256,1,172.4187568442321,237.04315234649835,360.4552918430119,16.145216043288922,7.106504847257171,-0.07551002141462161,0,Fixed-Wing
1970-01-01 00:00:11.189037781,3443,1536703540144921729,base_link,0,1,40.5925617,-79.8991525,360.50211364,0.33639998064,0.0,0.0,0.0,0.33639998064,0.0,0.0,0.0,1.34559992256,1,179.5044212612956,238.6646851453683,360.49511534441876,17.711150147133733,4.053142962871222,0.09954183140587589,0,Fixed-Wing
1970-01-01 00:00:11.587909295,3445,1536703540543578176,base_link,0,1,40.5925628,-79.8990635,360.622203923,0.33639998064,0.0,0.0,0.0,0.33639998064,0.0,0.0,0.0,1.34559992256,1,187.0387989452419,238.78703244870314,360.61498485955025,18.832742643616346,0.30581626957125824,0.2996228519438788,0,Fixed-Wing
1970-01-01 00:00:11.999491389,3447,1536703540955221101,base_link,0,1,40.5925506,-79.898973,360.782301229,0.33639998064,0.0,0.0,0.0,0.33639998064,0.0,0.0,0.0,1.34559992256,1,194.70020034865252,237.4323960965895,360.77490392625396,19.150247966372273,-3.386015257690268,0.3997297127081092,0,Fixed-Wing
1970-01-01 00:00:12.426173404,3449,1536703541382088840,base_link,0,1,40.5925255,-79.8988839,360.912402442,0.33639998064,0.0,0.0,0.0,0.33639998064,0.0,0.0,0.0,1.34559992256,1,202.2431244937036,234.6451880471986,360.9048741632921,18.85410516474968,-6.9668357613978795,0.3248703646333899,0,Fixed-Wing
1970-01-01 00:00:12.796228230,3451,1536703541751763130,base_link,0,1,40.5924861,-79.8987998,361.262504476,0.33639998064,0.0,0.0,0.0,0.33639998064,0.0,0.0,0.0,1.34559992256,1,209.36282635701204,230.26993511587625,361.2549066497403,17.796229299290246,-10.936273161868323,0.8749324775992717,0,Fixed-Wing
1970-01-01 00:00:13.194971371,3453,1536703542150704955,base_link,0,1,40.5924344,-79.898725,361.702602128,0.33639998064,0.0,0.0,0.0,0.33639998064,0.0,0.0,0.0,1.34559992256,1,215.6952783427932,224.52872498468165,361.69499878994657,15.828439129800804,-14.350585728412685,1.1000433431473524,0,Fixed-Wing
1970-01-01 00:00:13.607808506,3455,1536703542563672583,base_link,0,1,40.5923727,-79.8986615,362.162692414,0.33639998064,0.0,0.0,0.0,0.33639998064,0.0,0.0,0.0,1.34559992256,1,221.07115984268015,217.67696816490607,362.1551433729203,13.437419388421365,-17.126480547745818,1.1501659292263462,0,Fixed-Wing
1970-01-01 00:00:14.013378531,3457,1536703542969240464,base_link,0,1,40.5923031,-79.8986114,362.762772327,0.31360000267,0.0,0.0,0.0,0.31360000267,0.0,0.0,0.0,1.25440001068,1,225.31268946011443,209.94787086875152,362.7553348050567,10.60202169989672,-19.319458932367873,1.5002235423387984,0,Fixed-Wing
1970-01-01 00:00:14.410107383,3459,1536703543365819687,base_link,0,1,40.5922302,-79.898573,363.512841699,0.31360000267,0.0,0.0,0.0,0.31360000267,0.0,0.0,0.0,1.25440001068,1,228.5637656758556,201.85227610445793,363.50555064499014,8.126309066811555,-20.235546867766466,1.8752208122955254,0,Fixed-Wing
1970-01-01 00:00:14.779425552,3461,1536703543735046499,base_link,0,1,40.5921572,-79.8985404,364.312905228,0.33639998064,0.0,0.0,0.0,0.33639998064,0.0,0.0,0.0,1.34559992256,1,231.32384426454743,193.74556198152246,364.3057668257751,6.89902363771119,-20.263340539446975,2.000200417891352,0,Fixed-Wing
1970-01-01 00:00:15.169563946,3463,1536703544120661469,base_link,0,1,40.5920859,-79.8985099,365.28296594,0.31360000267,0.0,0.0,0.0,0.31360000267,0.0,0.0,0.0,1.25440001068,1,233.9061510157069,185.8276354161206,365.275969670758,6.454669584069405,-19.79145186668734,2.4250948463333915,0,Fixed-Wing
1970-01-01 00:00:15.602873633,3465,1536703544558446324,base_link,0,1,40.5920187,-79.8984757,366.133028761,0.31360000267,0.0,0.0,0.0,0.31360000267,0.0,0.0,0.0,1.25440001068,1,236.80167487565873,178.36502894053504,366.12613937539925,7.237579261405117,-18.653345120293416,2.1250630008929634,0,Fixed-Wing
1970-01-01 00:00:15.981438917,3467,1536703544934285363,base_link,0,1,40.5919547,-79.8984369,366.673094979,0.31360000267,0.0,0.0,0.0,0.31360000267,0.0,0.0,0.0,1.25440001068,1,240.0866033924883,171.25779366031784,366.6662782305558,8.210925434750045,-17.765068138959368,1.3501176178963477,0,Fixed-Wing
1970-01-01 00:00:16.398368554,3469,1536703545354009020,base_link,0,1,40.5918938,-79.8983931,366.763165044,0.31360000267,0.0,0.0,0.0,0.31360000267,0.0,0.0,0.0,1.25440001068,1,243.7947945877102,164.4948234506678,366.7563862764813,9.268902274667987,-16.904551750327535,0.22523182540340628,0,Fixed-Wing
1970-01-01 00:00:16.783725517,3471,1536703545737856799,base_link,0,1,40.5918364,-79.8983439,366.473239196,0.31360000267,0.0,0.0,0.0,0.31360000267,0.0,0.0,0.0,1.25440001068,1,247.96011234431344,158.12054421765592,366.4664616893512,10.411524432354646,-15.932989474319092,-0.7246882708191801,0,Fixed-Wing
1970-01-01 00:00:17.173264625,3473,1536703546128986753,base_link,0,1,40.5917826,-79.8982888,366.013317903,0.33639998064,0.0,0.0,0.0,0.33639998064,0.0,0.0,0.0,1.34559992256,1,252.6248927924126,152.14606950252784,366.0065032732996,11.659968925530539,-14.933648067648706,-1.1497005910285756,0,Fixed-Wing
1970-01-01 00:00:17.599987183,3475,1536703546555748831,base_link,0,1,40.5917333,-79.8982273,365.473401301,0.31360000267,0.0,0.0,0.0,0.31360000267,0.0,0.0,0.0,1.25440001068,1,257.8314645964197,146.67135132022437,365.46650718691217,13.014217093111986,-13.684469096012334,-1.3497607566399175,0,Fixed-Wing
1970-01-01 00:00:17.997898454,3477,1536703546953480009,base_link,0,1,40.5916887,-79.8981602,364.843488487,0.31360000267,0.0,0.0,0.0,0.31360000267,0.0,0.0,0.0,1.25440001068,1,263.51210070540105,141.718598737357,364.8364747897107,14.199176412463212,-12.379776895096239,-1.5748132747470165,0,Fixed-Wing
1970-01-01 00:00:18.386808590,3479,1536703547342526526,base_link,0,1,40.5916479,-79.8980887,364.303578608,0.31360000267,0.0,0.0,0.0,0.31360000267,0.0,0.0,0.0,1.25440001068,1,269.5652231543927,137.1878659468877,364.2964116240657,15.130233982702052,-11.324906742027109,-1.3499284262800189,0,Fixed-Wing
1970-01-01 00:00:18.827672523,3481,1536703547783569207,base_link,0,1,40.5916114,-79.8980137,364.013670535,0.31360000267,0.0,0.0,0.0,0.31360000267,0.0,0.0,0.0,1.25440001068,1,275.91464515953606,133.13468026109302,364.0063185394372,15.870856967174,-10.131241903363149,-0.7251094429659334,0,Fixed-Wing
1970-01-01 00:00:19.250962296,3483,1536703548205615455,base_link,0,1,40.5915778,-79.8979369,363.833763112,0.31360000267,0.0,0.0,0.0,0.31360000267,0.0,0.0,0.0,1.25440001068,1,282.41644913629415,129.40356025865054,363.82620393295844,16.25174714488058,-9.326214549632764,-0.4502099805001977,0,Fixed-Wing
1970-01-01 00:00:19.597083316,3485,1536703548552544490,base_link,0,1,40.5915456,-79.8978596,363.733855636,0.31360000267,0.0,0.0,0.0,0.31360000267,0.0,0.0,0.0,1.25440001068,1,288.9605854720323,125.82792269741569,363.7260754784846,16.357560054136123,-8.93757451541952,-0.2502785888245523,0,Fixed-Wing
1970-01-01 00:00:19.994930170,3487,1536703548950812423,base_link,0,1,40.5915135,-79.8977833,363.683947117,0.31360000267,0.0,0.0,0.0,0.31360000267,0.0,0.0,0.0,1.25440001068,1,295.42007246506506,122.2633938556473,363.67594097243204,16.14597266722853,-8.909807437156665,-0.12531496158785396,0,Fixed-Wing
1970-01-01 00:00:20.389959822,3489,1536703549345692638,base_link,0,1,40.5914805,-79.8977086,363.764037358,0.31360000267,0.0,0.0,0.0,0.31360000267,0.0,0.0,0.0,1.25440001068,1,301.7441239960442,118.59892049576763,363.75580495755946,15.807441562382264,-9.159626263234413,0.1996260263940566,0,Fixed-Wing
1970-01-01 00:00:20.793624294,3491,1536703549749402357,base_link,0,1,40.5914472,-79.8976351,363.864126518,0.31360000267,0.0,0.0,0.0,0.31360000267,0.0,0.0,0.0,1.25440001068,1,307.96659539525496,114.90113288155462,363.8556649911046,15.553534397179348,-9.242897742916236,0.24960765056229342,0,Fixed-Wing
1970-01-01 00:00:21.183791162,3493,1536703550137926893,base_link,0,1,40.5914135,-79.897563,363.974214433,0.31360000267,0.0,0.0,0.0,0.31360000267,0.0,0.0,0.0,1.25440001068,1,314.07055514041474,111.15892459924711,363.9655221739784,15.257305620943901,-9.353930537577366,0.27459627581756546,0,Fixed-Wing
1970-01-01 00:00:21.605442622,3495,1536703550561333835,base_link,0,1,40.591379,-79.8974921,364.364301476,0.31360000267,0.0,0.0,0.0,0.31360000267,0.0,0.0,0.0,1.25440001068,1,320.0729501165284,107.32787966957397,364.3553770401775,15.003436856018565,-9.57598440683369,0.9744715053417746,0,Fixed-Wing
1970-01-01 00:00:21.993335929,3497,1536703550949200358,base_link,0,1,40.5913442,-79.8974223,364.644387538,0.31360000267,0.0,0.0,0.0,0.31360000267,0.0,0.0,0.0,1.25440001068,1,325.9822245688385,103.46351754978213,364.6352282731084,14.770675116005567,-9.659263224731419,0.6995091657691275,0,Fixed-Wing
1970-01-01 00:00:22.408050980,3499,1536703551363125250,base_link,0,1,40.5913091,-79.897353,364.744473235,0.31360000267,0.0,0.0,0.0,0.31360000267,0.0,0.0,0.0,1.25440001068,1,331.8491690182747,99.56583938035337,364.73507404591777,14.66486809601426,-9.742539191909271,0.249572004782622,0,Fixed-Wing
1970-01-01 00:00:22.791165270,3501,1536703551746890566,base_link,0,1,40.5912743,-79.8972838,364.504558723,0.31360000267,0.0,0.0,0.0,0.31360000267,0.0,0.0,0.0,1.25440001068,1,337.70763453965776,95.70147594655154,364.49491178430253,14.6436743788132,-9.659266509198005,-0.6003036024256863,0,Fixed-Wing
1970-01-01 00:00:23.223832371,3503,1536703552179736768,base_link,0,1,40.59124,-79.8972134,364.124645249,0.31360000267,0.0,0.0,0.0,0.31360000267,0.0,0.0,0.0,1.25440001068,1,343.6676847715272,91.89264627943419,364.1147365687592,14.897592988865506,-9.520455690326022,-0.9502764918546792,0,Fixed-Wing
1970-01-01 00:00:23.649438239,3505,1536703552605285164,base_link,0,1,40.5912062,-79.8971424,363.7147322,0.31360000267,0.0,0.0,0.0,0.31360000267,0.0,0.0,0.0,1.25440001068,1,349.6785307426508,88.13935000176019,363.70455039006504,15.024560752481117,-9.381645814396544,-1.0252911472404076,0,Fixed-Wing
1970-01-01 00:00:23.997245949,3507,1536703552953162345,base_link,0,1,40.5911734,-79.8970706,363.444819569,0.31360000267,0.0,0.0,0.0,0.31360000267,0.0,0.0,0.0,1.25440001068,1,355.7571106634151,84.49711652374432,363.4343515129318,15.193866844547173,-9.104036008918154,-0.6753823778288325,0,Fixed-Wing
1970-01-01 00:00:24.375931986,3509,1536703553331451110,base_link,0,1,40.5911414,-79.8969984,363.33490703,0.31360000267,0.0,0.0,0.0,0.31360000267,0.0,0.0,0.0,1.25440001068,1,361.8695638625461,80.94373389097686,363.3241418105864,15.278535646767507,-8.881946650987997,-0.2754774247013026,0,Fixed-Wing
1970-01-01 00:00:24.785081809,3511,1536703553740661380,base_link,0,1,40.5911098,-79.8969257,363.394994854,0.31360000267,0.0,0.0,0.0,0.31360000267,0.0,0.0,0.0,1.25440001068,1,368.02435917656004,77.43478151240484,363.38392165751475,15.38437294163477,-8.770889895147873,0.14942421520425567,0,Fixed-Wing
1970-01-01 00:00:25.190572249,3513,1536703554146303785,base_link,0,1,40.5910801,-79.8968523,363.575082613,0.31360000267,0.0,0.0,0.0,0.31360000267,0.0,0.0,0.0,1.25440001068,1,374.23841731990564,74.13683801712239,363.56368764705667,15.53250483254246,-8.243457350456556,0.4493385862951302,0,Fixed-Wing
1970-01-01 00:00:25.650000356,3515,1536703554605655638,base_link,0,1,40.5910538,-79.896778,363.685169878,0.31360000267,0.0,0.0,0.0,0.31360000267,0.0,0.0,0.0,1.25440001068,1,380.52864995507406,71.21648066171397,363.67343663504414,15.722908693443172,-7.29965244760494,0.2743258345768042,0,Fixed-Wing
1970-01-01 00:00:25.971938327,3517,1536703554927811556,base_link,0,1,40.591032,-79.8967029,363.905256081,0.31360000267,0.0,0.0,0.0,0.31360000267,0.0,0.0,0.0,1.25440001068,1,386.88659478370425,68.79586885270444,363.89316754328064,15.892160404306757,-6.05050093736447,0.5492339008281081,0,Fixed-Wing
1970-01-01 00:00:26.446983967,3519,1536703555402762766,base_link,0,1,40.5910155,-79.8966263,363.925341597,0.31360000267,0.0,0.0,0.0,0.31360000267,0.0,0.0,0.0,1.25440001068,1,393.3714876981953,66.9638444427519,363.9128765295098,16.209476675192892,-4.579282546848382,0.049264090677454186,0,Fixed-Wing
1970-01-01 00:00:26.802042902,3521,1536703555757799973,base_link,0,1,40.5910055,-79.8965491,363.805424997,0.31360000267,0.0,0.0,0.0,0.31360000267,0.0,0.0,0.0,1.25440001068,1,399.90713111496837,65.85366730177634,363.7925656807148,16.33633136560045,-2.7749711073506647,-0.30072599856770904,0,Fixed-Wing
1970-01-01 00:00:27.187998310,3523,1536703556143633081,base_link,0,1,40.5910029,-79.8964714,363.555505793,0.31360000267,0.0,0.0,0.0,0.31360000267,0.0,0.0,0.0,1.25440001068,1,406.4850521239439,65.56528435278335,363.54223424031795,16.442007381184006,-0.7208348305612782,-0.6257222282133259,0,Fixed-Wing
1970-01-01 00:00:27.593108140,3525,1536703556547192320,base_link,0,1,40.5910096,-79.8963947,363.265581641,0.31360000267,0.0,0.0,0.0,0.31360000267,0.0,0.0,0.0,1.25440001068,1,412.9782553952303,66.3096889930294,363.25188586809156,16.23024903587991,1.8606952824171037,-0.725747553481883,0,Fixed-Wing
1970-01-01 00:00:27.973037814,3527,1536703556919957991,base_link,0,1,40.5910271,-79.8963217,363.005649136,0.31360000267,0.0,0.0,0.0,0.31360000267,0.0,0.0,0.0,1.25440001068,1,419.1581570640256,68.25344726325028,362.9915302664133,15.447128160201041,4.8585697187000285,-0.6507783718724578,0,Fixed-Wing
1970-01-01 00:00:28.414445079,3529,1536703557364631360,base_link,0,1,40.5910554,-79.8962554,362.905705198,0.31360000267,0.0,0.0,0.0,0.31360000267,0.0,0.0,0.0,1.25440001068,1,424.7707895995107,71.3965452603016,362.8911810623167,14.02919637532892,7.856409403029769,-0.25083036907869133,0,Fixed-Wing
1970-01-01 00:00:28.797352721,3531,1536703557753113761,base_link,0,1,40.5910946,-79.8962003,363.095745168,0.31360000267,0.0,0.0,0.0,0.31360000267,0.0,0.0,0.0,1.25440001068,1,429.43519942795405,75.75006672777178,363.08085880853355,11.659042533877626,10.881953736540257,0.4741137662018212,0,Fixed-Wing
1970-01-01 00:00:29.190459592,3533,1536703558146398419,base_link,0,1,40.5911415,-79.8961573,363.545769476,0.31360000267,0.0,0.0,0.0,0.31360000267,0.0,0.0,0.0,1.25440001068,1,433.0752131256593,80.95863825716324,363.5305732224571,9.098487501387835,13.019215556833997,1.1240949386693586,0,Fixed-Wing
1970-01-01 00:00:29.607863073,3535,1536703558563654608,base_link,0,1,40.5911922,-79.8961238,364.01578244,0.31360000267,0.0,0.0,0.0,0.31360000267,0.0,0.0,0.0,1.25440001068,1,435.91095076923864,86.58916454202924,364.00031916344665,7.0881391252971095,14.073923145230296,1.1741652443822699,0,Fixed-Wing
1970-01-01 00:00:29.985926742,3537,1536703558941794883,base_link,0,1,40.5912448,-79.8960985,364.5357862,0.31360000267,0.0,0.0,0.0,0.31360000267,0.0,0.0,0.0,1.25440001068,1,438.0524829301868,92.43065220436009,364.5200942425955,5.35292040590136,14.601236945546379,1.2992168310109071,0,Fixed-Wing
1970-01-01 00:00:30.400258181,3539,1536703559356032468,base_link,0,1,40.591298,-79.8960794,365.035783357,0.33639998064,0.0,0.0,0.0,0.33639998064,0.0,0.0,0.0,1.34559992256,1,439.66912978860313,98.33874163939777,365.01989176141524,4.040930187908919,14.76771307637122,1.2492814192080317,0,Fixed-Wing
1970-01-01 00:00:30.791662631,3541,1536703559746370830,base_link,0,1,40.5913516,-79.8960643,365.245776253,0.33639998064,0.0,0.0,0.0,0.33639998064,0.0,0.0,0.0,1.34559992256,1,440.9471216213328,104.29122857796534,365.2297017832973,3.1944365276145477,14.878687969464128,0.5244359006020205,0,Fixed-Wing
1970-01-01 00:00:31.226426413,3543,1536703560182310618,base_link,0,1,40.5914053,-79.8960521,365.345766144,0.33639998064,0.0,0.0,0.0,0.33639998064,0.0,0.0,0.0,1.34559992256,1,441.97959662856414,110.25480495519895,365.3295197757305,2.5807487907838476,14.906406853918854,0.2495025656468453,0,Fixed-Wing
1970-01-01 00:00:31.595673671,3545,1536703560549587327,base_link,0,1,40.591459,-79.8960427,365.335753176,0.33639998064,0.0,0.0,0.0,0.33639998064,0.0,0.0,0.0,1.34559992256,1,442.7750217264562,116.21836562815221,365.3193455888057,1.9882247465232512,14.90636759989118,-0.02543114401755307,0,Fixed-Wing
1970-01-01 00:00:31.994559830,3547,1536703560950173129,base_link,0,1,40.5915127,-79.8960356,365.235737862,0.33639998064,0.0,0.0,0.0,0.33639998064,0.0,0.0,0.0,1.34559992256,1,443.375727486281,122.18191311234125,365.2191768859094,1.5015091430076666,14.90633463358488,-0.2503791927779008,0,Fixed-Wing
1970-01-01 00:00:32.415848587,3549,1536703561371495869,base_link,0,1,40.5915663,-79.8960298,365.20572127,0.372100017452,0.0,0.0,0.0,0.372100017452,0.0,0.0,0.0,1.48840006981,1,443.8663833785399,128.1343501274817,365.1890091311909,1.2264312373369737,14.87856318211016,-0.07540656767972162,0,Fixed-Wing
1970-01-01 00:00:32.815441948,3551,1536703561771374536,base_link,0,1,40.59162,-79.8960256,365.145703009,0.33639998064,0.0,0.0,0.0,0.33639998064,0.0,0.0,0.0,1.34559992256,1,444.2215842557048,134.09788371085057,365.1288432893035,0.8878512581982603,14.906299887441314,-0.15038903858193287,0,Fixed-Wing
1970-01-01 00:00:33.193187527,3553,1536703562149036885,base_link,0,1,40.5916739,-79.8960225,364.935683549,0.33639998064,0.0,0.0,0.0,0.33639998064,0.0,0.0,0.0,1.34559992256,1,444.48364998000795,140.08361887803764,364.9186766334989,0.6550529517561268,14.961794412917488,-0.5253273338648474,0,Fixed-Wing
1970-01-01 00:00:33.631383958,3555,1536703562586629649,base_link,0,1,40.5917281,-79.8960209,364.745662438,0.33639998064,0.0,0.0,0.0,0.33639998064,0.0,0.0,0.0,1.34559992256,1,444.61872912349594,146.1026623160525,364.7285107575872,0.33764045984179,15.045050936377935,-0.47533388301914337,0,Fixed-Wing
1970-01-01 00:00:34.015588683,3557,1536703562971417337,base_link,0,1,40.5917824,-79.8960204,364.725640172,0.33639998064,0.0,0.0,0.0,0.33639998064,0.0,0.0,0.0,1.34559992256,1,444.6606965552866,152.13280920152891,364.70834425034604,0.10490074634982323,15.0728048368688,-0.05040769879402698,0,Fixed-Wing
1970-01-01 00:00:34.429491651,3559,1536703563385257970,base_link,0,1,40.5918367,-79.8960215,364.95561628,0.33639998064,0.0,0.0,0.0,0.33639998064,0.0,0.0,0.0,1.34559992256,1,444.5672302861891,158.16295424210867,364.93817982896167,-0.2336259563312206,15.072800225411065,0.5744912830209383,0,Fixed-Wing
1970-01-01 00:00:34.785058272,3561,1536703563738562049,base_link,0,1,40.5918909,-79.8960235,365.415591522,0.33639998064,0.0,0.0,0.0,0.33639998064,0.0,0.0,0.0,1.34559992256,1,444.39758967744456,164.18199592858937,365.3980144119871,-0.42402943685709404,15.045046558286854,1.1493910610832165,0,Fixed-Wing
1970-01-01 00:00:35.184445074,3563,1536703564140035013,base_link,0,1,40.5919447,-79.8960274,365.675564998,0.33639998064,0.0,0.0,0.0,0.33639998064,0.0,0.0,0.0,1.34559992256,1,444.0670901914608,170.15660264745068,365.6578539044559,-0.8261082765523629,14.933978020889723,0.6494883181579474,0,Fixed-Wing
1970-01-01 00:00:35.578248341,3565,1536703564534109826,base_link,0,1,40.5919984,-79.896033,365.535536788,0.33639998064,0.0,0.0,0.0,0.33639998064,0.0,0.0,0.0,1.34559992256,1,443.59264768835175,176.12008504810422,365.517696388285,-1.1859046539814733,14.906171952401923,-0.350334233607577,0,Fixed-Wing
1970-01-01 00:00:35.997083663,3567,1536703564951450238,base_link,0,1,40.5920526,-79.8960401,365.235506846,0.33639998064,0.0,0.0,0.0,0.33639998064,0.0,0.0,0.0,1.34559992256,1,442.9912066230453,182.13908134728678,365.2175387353053,-1.5033470942601261,15.044933109327818,-0.7502665871294183,0,Fixed-Wing
1970-01-01 00:00:36.386462856,3569,1536703565342302422,base_link,0,1,40.5921069,-79.8960496,364.955474417,0.33639998064,0.0,0.0,0.0,0.33639998064,0.0,0.0,0.0,1.34559992256,1,442.18659157314255,188.16917096352256,364.9373865852367,-2.0111957214841882,15.072661688102485,-0.7002613307452787,0,Fixed-Wing
1970-01-01 00:00:36.771172902,3571,1536703565727091282,base_link,0,1,40.5921613,-79.896063,364.905437965,0.396899993992,0.0,0.0,0.0,0.396899993992,0.0,0.0,0.0,1.58759997597,1,441.0518328319899,194.2103529085886,364.88724706258324,-2.836414662389059,15.100387796739627,-0.12532750095850426,0,Fixed-Wing
1970-01-01 00:00:37.183293664,3573,1536703566139063792,base_link,0,1,40.592215,-79.8960821,365.045395978,0.396899993992,0.0,0.0,0.0,0.396899993992,0.0,0.0,0.0,1.58759997597,1,439.4345520177517,200.17377582741693,365.02713172792846,-4.042514808078126,14.906023273114428,0.34965222248523015,0,Fixed-Wing
1970-01-01 00:00:37.576702959,3575,1536703566532607868,base_link,0,1,40.5922674,-79.8961072,365.095348402,0.396899993992,0.0,0.0,0.0,0.396899993992,0.0,0.0,0.0,1.58759997597,1,437.3093378958464,205.99279855354885,365.07704427811063,-5.312132242282031,14.545084151024126,0.12476016622716861,0,Fixed-Wing
1970-01-01 00:00:37.977577977,3577,1536703566933253770,base_link,0,1,40.5923179,-79.896139,365.005294769,0.36000002861,0.0,0.0,0.0,0.36000002861,0.0,0.0,0.0,1.44000011444,1,434.6169326875196,211.600784708403,364.9869903800324,-6.729868943096719,14.017582398127718,-0.22509647879416597,0,Fixed-Wing
1970-01-01 00:00:38.392094088,3579,1536703567347543230,base_link,0,1,40.5923659,-79.896179,364.835233792,0.36000002861,0.0,0.0,0.0,0.36000002861,0.0,0.0,0.0,1.44000011444,1,431.23036121155593,216.9310977963176,364.81697943389247,-8.464989641670039,13.323517721773774,-0.4249551229789418,0,Fixed-Wing
1970-01-01 00:00:38.775368617,3581,1536703567731221367,base_link,0,1,40.5924105,-79.896228,364.575165027,0.36000002861,0.0,0.0,0.0,0.36000002861,0.0,0.0,0.0,1.44000011444,1,427.08190488589946,221.88378718514326,364.55701860649145,-10.369378019877793,12.379618936844889,-0.6497916039298733,0,Fixed-Wing
1970-01-01 00:00:39.206860663,3583,1536703568161753466,base_link,0,1,40.5924499,-79.8962869,364.295088301,0.36000002861,0.0,0.0,0.0,0.36000002861,0.0,0.0,0.0,1.44000011444,1,422.0953903088698,226.258957840196,364.2771192649676,-12.464167534093335,10.936067506155773,-0.6996294168087531,0,Fixed-Wing
1970-01-01 00:00:39.601003161,3585,1536703568556159350,base_link,0,1,40.5924815,-79.8963566,364.115003772,0.36000002861,0.0,0.0,0.0,0.36000002861,0.0,0.0,0.0,1.44000011444,1,416.1946514339436,229.76787532420792,364.09729619284803,-14.749339799549626,8.770802673575322,-0.44948126848329545,0,Fixed-Wing
1970-01-01 00:00:39.973795990,3587,1536703568929644612,base_link,0,1,40.5925033,-79.8964358,364.084913603,0.36000002861,0.0,0.0,0.0,0.36000002861,0.0,0.0,0.0,1.44000011444,1,409.4897555559506,232.18844511767125,364.0675515068507,-16.75939059858077,6.050395916352543,-0.07434907565049784,0,Fixed-Wing
1970-01-01 00:00:40.429086203,3589,1536703569384989703,base_link,0,1,40.5925146,-79.8965212,364.06482146,0.36000002861,0.0,0.0,0.0,0.36000002861,0.0,0.0,0.0,1.44000011444,1,402.2600603437573,233.44294281918468,364.04787284687757,-18.071165932274745,3.1357111828824835,-0.049188287923862976,0,Fixed-Wing
1970-01-01 00:00:40.795160864,3591,1536703569750941103,base_link,0,1,40.5925153,-79.8966104,364.024729842,0.36000002861,0.0,0.0,0.0,0.36000002861,0.0,0.0,0.0,1.44000011444,1,394.70873584211614,233.5202743783991,364.0082494762889,-18.875102486680134,0.1932960377096608,-0.099041589401516,0,Fixed-Wing
1970-01-01 00:00:41.233688305,3593,1536703570189143367,base_link,0,1,40.5925054,-79.8967004,363.944641816,0.36000002861,0.0,0.0,0.0,0.36000002861,0.0,0.0,0.0,1.44000011444,1,387.08974547262034,232.420453248029,363.9286679784462,-19.04423840321097,-2.7490854813934553,-0.198919928218943,0,Fixed-Wing
1970-01-01 00:00:41.614129256,3595,1536703570569947895,base_link,0,1,40.5924826,-79.8967883,364.094561304,0.36000002861,0.0,0.0,0.0,0.36000002861,0.0,0.0,0.0,1.44000011444,1,379.6486173855966,229.88808146534592,364.0791260670444,-18.599658275652494,-6.329853381632802,0.3760812876766291,0,Fixed-Wing
1970-01-01 00:00:41.992028409,3597,1536703570947905798,base_link,0,1,40.5924478,-79.8968704,364.684491719,0.36000002861,0.0,0.0,0.0,0.36000002861,0.0,0.0,0.0,1.44000011444,1,372.69858158359295,226.02312841304428,364.66960424892244,-17.372136241847986,-9.660740304902276,1.475944544122601,0,Fixed-Wing
1970-01-01 00:00:42.374364603,3599,1536703571330267815,base_link,0,1,40.5924062,-79.8969456,365.604432029,0.36000002861,0.0,0.0,0.0,0.36000002861,0.0,0.0,0.0,1.44000011444,1,366.3327209322746,221.4030649017771,365.59007526043587,-15.911946597374376,-11.548195584918505,2.3007863950964027,0,Fixed-Wing
1970-01-01 00:00:42.821845867,3601,1536703571777772279,base_link,0,1,40.5923633,-79.8970173,366.544376471,0.36000002861,0.0,0.0,0.0,0.36000002861,0.0,0.0,0.0,1.44000011444,1,360.26315554286424,216.6386523541935,366.5305289157909,-15.17133434668692,-11.909006837796548,2.350734513520309,0,Fixed-Wing
1970-01-01 00:00:43.173339096,3603,1536703572129260292,base_link,0,1,40.5923217,-79.8970874,367.484322022,0.36000002861,0.0,0.0,0.0,0.36000002861,0.0,0.0,0.0,1.44000011444,1,354.32902386007487,212.0186179972317,367.47096202494885,-14.832807629676383,-11.548122711543563,2.3506831567581927,0,Fixed-Wing
1970-01-01 00:00:43.591264558,3605,1536703572547148571,base_link,0,1,40.5922822,-79.8971573,368.134266914,0.36000002861,0.0,0.0,0.0,0.36000002861,0.0,0.0,0.0,1.44000011444,1,348.41178763323705,207.63178853824684,368.12137707925694,-14.790576169145783,-10.965209561836646,1.625761256356665,0,Fixed-Wing
1970-01-01 00:00:43.986587646,3607,1536703572942509130,base_link,0,1,40.5922448,-79.897228,368.374210125,0.36000002861,0.0,0.0,0.0,0.36000002861,0.0,0.0,0.0,1.44000011444,1,342.42678539691053,203.47815687735346,368.3617781259927,-14.959962397208782,-10.382314158826453,0.600900463760584,0,Fixed-Wing
1970-01-01 00:00:44.372955499,3609,1536703573327410488,base_link,0,1,40.5922091,-79.8972994,368.284151922,0.36000002861,0.0,0.0,0.0,0.36000002861,0.0,0.0,0.0,1.44000011444,1,336.3824906087373,199.51330590706698,368.27216664529493,-15.108168581774109,-9.910442650465614,-0.22399062333849112,0,Fixed-Wing
1970-01-01 00:00:44.812289907,3611,1536703573764200185,base_link,0,1,40.5921752,-79.8973722,368.024091548,0.36000002861,0.0,0.0,0.0,0.36000002861,0.0,0.0,0.0,1.44000011444,1,330.2196527938912,195.74834392123904,368.0125447863178,-15.404475776233326,-9.410805127698136,-0.6489443269072784,0,Fixed-Wing
1970-01-01 00:00:45.243099187,3613,1536703574198966656,base_link,0,1,40.5921425,-79.897446,367.554029661,0.36000002861,0.0,0.0,0.0,0.36000002861,0.0,0.0,0.0,1.44000011444,1,323.97213626349196,192.11664028034855,367.54291351292943,-15.61613658277906,-9.077715890524843,-1.1738786241047992,0,Fixed-Wing
1970-01-01 00:00:45.604364132,3615,1536703574560235345,base_link,0,1,40.5921098,-79.897521,367.093966556,0.36000002861,0.0,0.0,0.0,0.36000002861,0.0,0.0,0.0,1.44000011444,1,317.62302716582235,188.4849384010781,367.08327789165804,-15.870074831452682,-9.077711487223302,-1.1488937412424602,0,Fixed-Wing
1970-01-01 00:00:45.985129055,3617,1536703574941008876,base_link,0,1,40.5920768,-79.8975967,366.743902869,0.31360000267,0.0,0.0,0.0,0.31360000267,0.0,0.0,0.0,1.25440001068,1,311.21465991436304,184.81992746549068,366.73363715894567,-16.018195035492244,-9.160969974072954,-0.87395325972678,0,Fixed-Wing
1970-01-01 00:00:46.467000558,3619,1536703575422558467,base_link,0,1,40.5920436,-79.8976725,366.463839172,0.31360000267,0.0,0.0,0.0,0.31360000267,0.0,0.0,0.0,1.25440001068,1,304.7978256466972,181.13271362386593,366.45398891368484,-16.039358978138267,-9.216467804535114,-0.6990017828489913,0,Fixed-Wing
1970-01-01 00:00:46.844175246,3621,1536703575799688675,base_link,0,1,40.5920093,-79.897748,366.183776249,0.31360000267,0.0,0.0,0.0,0.31360000267,0.0,0.0,0.0,1.25440001068,1,298.406387491297,177.32334900520897,366.1743350767978,-15.975879488987466,-9.521792841859277,-0.6990157595385391,0,Fixed-Wing
1970-01-01 00:00:47.201373257,3623,1536703576149018831,base_link,0,1,40.591974,-79.8978228,365.993714468,0.31360000267,0.0,0.0,0.0,0.31360000267,0.0,0.0,0.0,1.25440001068,1,292.07421154599814,173.4029425836054,365.98467402502064,-15.827749145892307,-9.799350164480936,-0.4740720371965177,0,Fixed-Wing
1970-01-01 00:00:47.624331380,3625,1536703576580244064,base_link,0,1,40.591938,-79.8978968,365.923653806,0.31360000267,0.0,0.0,0.0,0.31360000267,0.0,0.0,0.0,1.25440001068,1,285.80976309030615,169.40481089929625,365.9150044378954,-15.65845920116578,-9.993630293622978,-0.1741443632713621,0,Fixed-Wing
1970-01-01 00:00:47.988511627,3627,1536703576940981893,base_link,0,1,40.5919015,-79.8979699,366.143594281,0.33639998064,0.0,0.0,0.0,0.33639998064,0.0,0.0,0.0,1.34559992256,1,279.62151397347225,165.35116878017465,366.13532544050156,-15.467993233235104,-10.13238279272925,0.5507088860048035,0,Fixed-Wing
1970-01-01 00:00:48.374382062,3629,1536703577329910083,base_link,0,1,40.5918643,-79.898042,366.39353608,0.33639998064,0.0,0.0,0.0,0.33639998064,0.0,0.0,0.0,1.34559992256,1,273.51791871741057,161.219798713667,366.3856375363015,-15.25639455308018,-10.32666963243163,0.6256738749410781,0,Fixed-Wing
1970-01-01 00:00:48.846944941,3631,1536703577802567392,base_link,0,1,40.5918272,-79.8981138,366.403478153,0.33639998064,0.0,0.0,0.0,0.33639998064,0.0,0.0,0.0,1.34559992256,1,267.4397028513495,157.09953357434983,366.39594005194544,-15.192956862485987,-10.298912033247236,0.02575191128497436,0,Fixed-Wing
1970-01-01 00:00:49.230962162,3633,1536703578186511815,base_link,0,1,40.5917899,-79.8981854,366.283420523,0.33639998064,0.0,0.0,0.0,0.33639998064,0.0,0.0,0.0,1.34559992256,1,261.378407100886,152.95706038849698,366.27623425517635,-15.150663763318988,-10.354422712770955,-0.29921362560638853,0,Fixed-Wing
1970-01-01 00:00:49.623305044,3635,1536703578579046245,base_link,0,1,40.5917525,-79.8982574,366.133362536,0.33639998064,0.0,0.0,0.0,0.33639998064,0.0,0.0,0.0,1.34559992256,1,255.28324121492207,148.8034852108062,366.1265212663159,-15.235324709709227,-10.382172974821238,-0.37421885494583873,0,Fixed-Wing
1970-01-01 00:00:49.977006944,3637,1536703578930579681,base_link,0,1,40.5917154,-79.8983301,365.963303717,0.33639998064,0.0,0.0,0.0,0.33639998064,0.0,0.0,0.0,1.34559992256,1,249.12880698543898,144.68322852864029,365.9568004728724,-15.383470383742482,-10.298890893962817,-0.42422986453178657,0,Fixed-Wing
1970-01-01 00:00:50.412839808,3639,1536703579368713485,base_link,0,1,40.5916783,-79.8984028,365.723244909,0.33639998064,0.0,0.0,0.0,0.33639998064,0.0,0.0,0.0,1.34559992256,1,242.97436361636812,140.56297562728787,365.7170710916448,-15.383493228828254,-10.298881443535638,-0.5992215853993872,0,Fixed-Wing
1970-01-01 00:00:50.793892917,3641,1536703579749532423,base_link,0,1,40.5916409,-79.8984757,365.48318603,0.33639998064,0.0,0.0,0.0,0.33639998064,0.0,0.0,0.0,1.34559992256,1,236.80298353509573,136.40941188621383,365.477334383821,-15.425827812452857,-10.382144388139112,-0.5992398987766951,0,Fixed-Wing
1970-01-01 00:00:51.189498940,3643,1536703580145409736,base_link,0,1,40.5916035,-79.898549,365.243126753,0.33639998064,0.0,0.0,0.0,0.33639998064,0.0,0.0,0.0,1.34559992256,1,230.59773416183012,132.25585254526615,365.23758982664845,-15.510486650433467,-10.382133389692953,-0.5992595188132297,0,Fixed-Wing
1970-01-01 00:00:51.574731589,3645,1536703580530216123,base_link,0,1,40.5915666,-79.8986228,365.163066766,0.33639998064,0.0,0.0,0.0,0.33639998064,0.0,0.0,0.0,1.34559992256,1,224.35015366979977,128.15782685663538,365.1578361887009,-15.616296459677734,-10.243322856691288,-0.19935020533392625,0,Fixed-Wing
1970-01-01 00:00:52.048070307,3647,1536703581003896977,base_link,0,1,40.5915309,-79.8986969,365.273005981,0.33639998064,0.0,0.0,0.0,0.33639998064,0.0,0.0,0.0,1.34559992256,1,218.07717186593533,124.19307236802331,365.2680712723458,-15.679788945540357,-9.910201487277345,0.2755408671648547,0,Fixed-Wing
1970-01-01 00:00:52.362072976,3649,1536703581318019067,base_link,0,1,40.5914961,-79.8987705,365.602945341,0.33639998064,0.0,0.0,0.0,0.33639998064,0.0,0.0,0.0,1.34559992256,1,211.8465162977719,120.32827556806842,365.5982945742423,-15.57399134188045,-9.660349740431348,0.8254179336924401,0,Fixed-Wing
1970-01-01 00:00:52.794881078,3651,1536703581750737251,base_link,0,1,40.5914618,-79.8988428,366.132885828,0.33639998064,0.0,0.0,0.0,0.33639998064,0.0,0.0,0.0,1.34559992256,1,205.72591313309124,116.51901649808934,366.1285060185131,-15.298907097495075,-9.521529015015142,1.3253033091145332,0,Fixed-Wing
1970-01-01 00:00:53.192318649,3653,1536703582147897997,base_link,0,1,40.5914279,-79.8989144,366.392826873,0.33639998064,0.0,0.0,0.0,0.33639998064,0.0,0.0,0.0,1.34559992256,1,199.66455327280934,112.75417961244418,366.3887072391067,-15.150824010622937,-9.41049243039975,0.6503924847614856,0,Fixed-Wing
1970-01-01 00:00:53.639865122,3655,1536703582595458998,base_link,0,1,40.5913942,-79.8989855,366.242768352,0.33639998064,0.0,0.0,0.0,0.33639998064,0.0,0.0,0.0,1.34559992256,1,193.64550252948447,109.01155192911648,366.2388992475339,-15.045069196548758,-9.354978861912718,-0.374456321357369,0,Fixed-Wing
1970-01-01 00:00:53.987220623,3657,1536703582943179354,base_link,0,1,40.5913602,-79.8990562,366.082710375,0.33639998064,0.0,0.0,0.0,0.33639998064,0.0,0.0,0.0,1.34559992256,1,187.6603095744172,105.2356142658243,366.0790834858305,-14.960439113018978,-9.438239657488685,-0.39947149410446436,0,Fixed-Wing
1970-01-01 00:00:54.390879538,3659,1536703583346641794,base_link,0,1,40.5913264,-79.8991267,365.922652526,0.33639998064,0.0,0.0,0.0,0.33639998064,0.0,0.0,0.0,1.34559992256,1,181.69204182714122,101.48189251450648,365.919259166738,-14.918133285531395,-9.38270931771052,-0.39949288394092775,0,Fixed-Wing
1970-01-01 00:00:54.798831185,3661,1536703583754631584,base_link,0,1,40.5912927,-79.8991974,365.79259444,0.33639998064,0.0,0.0,0.0,0.33639998064,0.0,0.0,0.0,1.34559992256,1,175.70683741131077,97.73928105526673,365.78942711426953,-14.960467760056922,-9.354938308586926,-0.3245249619276894,0,Fixed-Wing
1970-01-01 00:00:55.192908104,3663,1536703584148813396,base_link,0,1,40.5912597,-79.8992684,365.762535764,0.33639998064,0.0,0.0,0.0,0.33639998064,0.0,0.0,0.0,1.34559992256,1,169.6962308262905,94.07441215447184,365.75958618924005,-15.023962388944554,-9.160614947446149,-0.07458963233619118,0,Fixed-Wing
1970-01-01 00:00:55.609771183,3665,1536703584565661212,base_link,0,1,40.5912265,-79.89934,365.632476567,0.33639998064,0.0,0.0,0.0,0.33639998064,0.0,0.0,0.0,1.34559992256,1,163.63482170763263,90.3873351391926,365.62973859132376,-15.150947135631638,-9.21612579681265,-0.3245638189415196,0,Fixed-Wing
1970-01-01 00:00:55.992707963,3667,1536703584948606152,base_link,0,1,40.5911931,-79.8994122,365.302416851,0.33639998064,0.0,0.0,0.0,0.33639998064,0.0,0.0,0.0,1.34559992256,1,157.5226077472778,86.6780489483229,365.29988414420916,-15.277937651486338,-9.271639298493518,-0.8244959534744063,0,Fixed-Wing
1970-01-01 00:00:56.411138099,3669,1536703585366462573,base_link,0,1,40.5911592,-79.899485,364.98235674,0.33639998064,0.0,0.0,0.0,0.33639998064,0.0,0.0,0.0,1.34559992256,1,151.3595950495927,82.91324108084297,364.9800232166534,-15.404912909018158,-9.410419897317283,-0.7995164011011563,0,Fixed-Wing
1970-01-01 00:00:56.782026630,3671,1536703585737726104,base_link,0,1,40.5911246,-79.8995578,364.862296931,0.33639998064,0.0,0.0,0.0,0.33639998064,0.0,0.0,0.0,1.34559992256,1,145.19658280483497,79.07070453166648,364.8601553847688,-15.404911776892273,-9.604708572483894,-0.29961864454197573,0,Fixed-Wing
1970-01-01 00:00:57.186289852,3673,1536703586141369947,base_link,0,1,40.59109,-79.8996303,365.012237437,0.33639998064,0.0,0.0,0.0,0.33639998064,0.0,0.0,0.0,1.34559992256,1,139.0589676673427,75.22817691110382,365.01027904824,-15.341429800664576,-9.604686254743351,0.3752453669656658,0,Fixed-Wing
1970-01-01 00:00:57.615149015,3675,1536703586568076999,base_link,0,1,40.5910554,-79.8997024,365.19217836,0.33639998064,0.0,0.0,0.0,0.33639998064,0.0,0.0,0.0,1.34559992256,1,132.95520969258823,71.38565512604984,365.1903942048358,-15.25680128066847,-9.604671668451301,0.45021135555899316,0,Fixed-Wing
1970-01-01 00:00:57.989784456,3677,1536703586945661749,base_link,0,1,40.5910225,-79.8997749,365.472118172,0.33639998064,0.0,0.0,0.0,0.33639998064,0.0,0.0,0.0,1.34559992256,1,126.81758068309722,67.73192769258654,365.470498763726,-15.34146447476681,-9.132766013435972,0.7001423730221608,0,Fixed-Wing
1970-01-01 00:00:58.440963033,3679,1536703587396384177,base_link,0,1,40.5909918,-79.8998483,365.682056154,0.33639998064,0.0,0.0,0.0,0.33639998064,0.0,0.0,0.0,1.34559992256,1,120.60374766514853,64.32251833652458,365.68059247031374,-15.531942114712217,-8.522074637466524,0.5251449918206738,0,Fixed-Wing
1970-01-01 00:00:58.792787785,3681,1536703587744266267,base_link,0,1,40.590964,-79.899923,365.591991603,0.33639998064,0.0,0.0,0.0,0.33639998064,0.0,0.0,0.0,1.34559992256,1,114.2798428334389,61.235161327183846,365.5906746540133,-15.807074876545053,-7.717080619646499,-0.2247563321746357,0,Fixed-Wing
1970-01-01 00:00:59.197310751,3683,1536703588153135053,base_link,0,1,40.5909406,-79.8999997,365.491923177,0.33639998064,0.0,0.0,0.0,0.33639998064,0.0,0.0,0.0,1.34559992256,1,107.78660962835707,58.63643775476345,365.4907435760886,-16.23032385764879,-6.4957046612585785,-0.24978523132237473,0,Fixed-Wing
1970-01-01 00:00:59.630584762,3685,1536703588586458119,base_link,0,1,40.5909236,-79.9000782,365.541850242,0.33639998064,0.0,0.0,0.0,0.33639998064,0.0,0.0,0.0,1.34559992256,1,101.14098031805847,56.748454471201796,365.5407964442104,-16.611249363354737,-4.719155952392225,0.1251109014512072,0,Fixed-Wing
1970-01-01 00:01:00.048858157,3687,1536703589004718523,base_link,0,1,40.5909135,-79.9001578,365.561773304,0.33639998064,0.0,0.0,0.0,0.33639998064,0.0,0.0,0.0,1.34559992256,1,94.40221350438506,55.62673713662579,365.5608325585697,-16.844053545080858,-2.8038166876031188,0.050081771997010444,0,Fixed-Wing
1970-01-01 00:01:00.426215102,3689,1536703589382113194,base_link,0,1,40.5909126,-79.9002374,365.671692522,0.33639998064,0.0,0.0,0.0,0.33639998064,0.0,0.0,0.0,1.34559992256,1,87.66343384366138,55.526708658161624,365.6708486911673,-16.84408565724747,-0.25002869128290156,0.27499358258494366,0,Fixed-Wing
1970-01-01 00:01:00.798502851,3691,1536703589746191628,base_link,0,1,40.5909202,-79.9003154,365.871609822,0.33639998064,0.0,0.0,0.0,0.33639998064,0.0,0.0,0.0,1.34559992256,1,81.06009756650776,56.37063387861605,365.8708457812315,-16.505534751976207,2.1094544438805984,0.4999077408445239,0,Fixed-Wing
1970-01-01 00:01:01.192902696,3693,1536703590148690231,base_link,0,1,40.5909364,-79.9003897,366.071527306,0.33639998064,0.0,0.0,0.0,0.33639998064,0.0,0.0,0.0,1.34559992256,1,74.76998760786927,58.169618766232645,366.07082379764427,-15.722602054247018,4.496697780418824,0.49986006482094436,0,Fixed-Wing
1970-01-01 00:01:01.600781328,3695,1536703590556450370,base_link,0,1,40.5909616,-79.9004585,366.271446644,0.33639998064,0.0,0.0,0.0,0.33639998064,0.0,0.0,0.0,1.34559992256,1,68.94549021223625,60.9680849941239,366.2707824611783,-14.558768498437809,6.9949764237361,0.49981169084771093,0,Fixed-Wing
1970-01-01 00:01:02.040987346,3697,1536703590996100336,base_link,0,1,40.5909939,-79.9005203,366.34137016,0.33639998064,0.0,0.0,0.0,0.33639998064,0.0,0.0,0.0,1.34559992256,1,63.7135947149434,64.55503177093584,366.3407249234706,-13.077515565585985,8.965842748762565,0.1748264352366614,0,Fixed-Wing
1970-01-01 00:01:02.379439434,3699,1536703591335208442,base_link,0,1,40.5910328,-79.900574,366.341299188,0.33639998064,0.0,0.0,0.0,0.33639998064,0.0,0.0,0.0,1.34559992256,1,59.167426974647526,68.87493285426856,366.34065238634037,-11.363487557854844,10.797917062431196,-0.00018131200251550255,0,Fixed-Wing
1970-01-01 00:01:02.786026596,3701,1536703591741737493,base_link,0,1,40.5910773,-79.9006174,366.311236387,0.33639998064,0.0,0.0,0.0,0.33639998064,0.0,0.0,0.0,1.34559992256,1,55.49323578422341,73.81673630480773,366.3105671511114,-9.183916710219558,12.352408716866055,-0.07520030402073315,0,Fixed-Wing
1970-01-01 00:01:03.196023914,3703,1536703592151782938,base_link,0,1,40.5911265,-79.9006495,366.531183152,0.33639998064,0.0,0.0,0.0,0.33639998064,0.0,0.0,0.0,1.34559992256,1,52.77568119688171,79.280497692871,366.5304712143609,-6.792731703964564,13.65708176625789,0.5496667147822047,0,Fixed-Wing
1970-01-01 00:01:03.584951438,3705,1536703592540006831,base_link,0,1,40.5911785,-79.9006715,366.741139054,0.372100017452,0.0,0.0,0.0,0.372100017452,0.0,0.0,0.0,1.48840006981,1,50.91317152527093,85.05521291391301,366.74036766132656,-4.655482746959969,14.434334215788356,0.5246519265866606,0,Fixed-Wing
1970-01-01 00:01:04.032514188,3707,1536703592988358618,base_link,0,1,40.5912315,-79.9006859,366.801102296,0.372100017452,0.0,0.0,0.0,0.372100017452,0.0,0.0,0.0,1.48840006981,1,49.69406114146917,90.94098357084414,366.8002591034548,-3.047257925657045,14.711925614973278,0.14970315578406382,0,Fixed-Wing
1970-01-01 00:01:04.392551743,3709,1536703593348385838,base_link,0,1,40.5912852,-79.9006926,366.881073104,0.372100017452,0.0,0.0,0.0,0.372100017452,0.0,0.0,0.0,1.48840006981,1,49.12681596632071,96.90449585896852,366.88014627112284,-1.4178718996482031,14.90624665837902,0.1996839728947627,0,Fixed-Wing
1970-01-01 00:01:04.820898603,3711,1536703593776105383,base_link,0,1,40.5913387,-79.9006938,367.01104961,0.372100017452,0.0,0.0,0.0,0.372100017452,0.0,0.0,0.0,1.48840006981,1,49.025188749770216,102.84580176539066,367.01003029954256,-0.25402485715052747,14.850740140231522,0.3246548797197577,0,Fixed-Wing
1970-01-01 00:01:05.228327091,3713,1536703594184240736,base_link,0,1,40.5913918,-79.9006926,367.241028742,0.372100017452,0.0,0.0,0.0,0.372100017452,0.0,0.0,0.0,1.48840006981,1,49.12674072125241,108.74269004637011,367.23991060433445,0.25383677645349007,14.739714950906981,0.5746030794562198,0,Fixed-Wing
1970-01-01 00:01:05.576153237,3715,1536703594531933189,base_link,0,1,40.5914444,-79.900691,367.301008502,0.372100017452,0.0,0.0,0.0,0.372100017452,0.0,0.0,0.0,1.48840006981,1,49.26215456558319,114.58404975446274,367.2997868104882,0.33847706972509056,14.60091711432213,0.14966507232199838,0,Fixed-Wing
1970-01-01 00:01:05.963799744,3717,1536703594919085659,base_link,0,1,40.5914968,-79.9006902,367.370987544,0.372100017452,0.0,0.0,0.0,0.372100017452,0.0,0.0,0.0,1.48840006981,1,49.32984253763055,120.40319888430872,367.3696578740638,0.16919116761990294,14.545400106596835,0.17464796878442412,0,Fixed-Wing
1970-01-01 00:01:06.374794854,3719,1536703595330458936,base_link,0,1,40.5915487,-79.9006913,367.520964874,0.372100017452,0.0,0.0,0.0,0.372100017452,0.0,0.0,0.0,1.48840006981,1,49.23668253223077,126.16682249961585,367.5195242481808,-0.2328604272268067,14.406609914582335,0.3746022529094607,0,Fixed-Wing
1970-01-01 00:01:06.793102432,3721,1536703595749018189,base_link,0,1,40.5916003,-79.900695,367.610939695,0.372100017452,0.0,0.0,0.0,0.372100017452,0.0,0.0,0.0,1.48840006981,1,48.923413625261105,131.89712801657384,367.6093852717198,-0.7830391507685397,14.32332882649449,0.22461437440388923,0,Fixed-Wing
1970-01-01 00:01:07.229694415,3723,1536703596185656634,base_link,0,1,40.5916515,-79.9007018,367.63091154,0.348099969053,0.0,0.0,0.0,0.348099969053,0.0,0.0,0.0,1.39239987621,1,48.34770773200492,137.58300956220404,367.62924109452337,-1.4390200997235087,14.212287775153714,0.049631119718521535,0,Fixed-Wing
1970-01-01 00:01:07.590781738,3725,1536703596546250528,base_link,0,1,40.5917021,-79.9007112,367.630881001,0.348099969053,0.0,0.0,0.0,0.348099969053,0.0,0.0,0.0,1.39239987621,1,47.551894523622295,143.20225791730627,367.6290925453173,-1.9891948578307332,14.045733113126342,-0.00037130989250269204,0,Fixed-Wing
1970-01-01 00:01:07.994196625,3727,1536703596949707814,base_link,0,1,40.5917525,-79.9007222,367.520848931,0.31360000267,0.0,0.0,0.0,0.31360000267,0.0,0.0,0.0,1.25440001068,1,46.620630588443845,148.79929249784016,367.51893890958115,-2.3277641180460567,13.990208115955005,-0.2753372820024088,0,Fixed-Wing
1970-01-01 00:01:08.446339364,3729,1536703597402145779,base_link,0,1,40.5918029,-79.900734,367.290816061,0.33639998064,0.0,0.0,0.0,0.33639998064,0.0,0.0,0.0,1.34559992256,1,45.62164164876904,154.3963237231793,367.28877990287947,-2.497047851052328,13.990199729393881,-0.5752997158025216,0,Fixed-Wing
1970-01-01 00:01:08.796986119,3731,1536703597752808597,base_link,0,1,40.5918535,-79.9007452,367.060783733,0.31360000267,0.0,0.0,0.0,0.31360000267,0.0,0.0,0.0,1.25440001068,1,44.673448290697564,160.01556551774317,367.05861544110496,-2.370080481496841,14.04571671456818,-0.5753133511665689,0,Fixed-Wing
1970-01-01 00:01:09.197506753,3733,1536703598152526082,base_link,0,1,40.5919047,-79.9007553,366.830752291,0.31360000267,0.0,0.0,0.0,0.31360000267,0.0,0.0,0.0,1.25440001068,1,43.81837855997668,165.70143908103387,366.82844438859547,-2.1373109839349436,14.212267822696889,-0.5753298252034416,0,Fixed-Wing
1970-01-01 00:01:09.629029829,3735,1536703598583602384,base_link,0,1,40.5919565,-79.9007638,366.410722244,0.31360000267,0.0,0.0,0.0,0.31360000267,0.0,0.0,0.0,1.25440001068,1,43.09875935903244,171.45393949901347,366.40826683249304,-1.7987422161838413,14.378806647818882,-1.0502653451474013,0,Fixed-Wing
1970-01-01 00:01:09.991101748,3737,1536703598946982817,base_link,0,1,40.5920092,-79.9007702,365.980693976,0.31360000267,0.0,0.0,0.0,0.31360000267,0.0,0.0,0.0,1.25440001068,1,42.55691978234007,177.30638719021886,365.97808180487453,-1.3543686990520991,14.628632360512174,-1.0752797714851137,0,Fixed-Wing
1970-01-01 00:01:10.372217024,3739,1536703599325759619,base_link,0,1,40.5920621,-79.9007729,365.760669404,0.31360000267,0.0,0.0,0.0,0.31360000267,0.0,0.0,0.0,1.25440001068,1,42.32831189431552,183.18105248309845,365.7578923370152,-0.571422578223073,14.684166923821946,-0.5503801050304286,0,Fixed-Wing
1970-01-01 00:01:10.776943206,3741,1536703599732662007,base_link,0,1,40.5921153,-79.9007705,365.710649911,0.31360000267,0.0,0.0,0.0,0.31360000267,0.0,0.0,0.0,1.25440001068,1,42.531453751929234,189.0890406570659,365.7076986659609,0.5077683234193078,14.76745996672429,-0.12546284895150445,0,Fixed-Wing
1970-01-01 00:01:11.196623116,3743,1536703600151826025,base_link,0,1,40.5921686,-79.9007622,365.660636392,0.31360000267,0.0,0.0,0.0,0.31360000267,0.0,0.0,0.0,1.25440001068,1,43.23406849964593,195.00813691906814,365.6575017741173,1.7562383087792437,14.795225466676234,-0.1254708995560699,0,Fixed-Wing
1970-01-01 00:01:11.623017615,3745,1536703600578381160,base_link,0,1,40.5922208,-79.9007475,365.710629849,0.31360000267,0.0,0.0,0.0,0.31360000267,0.0,0.0,0.0,1.25440001068,1,44.47848463547129,200.80508192088496,365.7073063807414,3.1105115525994607,14.489899221674374,0.12449035320018882,0,Fixed-Wing
1970-01-01 00:01:11.979912866,3747,1536703600935418584,base_link,0,1,40.5922719,-79.9007261,365.690630585,0.31360000267,0.0,0.0,0.0,0.31360000267,0.0,0.0,0.0,1.25440001068,1,46.29009670387829,206.47987084285498,365.68711262267726,4.528260366755155,14.184560929567024,-0.05047581427188445,0,Fixed-Wing
1970-01-01 00:01:12.450033793,3749,1536703601405638228,base_link,0,1,40.5923206,-79.900697,365.90064015,0.31360000267,0.0,0.0,0.0,0.31360000267,0.0,0.0,0.0,1.25440001068,1,48.753562961301306,211.88814630894865,365.8969260586844,6.157618848353318,13.518390538842572,0.5244444344640227,0,Fixed-Wing
1970-01-01 00:01:12.798131479,3751,1536703601751690714,base_link,0,1,40.5923666,-79.9006602,366.220658668,0.31360000267,0.0,0.0,0.0,0.31360000267,0.0,0.0,0.0,1.25440001068,1,51.86888184171838,216.99658969784173,366.2167478737105,7.7869734155620325,12.76893775281472,0.7994186363970693,0,Fixed-Wing
1970-01-01 00:01:13.201765467,3753,1536703602151276413,base_link,0,1,40.5924096,-79.900617,366.510684936,0.33639998064,0.0,0.0,0.0,0.33639998064,0.0,0.0,0.0,1.34559992256,1,55.52599861477713,221.7718806082745,366.5065787512125,9.14123792220011,11.936198122401125,0.7244540365687083,0,Fixed-Wing
1970-01-01 00:01:13.595968469,3755,1536703602551634055,base_link,0,1,40.5924492,-79.9005671,366.610719424,0.33639998064,0.0,0.0,0.0,0.33639998064,0.0,0.0,0.0,1.34559992256,1,59.750308455587486,226.16959325557224,366.606420321743,10.558979575498057,10.992412908049976,0.24956150087106813,0,Fixed-Wing
1970-01-01 00:01:13.996203073,3757,1536703602952074927,base_link,0,1,40.5924852,-79.9005113,366.580761399,0.33639998064,0.0,0.0,0.0,0.33639998064,0.0,0.0,0.0,1.34559992256,1,64.47408656947849,230.16751928422173,366.5762729983643,11.807438020264058,9.993116241862603,-0.07535549801205067,0,Fixed-Wing
1970-01-01 00:01:14.390309588,3759,1536703603346266111,base_link,0,1,40.5925168,-79.9004497,366.280811088,0.33639998064,0.0,0.0,0.0,0.33639998064,0.0,0.0,0.0,1.34559992256,1,69.68886631648903,233.67681222472362,366.27614001180075,13.034733462837666,8.77174115525834,-0.7502049315704826,0,Fixed-Wing
1970-01-01 00:01:14.821323751,3761,1536703603777143062,base_link,0,1,40.5925426,-79.900382,365.86086937,0.33639998064,0.0,0.0,0.0,0.33639998064,0.0,0.0,0.0,1.34559992256,1,75.42004744394376,236.54200516484957,365.85602732354937,14.325517480665118,7.161764850290328,-1.0501032030839235,0,Fixed-Wing
1970-01-01 00:01:15.195341417,3763,1536703604150992860,base_link,0,1,40.5925624,-79.9003086,365.380935922,0.33639998064,0.0,0.0,0.0,0.33639998064,0.0,0.0,0.0,1.34559992256,1,81.63376903454308,238.74089064947862,365.37593536075724,15.531663593687375,5.496279344084119,-1.2000259025768878,0,Fixed-Wing
1970-01-01 00:01:15.582882921,3765,1536703604538671704,base_link,0,1,40.5925741,-79.9002299,364.961011199,0.33639998064,0.0,0.0,0.0,0.33639998064,0.0,0.0,0.0,1.34559992256,1,88.29617407872023,240.04026403317187,364.95587313030217,16.653181569576045,3.2478813194088274,-1.0499770800340777,0,Fixed-Wing
1970-01-01 00:01:15.991983120,3767,1536703604947361385,base_link,0,1,40.5925776,-79.9001471,364.571094025,0.33639998064,0.0,0.0,0.0,0.33639998064,0.0,0.0,0.0,1.34559992256,1,95.30567739790678,240.42901905509135,364.5658405395171,17.520779765406257,0.9717223619971588,-0.9749157412865818,0,Fixed-Wing
1970-01-01 00:01:16.409508938,3769,1536703605363378022,base_link,0,1,40.5925715,-79.9000616,364.201183552,0.33639998064,0.0,0.0,0.0,0.33639998064,0.0,0.0,0.0,1.34559992256,1,102.54376517665114,239.75168150206602,364.1958435250275,18.092143782417885,-1.6930560630325964,-0.9248353142206499,0,Fixed-Wing
1970-01-01 00:01:16.774312851,3771,1536703605729645997,base_link,0,1,40.5925553,-79.8999756,363.921277752,0.33639998064,0.0,0.0,0.0,0.33639998064,0.0,0.0,0.0,1.34559992256,1,109.82419948623959,237.95272589713747,363.9158842300898,18.197992115311543,-4.496624586141734,-0.6997792748675866,0,Fixed-Wing
1970-01-01 00:01:17.201029103,3773,1536703606155460478,base_link,0,1,40.5925296,-79.8998905,363.721374958,0.33639998064,0.0,0.0,0.0,0.33639998064,0.0,0.0,0.0,1.34559992256,1,117.02846430568715,235.09878164850517,363.715959595016,18.007600756490294,-7.133647901437512,-0.4997266341566556,0,Fixed-Wing
1970-01-01 00:01:17.586078804,3775,1536703606542011136,base_link,0,1,40.5924945,-79.8998086,363.651472792,0.33639998064,0.0,0.0,0.0,0.33639998064,0.0,0.0,0.0,1.34559992256,1,123.96185475488367,231.20095235622125,363.6460694644476,17.330529932902714,-9.74291693483087,-0.17469562816423786,0,Fixed-Wing
1970-01-01 00:01:17.990006559,3777,1536703606944611402,base_link,0,1,40.592452,-79.8997314,363.81156891,0.33639998064,0.0,0.0,0.0,0.33639998064,0.0,0.0,0.0,1.34559992256,1,130.49738774566126,226.4813431869373,363.8062051475135,16.336055347534877,-11.797017430246749,0.40027116156729076,0,Fixed-Wing
1970-01-01 00:01:18.405860745,3779,1536703607361662680,base_link,0,1,40.5924042,-79.8996588,364.241662552,0.384400005913,0.0,0.0,0.0,0.384400005913,0.0,0.0,0.0,1.53760002365,1,136.6435275601283,221.17316411245926,364.23635699522254,15.362737870729562,-13.268192093539183,1.0751968358105506,0,Fixed-Wing
1970-01-01 00:01:18.793309100,3781,1536703607748830850,base_link,0,1,40.5923539,-79.8995895,364.821753891,0.384400005913,0.0,0.0,0.0,0.384400005913,0.0,0.0,0.0,1.53760002365,1,142.51032002166204,215.58735816418448,364.8165118492182,14.66448819084193,-13.962141306664822,1.450140611085315,0,Fixed-Wing
