time,field.header.seq,field.header.stamp,field.header.frame_id,field.status.status,field.status.service,lat,lon,alt,field.position_covariance0,field.position_covariance1,field.position_covariance2,field.position_covariance3,field.position_covariance4,field.position_covariance5,field.position_covariance6,field.position_covariance7,field.position_covariance8,field.position_covariance_type,x,y,z,vel_x,vel_y,vel_z,track_id,uav_category
1970-01-01 00:00:00.000000000,4802,1538769975608240736,base_link,0,1,40.5907497,-79.8964417,361.095643467,0.462400009727,0.0,0.0,0.0,0.462400009727,0.0,0.0,0.0,1.84960003891,1,398.3423083185299,72.35011178541234,361.08281136909204,18.457299332449946,-11.299204623027533,2.0743489762951945,0,Fixed-Wing
1970-01-01 00:00:00.425787040,4804,1538769976033743072,base_link,0,1,40.590709,-79.8963545,361.925750217,0.462400009727,0.0,0.0,0.0,0.462400009727,0.0,0.0,0.0,1.84960003891,1,405.7248035336252,67.83068981790765,361.91250324958366,18.457299332449946,-11.299204623027533,2.0743489762951945,0,Fixed-Wing
1970-01-01 00:00:00.831905472,4806,1538769976440144992,base_link,0,1,40.5906735,-79.8962658,362.595856329,0.462400009727,0.0,0.0,0.0,0.462400009727,0.0,0.0,0.0,1.84960003891,1,413.2342547694788,63.88875158812968,362.58216876456777,18.774707635323004,-9.855412260649924,1.67426005741356,0,Fixed-Wing
1970-01-01 00:00:01.190426176,4808,1538769976798756192,base_link,0,1,40.5906424,-79.8961783,363.215959365,0.462400009727,0.0,0.0,0.0,0.462400009727,0.0,0.0,0.0,1.84960003891,1,420.6420945946643,60.43544422140559,363.2018220041764,18.520664501172508,-8.633764858289576,1.5492221792968697,0,Fixed-Wing
1970-01-01 00:00:01.577399488,4810,1538769977185718240,base_link,0,1,40.5906186,-79.8960889,363.866061274,0.462400009727,0.0,0.0,0.0,0.462400009727,0.0,0.0,0.0,1.84960003891,1,428.21074917861944,57.7928352509706,363.85144556048897,18.92272451654758,-6.606902322971051,1.6241522795375145,0,Fixed-Wing
1970-01-01 00:00:01.984185088,4812,1538769977590975520,base_link,0,1,40.5906038,-79.895997,364.386161943,0.462400009727,0.0,0.0,0.0,0.462400009727,0.0,0.0,0.0,1.84960003891,1,435.99098948727357,56.149715946825694,364.37103463028984,19.451719245491937,-4.108034472344419,1.2990473697259404,0,Fixed-Wing
1970-01-01 00:00:02.415588320,4814,1538769978021503552,base_link,0,1,40.5905983,-79.8959034,364.656260421,0.532900027847,0.0,0.0,0.0,0.532900027847,0.0,0.0,0.0,2.13160011139,1,443.9150750170861,55.53939793929561,364.64059268177766,19.811352977327555,-1.525882757083739,0.6739338799176458,0,Fixed-Wing
1970-01-01 00:00:02.806520736,4816,1538769978414692704,base_link,0,1,40.5906022,-79.8958086,364.656356147,0.532900027847,0.0,0.0,0.0,0.532900027847,0.0,0.0,0.0,2.13160011139,1,451.9406702855183,55.97298438323352,364.6401218135034,20.065141916740707,1.0840284414801655,-0.0011772383768289538,0,Fixed-Wing
1970-01-01 00:00:03.188390272,4818,1538769978796114944,base_link,0,1,40.590616,-79.8957141,364.306447367,0.462400009727,0.0,0.0,0.0,0.462400009727,0.0,0.0,0.0,1.84960003891,1,459.94077405359474,57.505993176172296,364.28962831975764,20.00140950123739,3.8327423650329218,-0.8762841207013736,0,Fixed-Wing
1970-01-01 00:00:03.591235744,4820,1538769979199611776,base_link,0,1,40.5906395,-79.8956211,363.62653293,0.462400009727,0.0,0.0,0.0,0.462400009727,0.0,0.0,0.0,1.84960003891,1,467.8137942823711,60.11620715176724,363.6091179997892,19.683682383677912,6.525910178822644,-1.7013736289047823,0,Fixed-Wing
1970-01-01 00:00:03.986480896,4822,1538769979594841760,base_link,0,1,40.5906734,-79.8955306,362.71661151,0.462400009727,0.0,0.0,0.0,0.462400009727,0.0,0.0,0.0,1.84960003891,1,475.47507066099314,63.88135740769084,362.69859419752487,19.15429231836346,9.4134169112814,-2.2764404009838617,0,Fixed-Wing
1970-01-01 00:00:04.414000448,4824,1538769980022276128,base_link,0,1,40.5907178,-79.8954449,361.686680703,0.462400009727,0.0,0.0,0.0,0.462400009727,0.0,0.0,0.0,1.84960003891,1,482.7298928011883,68.81253621795284,361.6680678165627,18.13809829113971,12.328655923370587,-2.5764640990910923,0,Fixed-Wing
1970-01-01 00:00:04.799177376,4826,1538769980406622528,base_link,0,1,40.5907751,-79.8953678,360.886735585,0.462400009727,0.0,0.0,0.0,0.462400009727,0.0,0.0,0.0,1.84960003891,1,489.2565661228013,75.17625011081057,360.8675541132027,16.317621567272553,15.910199568619523,-2.0013993388620466,0,Fixed-Wing
1970-01-01 00:00:05.173004928,4828,1538769980781375168,base_link,0,1,40.5908441,-79.8953028,360.216773072,0.518400041199,0.0,0.0,0.0,0.518400041199,0.0,0.0,0.0,2.07360016479,1,494.75878750547565,82.83921363668483,360.1970726326738,13.756344446491546,19.15851042903532,-1.6763000885773582,0,Fixed-Wing
1970-01-01 00:00:05.615144160,4830,1538769981223259552,base_link,0,1,40.5909227,-79.8952529,359.736790983,0.518400041199,0.0,0.0,0.0,0.518400041199,0.0,0.0,0.0,2.07360016479,1,498.9826042530353,91.56819869350485,359.71664235179105,10.560149077471014,21.823717505806638,-1.2011447680309837,0,Fixed-Wing
1970-01-01 00:00:06.004161216,4832,1538769981607015840,base_link,0,1,40.5910081,-79.8952194,359.366789177,0.518400041199,0.0,0.0,0.0,0.518400041199,0.0,0.0,0.0,2.07360016479,1,501.8179791303543,101.05224861601178,359.34627486716056,7.088844801873601,23.711488216839783,-0.9259719549636405,0,Fixed-Wing
1970-01-01 00:00:06.373103168,4834,1538769981981423584,base_link,0,1,40.5910971,-79.8952036,359.206767685,0.518400041199,0.0,0.0,0.0,0.518400041199,0.0,0.0,0.0,2.07360016479,1,503.15489375234296,110.93598923099373,359.18598355647845,3.342478747499688,24.71077240686826,-0.4007513199061746,0,Fixed-Wing
1970-01-01 00:00:06.801723264,4836,1538769982407927488,base_link,0,1,40.5911865,-79.8952062,359.136727151,0.518400041199,0.0,0.0,0.0,0.518400041199,0.0,0.0,0.0,2.07360016479,1,502.9341082879707,120.86404711391401,359.11577956961173,-0.5519954006662482,24.821571947687705,-0.17552005957021452,0,Fixed-Wing
1970-01-01 00:00:07.213221856,4838,1538769982820804800,base_link,0,1,40.5912741,-79.8952272,359.126668511,0.518400041199,0.0,0.0,0.0,0.518400041199,0.0,0.0,0.0,2.07360016479,1,501.155643077279,130.59210718186065,359.105668487985,-4.446418695804133,24.321548658914494,-0.025279157618429193,0,Fixed-Wing
1970-01-01 00:00:07.614633536,4840,1538769983222488512,base_link,0,1,40.591357,-79.895266,359.146593612,0.518400041199,0.0,0.0,0.0,0.518400041199,0.0,0.0,0.0,2.07360016479,1,497.87031765304397,139.79812192184585,359.125654898117,-8.2137858532742,23.016360290679696,0.049968898541645546,0,Fixed-Wing
1970-01-01 00:00:07.967588384,4842,1538769983575908192,base_link,0,1,40.591433,-79.8953198,359.13650626,0.518400041199,0.0,0.0,0.0,0.518400041199,0.0,0.0,0.0,2.07360016479,1,493.3151889025391,148.23779267714198,359.1157299411386,-11.38847671367323,21.100390160674575,-0.024813819240487287,0,Fixed-Wing
1970-01-01 00:00:08.381511392,4844,1538769983989884672,base_link,0,1,40.5915012,-79.8953852,359.056410325,0.518400041199,0.0,0.0,0.0,0.518400041199,0.0,0.0,0.0,2.07360016479,1,487.7780979055783,155.81119241779552,359.03587828864863,-13.843523495002925,18.934588090449054,-0.19964061056008814,0,Fixed-Wing
1970-01-01 00:00:08.827948000,4846,1538769984435984480,base_link,0,1,40.5915608,-79.8954593,358.996309118,0.518400041199,0.0,0.0,0.0,0.518400041199,0.0,0.0,0.0,2.07360016479,1,481.50456424560286,162.42949940697952,358.97608756459397,-15.684736022259884,16.546718909297265,-0.14948540554748066,0,Fixed-Wing
1970-01-01 00:00:09.180335360,4848,1538769984785424416,base_link,0,1,40.5916132,-79.8955387,359.076205538,0.518400041199,0.0,0.0,0.0,0.518400041199,0.0,0.0,0.0,2.07360016479,1,474.7824205927269,168.24821026495485,359.05633597293775,-16.806325495905906,14.547613632722213,0.20063255723148468,0,Fixed-Wing
1970-01-01 00:00:09.587842720,4850,1538769985196196928,base_link,0,1,40.5916609,-79.89562,359.356102017,0.547600014114,0.0,0.0,0.0,0.547600014114,0.0,0.0,0.0,2.19040005646,1,467.8994863080952,173.54497697008566,359.33659808494644,-17.20832519027766,13.242678216824483,0.7006955700170251,0,Fixed-Wing
1970-01-01 00:00:10.009733184,4852,1538769985617971392,base_link,0,1,40.5917062,-79.8957007,359.756000152,0.547600014114,0.0,0.0,0.0,0.547600014114,0.0,0.0,0.0,2.19040005646,1,461.0673805385649,178.5752315264067,359.73685384389773,-17.081246595504993,12.57635953147566,1.0006969374521257,0,Fixed-Wing
1970-01-01 00:00:10.379761248,4854,1538769985987986656,base_link,0,1,40.5917508,-79.8957795,360.085900559,0.547600014114,0.0,0.0,0.0,0.547600014114,0.0,0.0,0.0,2.19040005646,1,454.39613108056363,183.52776418310123,360.06709139149046,-16.679082692258014,12.382043609243855,0.8256413433590696,0,Fixed-Wing
1970-01-01 00:00:10.807078496,4856,1538769986415355712,base_link,0,1,40.5917957,-79.8958567,360.335802511,0.547600014114,0.0,0.0,0.0,0.547600014114,0.0,0.0,0.0,2.19040005646,1,447.86033320889675,188.51362482065304,360.31730917847847,-16.340434254136827,12.465368352559794,0.625580438345212,0,Fixed-Wing
1970-01-01 00:00:11.211811680,4858,1538769986818773024,base_link,0,1,40.5918413,-79.8959323,360.375705839,0.47609999671,0.0,0.0,0.0,0.47609999671,0.0,0.0,0.0,1.90439998684,1,441.45997538539797,193.5772298735292,360.357506022281,-16.001814663090077,12.659740567273042,0.1004978881348305,0,Fixed-Wing
1970-01-01 00:00:11.611972512,4860,1538769987220326176,base_link,0,1,40.5918876,-79.8960067,360.305610133,0.47609999671,0.0,0.0,0.0,0.47609999671,0.0,0.0,0.0,1.90439998684,1,435.1612022716758,198.71857964367376,360.28768404058167,-15.74783828500683,12.854113536889765,-0.17456499173528972,0,Fixed-Wing
1970-01-01 00:00:11.991995808,4862,1538769987599867200,base_link,0,1,40.5919348,-79.8960803,360.185514898,0.47609999671,0.0,0.0,0.0,0.47609999671,0.0,0.0,0.0,1.90439998684,1,428.9301542457593,203.95988404011078,360.16784441432185,-15.578515829451426,13.104014471924675,-0.2996162935864263,0,Fixed-Wing
1970-01-01 00:00:12.445496032,4864,1538769988053920896,base_link,0,1,40.5919833,-79.8961527,360.065420378,0.47609999671,0.0,0.0,0.0,0.47609999671,0.0,0.0,0.0,1.90439998684,1,422.8006950048445,209.34556725890405,360.0479836349489,-15.3245292627196,13.464982283464487,-0.2996691794102428,0,Fixed-Wing
1970-01-01 00:00:12.785560384,4866,1538769988393687648,base_link,0,1,40.5920336,-79.896223,359.975327288,0.47609999671,0.0,0.0,0.0,0.47609999671,0.0,0.0,0.0,1.90439998684,1,416.8490144583681,214.93116047291696,359.9580954960992,-14.880056969466699,13.964786010227844,-0.22473326928720272,0,Fixed-Wing
1970-01-01 00:00:13.171573888,4868,1538769988777797120,base_link,0,1,40.5920865,-79.8962903,359.905236215,0.47609999671,0.0,0.0,0.0,0.47609999671,0.0,0.0,0.0,1.90439998684,1,411.1512979148258,220.80550903977905,359.88817256992786,-14.245110452706777,14.68671590331968,-0.17481736742695175,0,Fixed-Wing
1970-01-01 00:00:13.570165824,4870,1538769989178220672,base_link,0,1,40.5921439,-79.8963518,359.785149238,0.47609999671,0.0,0.0,0.0,0.47609999671,0.0,0.0,0.0,1.90439998684,1,405.9445674798045,227.17962223074613,359.7681942256039,-13.017574598092674,15.93619930887796,-0.2999631086886344,0,Fixed-Wing
1970-01-01 00:00:13.989031008,4872,1538769989597072096,base_link,0,1,40.5922061,-79.8964056,359.66506818,0.47609999671,0.0,0.0,0.0,0.47609999671,0.0,0.0,0.0,1.90439998684,1,401.38967147018855,234.08682504118124,359.6481506530715,-11.387894827992506,17.268999993587403,-0.30012618858679724,0,Fixed-Wing
1970-01-01 00:00:14.374289888,4874,1538769989980635392,base_link,0,1,40.5922733,-79.8964495,359.644995213,0.47609999671,0.0,0.0,0.0,0.47609999671,0.0,0.0,0.0,1.90439998684,1,397.6728578581102,241.54934045942053,359.6280312459744,-9.29256835287614,18.6573613438755,-0.050301410073896484,0,Fixed-Wing
1970-01-01 00:00:14.805968480,4876,1538769990413637856,base_link,0,1,40.5923445,-79.8964828,359.564931471,0.384400005913,0.0,0.0,0.0,0.384400005913,0.0,0.0,0.0,1.53760002365,1,394.8533800968795,249.4561121446714,359.5478373409918,-7.049099726311014,19.768065876915106,-0.20049629099321525,0,Fixed-Wing
1970-01-01 00:00:15.189042080,4878,1538769990797184224,base_link,0,1,40.592419,-79.8965041,359.344878679,0.384400005913,0.0,0.0,0.0,0.384400005913,0.0,0.0,0.0,1.53760002365,1,393.0497535824316,257.7294052461163,359.32756605278416,-4.509325572340156,20.68442210788343,-0.5507098863375673,0,Fixed-Wing
1970-01-01 00:00:15.584929856,4880,1538769991192974432,base_link,0,1,40.5924951,-79.8965124,359.054838567,0.36000002861,0.0,0.0,0.0,0.36000002861,0.0,0.0,0.0,1.44000011444,1,392.3466454328746,266.1804369223977,359.0372212396221,-1.7578714515009877,21.12879409636401,-0.7259037723720382,0,Fixed-Wing
1970-01-01 00:00:15.969481632,4882,1538769991577822208,base_link,0,1,40.5925718,-79.8965058,358.844813492,0.36000002861,0.0,0.0,0.0,0.36000002861,0.0,0.0,0.0,1.44000011444,1,392.90491309243436,274.6981692145176,358.82679982001093,1.3957494044901593,21.29555522472514,-0.526083798846383,0,Fixed-Wing
1970-01-01 00:00:16.389977984,4884,1538769991998263168,base_link,0,1,40.5926465,-79.8964829,358.774805963,0.36000002861,0.0,0.0,0.0,0.36000002861,0.0,0.0,0.0,1.44000011444,1,394.8430892262239,282.9938756820282,358.75630922512084,4.845718963314311,20.740458745154413,-0.17623662083091948,0,Fixed-Wing
1970-01-01 00:00:16.801241024,4886,1538769992409463712,base_link,0,1,40.5927159,-79.8964434,358.914817649,0.547600014114,0.0,0.0,0.0,0.547600014114,0.0,0.0,0.0,2.19040005646,1,398.1865901321014,290.70108988861955,358.89576590387975,8.359232920586624,19.269143492229166,0.348661744947595,0,Fixed-Wing
1970-01-01 00:00:17.228339744,4888,1538769992836665600,base_link,0,1,40.5927776,-79.8963885,359.20484831,0.372100017452,0.0,0.0,0.0,0.372100017452,0.0,0.0,0.0,1.48840006981,1,402.8338365282971,297.55328057577844,359.1851884280176,11.618784070573373,17.13146177694941,0.723597917224931,0,Fixed-Wing
1970-01-01 00:00:17.585536096,4890,1538769993193921856,base_link,0,1,40.5928311,-79.8963224,359.484893848,0.372100017452,0.0,0.0,0.0,0.372100017452,0.0,0.0,0.0,1.48840006981,1,408.42926633112575,303.494897241656,359.4645980079205,13.989378896358087,14.854895821203655,0.6985641171938558,0,Fixed-Wing
1970-01-01 00:00:17.988126624,4892,1538769993596337792,base_link,0,1,40.5928732,-79.896247,359.654953637,0.518400041199,0.0,0.0,0.0,0.518400041199,0.0,0.0,0.0,2.07360016479,1,414.81204722430266,308.17056061284813,359.6340217458371,15.957869810456385,11.6898305932394,0.42358370085441216,0,Fixed-Wing
1970-01-01 00:00:18.395313024,4894,1538769994003323680,base_link,0,1,40.5929004,-79.8961644,360.165026973,0.518400041199,0.0,0.0,0.0,0.518400041199,0.0,0.0,0.0,2.07360016479,1,421.80445590608275,311.19160114305475,360.14349013056085,17.482026920998184,7.553035625064989,1.2737442021009509,0,Fixed-Wing
1970-01-01 00:00:18.834419744,4896,1538769994440409760,base_link,0,1,40.5929157,-79.8960793,360.6151078,0.518400041199,0.0,0.0,0.0,0.518400041199,0.0,0.0,0.0,2.07360016479,1,429.0085707251709,312.89113508189917,360.59300782288636,18.011322698775547,4.249079169163254,1.1238588526978162,0,Fixed-Wing
1970-01-01 00:00:19.167451264,4898,1538769994775613344,base_link,0,1,40.5929196,-79.8959941,360.685193457,0.518400041199,0.0,0.0,0.0,0.518400041199,0.0,0.0,0.0,2.07360016479,1,436.22119695474197,313.3246612278782,360.66258365198473,18.032602448568472,1.0838776879146663,0.1739495748464762,0,Fixed-Wing
1970-01-01 00:00:19.594416736,4900,1538769995202738912,base_link,0,1,40.592914,-79.8959102,360.665281724,0.518400041199,0.0,0.0,0.0,0.518400041199,0.0,0.0,0.0,2.07360016479,1,443.3238268883432,312.70318612797803,360.64221348763925,17.757595895767096,-1.553777091933238,-0.05092833924320454,0,Fixed-Wing
1970-01-01 00:00:19.992898592,4902,1538769995599086848,base_link,0,1,40.5928977,-79.8958309,360.21536972,0.518400041199,0.0,0.0,0.0,0.518400041199,0.0,0.0,0.0,2.07360016479,1,450.037084156304,310.8934132135805,360.1919207085904,16.78410825612669,-4.5246924558099915,-1.1257966809313529,0,Fixed-Wing
1970-01-01 00:00:20.387165856,4904,1538769995994692768,base_link,0,1,40.5928703,-79.8957593,359.915454438,0.518400041199,0.0,0.0,0.0,0.518400041199,0.0,0.0,0.0,2.07360016479,1,456.09858244065526,307.85093313946567,359.8917234157541,15.154617101361511,-7.606637566947221,-0.7505363879330248,0,Fixed-Wing
1970-01-01 00:00:20.827314144,4906,1538769996435543936,base_link,0,1,40.5928327,-79.8956976,359.665533253,0.518400041199,0.0,0.0,0.0,0.518400041199,0.0,0.0,0.0,2.07360016479,1,461.32206879492196,303.67567508075916,359.6416277565217,13.05946680500803,-10.4387453746253,-0.6252751013992953,0,Fixed-Wing
1970-01-01 00:00:21.204491808,4908,1538769996812750656,base_link,0,1,40.592788,-79.8956464,359.545604268,0.462400009727,0.0,0.0,0.0,0.462400009727,0.0,0.0,0.0,1.84960003891,1,465.6567353674881,298.7119001065235,359.521619208003,10.837289575566004,-12.410151019272762,-0.3000386235175604,0,Fixed-Wing
1970-01-01 00:00:21.628490720,4910,1538769997236655424,base_link,0,1,40.5927391,-79.8956046,359.745667408,0.462400009727,0.0,0.0,0.0,0.462400009727,0.0,0.0,0.0,1.84960003891,1,469.1956970164818,293.2816727685728,359.7216759889937,8.847912877474647,-13.576348984943447,0.5001707122926528,0,Fixed-Wing
1970-01-01 00:00:22.014465312,4912,1538769997622731968,base_link,0,1,40.5926894,-79.8955695,360.175724031,0.462400009727,0.0,0.0,0.0,0.462400009727,0.0,0.0,0.0,1.84960003891,1,472.16749311755876,287.762579410101,360.15176562802196,7.429917472947097,-13.798526811471069,1.0752859265114427,0,Fixed-Wing
1970-01-01 00:00:22.382170560,4914,1538769997990546560,base_link,0,1,40.5926406,-79.895539,360.715775581,0.462400009727,0.0,0.0,0.0,0.462400009727,0.0,0.0,0.0,1.84960003891,1,474.74987902497526,282.34341371048833,360.69186854450834,6.456336007861688,-13.548693298896378,1.3503349354747292,0,Fixed-Wing
1970-01-01 00:00:22.817343584,4916,1538769998425634016,base_link,0,1,40.592591,-79.8955148,361.18582102,0.348099969053,0.0,0.0,0.0,0.348099969053,0.0,0.0,0.0,1.39239987621,1,476.79893743750097,276.83536897874654,361.1620033914186,5.122940600398798,-13.770903656314713,1.1754047030460284,0,Fixed-Wing
1970-01-01 00:00:23.182569952,4918,1538769998790784288,base_link,0,1,40.5925408,-79.8954982,361.335858929,0.462400009727,0.0,0.0,0.0,0.462400009727,0.0,0.0,0.0,1.84960003891,1,478.2045941643505,271.26063769173135,361.3121763249522,3.514343891897641,-13.937629631241789,0.37545392243456704,0,Fixed-Wing
1970-01-01 00:00:23.592885472,4920,1538769999201288064,base_link,0,1,40.5924891,-79.8954894,361.185889478,0.462400009727,0.0,0.0,0.0,0.462400009727,0.0,0.0,0.0,1.84960003891,1,478.94992426244926,265.5192729596306,361.16239320736236,1.8634323926094445,-14.354237198890807,-0.374479326535861,0,Fixed-Wing
1970-01-01 00:00:23.981199744,4922,1538769999589261184,base_link,0,1,40.592437,-79.8954913,360.625909231,0.348099969053,0.0,0.0,0.0,0.348099969053,0.0,0.0,0.0,1.39239987621,1,478.7894074570594,259.73341272020224,360.6026638043272,-0.40131508909231056,-14.465482363806816,-1.399403973316303,0,Fixed-Wing
1970-01-01 00:00:24.389385792,4924,1538769999997826368,base_link,0,1,40.5923856,-79.8955083,359.895913217,0.348099969053,0.0,0.0,0.0,0.348099969053,0.0,0.0,0.0,1.39239987621,1,477.35056501969893,254.0252014304404,359.87300592756594,-3.5973129388951097,-14.271348826962136,-1.8242495862544095,0,Fixed-Wing
1970-01-01 00:00:24.777191840,4926,1538770000385468576,base_link,0,1,40.5923361,-79.89554,359.245901342,0.372100017452,0.0,0.0,0.0,0.372100017452,0.0,0.0,0.0,1.48840006981,1,474.6672671814984,248.52791493986803,359.22341110822526,-6.708630341745977,-13.744006506805086,-1.6240804329765899,0,Fixed-Wing
1970-01-01 00:00:25.203377440,4928,1538770000811355744,base_link,0,1,40.5922913,-79.895588,358.635870796,0.372100017452,0.0,0.0,0.0,0.372100017452,0.0,0.0,0.0,1.48840006981,1,470.6040391272088,243.55249066232045,358.6138736026053,-10.158654258343843,-12.439275952236189,-1.5239313901048879,0,Fixed-Wing
1970-01-01 00:00:25.619467776,4930,1538770001227751072,base_link,0,1,40.5922559,-79.8956552,358.525816641,0.372100017452,0.0,0.0,0.0,0.372100017452,0.0,0.0,0.0,1.48840006981,1,464.9153769753253,239.6208783405582,358.50438530512497,-14.222473171916219,-9.829596006176002,-0.27373648354858227,0,Fixed-Wing
1970-01-01 00:00:25.988183232,4932,1538770001596499392,base_link,0,1,40.5922332,-79.8957363,358.855742936,0.372100017452,0.0,0.0,0.0,0.372100017452,0.0,0.0,0.0,1.48840006981,1,458.0499309719585,237.0995785992256,358.8349020609245,-17.164601973030447,-6.303611811010628,0.8263394040145355,0,Fixed-Wing
1970-01-01 00:00:26.372860608,4934,1538770001981141120,base_link,0,1,40.5922233,-79.8958258,359.595655284,0.372100017452,0.0,0.0,0.0,0.372100017452,0.0,0.0,0.0,1.48840006981,1,450.4733092977538,235.9997266089916,359.5753941234791,-18.94264338750643,-2.749788088400049,1.8513366082414946,0,Fixed-Wing
1970-01-01 00:00:26.843492768,4936,1538770002451712736,base_link,0,1,40.5922259,-79.8959189,360.515558737,0.372100017452,0.0,0.0,0.0,0.372100017452,0.0,0.0,0.0,1.48840006981,1,442.5918507863735,236.28802469000723,360.49583784805486,-19.704779303260654,0.7207866477713105,2.301241632833292,0,Fixed-Wing
1970-01-01 00:00:27.176901696,4938,1538770002784725568,base_link,0,1,40.5922412,-79.8960119,361.55545701,0.372100017452,0.0,0.0,0.0,0.372100017452,0.0,0.0,0.0,1.48840006981,1,434.7187821706056,237.9867009185522,361.5362134843363,-19.68380335811289,4.246934770111703,2.601088653301198,0,Fixed-Wing
1970-01-01 00:00:27.616598240,4940,1538770003224881792,base_link,0,1,40.5922663,-79.896102,362.55535419,0.372100017452,0.0,0.0,0.0,0.372100017452,0.0,0.0,0.0,1.48840006981,1,427.0911529272639,240.7737117302234,362.5365203771494,-19.070169643108695,6.967927685019875,2.5009110344171224,0,Fixed-Wing
1970-01-01 00:00:28.007310016,4942,1538770003615724576,base_link,0,1,40.5922982,-79.896188,363.335252761,0.372100017452,0.0,0.0,0.0,0.372100017452,0.0,0.0,0.0,1.48840006981,1,419.8105608631993,244.31589851493035,363.3167665787589,-18.20252680545279,8.855976180397763,1.9507276708649328,0,Fixed-Wing
1970-01-01 00:00:28.394893568,4944,1538770004002416800,base_link,0,1,40.5923354,-79.8962695,364.165153759,0.348099969053,0.0,0.0,0.0,0.348099969053,0.0,0.0,0.0,1.39239987621,1,412.91089775644093,248.44669401323407,364.14695736720284,-17.250149650500894,10.327582581757731,2.075596317898101,0,Fixed-Wing
1970-01-01 00:00:28.814413696,4946,1538770004422059424,base_link,0,1,40.5923744,-79.8963475,364.90505762,0.348099969053,0.0,0.0,0.0,0.348099969053,0.0,0.0,0.0,1.39239987621,1,406.30752065929795,252.77740390236198,364.88711410673426,-16.509392032899346,10.827397298164435,1.8504982524780538,0,Fixed-Wing
1970-01-01 00:00:29.164440896,4948,1538770004772535200,base_link,0,1,40.5924126,-79.8964239,365.374963476,0.348099969053,0.0,0.0,0.0,0.348099969053,0.0,0.0,0.0,1.39239987621,1,399.83958745535404,257.01927510155656,365.35725817803564,-16.170762828722438,10.60528780203506,1.1754277653499492,0,Fixed-Wing
1970-01-01 00:00:29.606499200,4950,1538770005214551840,base_link,0,1,40.592448,-79.8965006,365.444870213,0.348099969053,0.0,0.0,0.0,0.348099969053,0.0,0.0,0.0,1.39239987621,1,393.34625559563096,260.9501880331083,365.4274080766461,-16.234263119437045,9.827847430106594,0.17538483115392262,0,Fixed-Wing
1970-01-01 00:00:29.998806112,4952,1538770005606872352,base_link,0,1,40.5924781,-79.8965792,365.134777227,0.348099969053,0.0,0.0,0.0,0.348099969053,0.0,0.0,0.0,1.39239987621,1,386.69209139792645,264.29250478521556,365.1175834354743,-16.6363670853687,8.356272365929168,-0.7746061427827476,0,Fixed-Wing
1970-01-01 00:00:30.400073216,4954,1538770006008397952,base_link,0,1,40.5925007,-79.89666,364.404685123,0.348099969053,0.0,0.0,0.0,0.348099969053,0.0,0.0,0.0,1.39239987621,1,379.85170797291,266.8019070124989,364.3877970445456,-17.10194192420178,6.273866315521435,-1.8245708901478488,0,Fixed-Wing
1970-01-01 00:00:30.805905248,4956,1538770006413919168,base_link,0,1,40.5925131,-79.896743,363.444595015,0.372100017452,0.0,0.0,0.0,0.372100017452,0.0,0.0,0.0,1.48840006981,1,372.82513071294784,268.17856159063194,363.42806304700406,-17.567453278468893,3.4418343508078477,-2.399472963549274,0,Fixed-Wing
1970-01-01 00:00:31.199370048,4958,1538770006807040800,base_link,0,1,40.5925124,-79.8968267,362.48450964,0.372100017452,0.0,0.0,0.0,0.372100017452,0.0,0.0,0.0,1.48840006981,1,365.7393703389474,268.1004334699411,362.46839061032,-17.715419571626406,-0.1953315332902863,-2.3993190525556694,0,Fixed-Wing
1970-01-01 00:00:31.578243584,4960,1538770007185337344,base_link,0,1,40.5924973,-79.8969071,361.594433624,0.372100017452,0.0,0.0,0.0,0.372100017452,0.0,0.0,0.0,1.48840006981,1,358.93305768159485,266.4231746554471,361.5787711331602,-17.016760107087602,-4.193388156053962,-2.224176583052984,0,Fixed-Wing
1970-01-01 00:00:31.980750208,4962,1538770007588735648,base_link,0,1,40.5924678,-79.8969792,360.854372084,0.372100017452,0.0,0.0,0.0,0.372100017452,0.0,0.0,0.0,1.48840006981,1,352.82947285761804,263.1468083371378,360.8391859957833,-15.259839500713298,-8.19138680051421,-1.8490691649193194,0,Fixed-Wing
1970-01-01 00:00:32.386898752,4964,1538770007995039072,base_link,0,1,40.5924271,-79.8970409,360.394325839,0.372100017452,0.0,0.0,0.0,0.372100017452,0.0,0.0,0.0,1.48840006981,1,347.60638049118745,258.6267141563587,360.37961145352693,-13.05848177877876,-11.300885252849922,-1.149002423280209,0,Fixed-Wing
1970-01-01 00:00:32.770520416,4966,1538770008378808736,base_link,0,1,40.5923801,-79.8970944,360.234290608,0.348099969053,0.0,0.0,0.0,0.348099969053,0.0,0.0,0.0,1.39239987621,1,343.07751118056865,253.4070385698075,360.22003109555726,-11.322824338946495,-13.049939337889867,-0.39897383591974916,0,Fixed-Wing
1970-01-01 00:00:33.213842976,4968,1538770008822166432,base_link,0,1,40.5923322,-79.8971451,360.294258625,0.348099969053,0.0,0.0,0.0,0.348099969053,0.0,0.0,0.0,1.39239987621,1,338.7856893446093,248.0874382981787,360.280437820717,-10.730171574763933,-13.29976541558336,0.15102549686541253,0,Fixed-Wing
1970-01-01 00:00:33.612811968,4970,1538770009221197312,base_link,0,1,40.5922865,-79.8971975,360.494223999,0.36000002861,0.0,0.0,0.0,0.36000002861,0.0,0.0,0.0,1.44000011444,1,334.3499420089074,243.01215444669504,360.48083278138785,-11.09000601460053,-12.688939242715644,0.5010162101092033,0,Fixed-Wing
1970-01-01 00:00:34.056738176,4972,1538770009664936480,base_link,0,1,40.5922435,-79.8972531,360.554184987,0.348099969053,0.0,0.0,0.0,0.348099969053,0.0,0.0,0.0,1.39239987621,1,329.64326761121004,238.23669701964013,360.5412189964031,-11.767362617593971,-11.939330079116806,0.15097421855563722,0,Fixed-Wing
1970-01-01 00:00:34.386166432,4974,1538770009994399776,base_link,0,1,40.592203,-79.8973122,360.334141364,0.348099969053,0.0,0.0,0.0,0.348099969053,0.0,0.0,0.0,1.39239987621,1,324.6402634399749,233.7388501341947,360.3215984222757,-12.508229651292817,-11.245263816283002,-0.5490830075913404,0,Fixed-Wing
1970-01-01 00:00:34.781880256,4976,1538770010390038432,base_link,0,1,40.5921658,-79.897376,360.01409157,0.348099969053,0.0,0.0,0.0,0.348099969053,0.0,0.0,0.0,1.39239987621,1,319.23934770033856,229.60745894111818,360.00197126609135,-13.503065775372914,-10.32907190432581,-0.7991138395066899,0,Fixed-Wing
1970-01-01 00:00:35.233042048,4978,1538770010841247008,base_link,0,1,40.5921322,-79.8974439,359.754036093,0.348099969053,0.0,0.0,0.0,0.348099969053,0.0,0.0,0.0,1.39239987621,1,313.49132116238985,225.87584794802683,359.7423340429939,-14.370892671200352,-9.329563932654505,-0.6491303827406492,0,Fixed-Wing
1970-01-01 00:00:35.630451680,4980,1538770011238661312,base_link,0,1,40.5921014,-79.8975149,359.593976289,0.348099969053,0.0,0.0,0.0,0.348099969053,0.0,0.0,0.0,1.39239987621,1,307.48084619253035,222.4551808362529,359.58268690721707,-15.02705148010886,-8.552159528607703,-0.39914079003748293,0,Fixed-Wing
1970-01-01 00:00:36.008053024,4982,1538770011616348800,base_link,0,1,40.5920725,-79.8975874,359.633914168,0.348099969053,0.0,0.0,0.0,0.348099969053,0.0,0.0,0.0,1.39239987621,1,301.3433821194331,219.24551989776472,359.62302868484,-15.344542493936522,-8.024613761511748,0.10086024352132139,0,Fixed-Wing
1970-01-01 00:00:36.383142592,4984,1538770011991524960,base_link,0,1,40.592044,-79.8976599,359.80385189,0.348099969053,0.0,0.0,0.0,0.348099969053,0.0,0.0,0.0,1.39239987621,1,295.20591693504923,216.08028932481506,359.793361281391,-15.344545272312834,-7.913531460433143,0.4258559780962912,0,Fixed-Wing
1970-01-01 00:00:36.793169280,4986,1538770012401525504,base_link,0,1,40.592015,-79.8977313,360.133790952,0.348099969053,0.0,0.0,0.0,0.348099969053,0.0,0.0,0.0,1.39239987621,1,289.1615778721065,212.85954645904928,360.12368538868003,-15.111716581060294,-8.052320172824366,0.8258577550434548,0,Fixed-Wing
1970-01-01 00:00:37.209718432,4988,1538770012817487040,base_link,0,1,40.5919855,-79.8978011,360.493731866,0.348099969053,0.0,0.0,0.0,0.348099969053,0.0,0.0,0.0,1.39239987621,1,283.2526870437,209.58328814978225,360.4839998224517,-14.773076522916242,-8.191116762381425,0.900837882607478,0,Fixed-Wing
1970-01-01 00:00:37.608272448,4990,1538770013216414144,base_link,0,1,40.5919549,-79.8978689,360.823675291,0.348099969053,0.0,0.0,0.0,0.348099969053,0.0,0.0,0.0,1.39239987621,1,277.5131069825497,206.18488193832545,360.8143062180783,-14.349775264953536,-8.496504077626467,0.8258134733411285,0,Fixed-Wing
1970-01-01 00:00:38.012448576,4992,1538770013620709184,base_link,0,1,40.591924,-79.8979355,360.923620074,0.348099969053,0.0,0.0,0.0,0.348099969053,0.0,0.0,0.0,1.39239987621,1,271.875100604341,202.75316048811698,360.9146037404872,-14.095826455542873,-8.579796963846597,0.25075822462025776,0,Fixed-Wing
1970-01-01 00:00:38.379130272,4994,1538770013986998112,base_link,0,1,40.591893,-79.8980012,360.903565827,0.348099969053,0.0,0.0,0.0,0.348099969053,0.0,0.0,0.0,1.39239987621,1,266.31327535038815,199.3103369408106,360.8948925758085,-13.905362693237013,-8.607553802609587,-0.04928074533963378,0,Fixed-Wing
1970-01-01 00:00:38.783750016,4996,1538770014392164640,base_link,0,1,40.5918611,-79.8980658,360.883513087,0.348099969053,0.0,0.0,0.0,0.348099969053,0.0,0.0,0.0,1.39239987621,1,260.84457098284344,195.76757374789577,360.8751754874397,-13.672547090319485,-8.8574172837809,-0.049295555416419334,0,Fixed-Wing
1970-01-01 00:00:39.183325664,4998,1538770014791740160,base_link,0,1,40.5918289,-79.8981296,360.733461296,0.348099969053,0.0,0.0,0.0,0.348099969053,0.0,0.0,0.0,1.39239987621,1,255.44358287459383,192.19149730498484,360.72545099025723,-13.503246707309685,-8.940705197826203,-0.3743327670903322,0,Fixed-Wing
1970-01-01 00:00:39.609351904,5000,1538770015217669792,base_link,0,1,40.5917968,-79.8981932,360.653409676,0.348099969053,0.0,0.0,0.0,0.348099969053,0.0,0.0,0.0,1.39239987621,1,250.05952358690283,188.62653283875034,360.6457190964253,-13.460922222255284,-8.912923658696624,-0.19934119669864409,0,Fixed-Wing
1970-01-01 00:00:40.005586048,5002,1538770015613977472,base_link,0,1,40.5917651,-79.8982568,360.613357896,0.348099969053,0.0,0.0,0.0,0.348099969053,0.0,0.0,0.0,1.39239987621,1,244.67545935635647,185.10599446226766,360.60597921501943,-13.460934580104249,-8.801852047699432,-0.0993554164511077,0,Fixed-Wing
1970-01-01 00:00:40.400463200,5004,1538770016004865792,base_link,0,1,40.5917341,-79.8983206,360.693305627,0.348099969053,0.0,0.0,0.0,0.348099969053,0.0,0.0,0.0,1.39239987621,1,239.27446071419675,181.6631995409678,360.6862307756056,-13.503273043599307,-8.607482233478049,0.20064043829067998,0,Fixed-Wing
1970-01-01 00:00:40.809333408,5006,1538770016417503616,base_link,0,1,40.5917036,-79.8983843,360.723253259,0.348099969053,0.0,0.0,0.0,0.348099969053,0.0,0.0,0.0,1.39239987621,1,233.8819190760658,178.27593349305022,360.716473938984,-13.482129317763146,-8.468652067287849,0.07561225615066022,0,Fixed-Wing
1970-01-01 00:00:41.189509760,5008,1538770016797626912,base_link,0,1,40.5916736,-79.8984479,360.773200791,0.348099969053,0.0,0.0,0.0,0.348099969053,0.0,0.0,0.0,1.39239987621,1,228.4978372068033,174.94419829851182,360.76670881824697,-13.46097867943032,-8.329816950820662,0.12559441983657363,0,Fixed-Wing
1970-01-01 00:00:41.607359072,5010,1538770017215663872,base_link,0,1,40.5916439,-79.8985112,360.753148512,0.372100017452,0.0,0.0,0.0,0.372100017452,0.0,0.0,0.0,1.48840006981,1,223.1391441208169,171.64578152638558,360.746935818644,-13.397503071392611,-8.246516104991649,-0.04943534153961867,0,Fixed-Wing
1970-01-01 00:00:42.001429056,5012,1538770017609756000,base_link,0,1,40.5916144,-79.8985738,360.773096871,0.348099969053,0.0,0.0,0.0,0.348099969053,0.0,0.0,0.0,1.39239987621,1,217.83970702901337,168.3695818977343,360.76715464232024,-13.24935456739644,-8.190970052406223,0.050549965813683005,0,Fixed-Wing
1970-01-01 00:00:42.382150016,5014,1538770017990418272,base_link,0,1,40.5915844,-79.8986354,360.803046466,0.348099969053,0.0,0.0,0.0,0.348099969053,0.0,0.0,0.0,1.39239987621,1,212.624924320221,165.0378625453812,360.7973672433648,-13.03770644010123,-8.329777343079988,0.07553584592259502,0,Fixed-Wing
1970-01-01 00:00:42.789161280,5016,1538770018397434528,base_link,0,1,40.5915542,-79.8986962,360.732996969,0.348099969053,0.0,0.0,0.0,0.348099969053,0.0,0.0,0.0,1.39239987621,1,207.4778600309919,161.68393570696088,360.72757311411965,-12.868400656110456,-8.385299250757685,-0.17449535659592266,0,Fixed-Wing
1970-01-01 00:00:43.175509024,5018,1538770018783425600,base_link,0,1,40.591524,-79.8987568,360.582947683,0.348099969053,0.0,0.0,0.0,0.348099969053,0.0,0.0,0.0,1.39239987621,1,202.34772013612968,158.33001098318655,360.57777274363116,-12.826087237171699,-8.385293963838738,-0.37452246126275324,0,Fixed-Wing
1970-01-01 00:00:43.603311776,5020,1538770019211604672,base_link,0,1,40.591494,-79.8988177,360.382898014,0.348099969053,0.0,0.0,0.0,0.348099969053,0.0,0.0,0.0,1.39239987621,1,197.192176554661,154.9982985367517,360.37796634731785,-12.889600105677804,-8.329760077291603,-0.4995447146043555,0,Fixed-Wing
1970-01-01 00:00:43.978266528,5022,1538770019586639168,base_link,0,1,40.5914644,-79.8988788,360.192847979,0.348099969053,0.0,0.0,0.0,0.348099969053,0.0,0.0,0.0,1.39239987621,1,192.01969638154767,151.71101060819151,360.1881531278392,-12.93194401956441,-8.218692396213221,-0.47456033591594327,0,Fixed-Wing
1970-01-01 00:00:44.395552256,5024,1538770020003920608,base_link,0,1,40.5914351,-79.8989405,360.032797213,0.348099969053,0.0,0.0,0.0,0.348099969053,0.0,0.0,0.0,1.39239987621,1,186.79641759477087,148.45704159836276,360.02833399975947,-13.058947856443751,-8.135390309514674,-0.39957079552007313,0,Fixed-Wing
1970-01-01 00:00:44.796260512,5026,1538770020404204640,base_link,0,1,40.5914062,-79.8990022,359.912746287,0.348099969053,0.0,0.0,0.0,0.348099969053,0.0,0.0,0.0,1.39239987621,1,181.57313456478303,145.24749826289553,359.90850776111995,-13.058958465081341,-8.024319737052958,-0.2995828226110966,0,Fixed-Wing
1970-01-01 00:00:45.230314176,5028,1538770020838526432,base_link,0,1,40.5913778,-79.8990641,359.902694954,0.348099969053,0.0,0.0,0.0,0.348099969053,0.0,0.0,0.0,1.39239987621,1,176.33291747395137,142.09348692737524,359.89867445462176,-13.101296051602125,-7.885481754001591,-0.024584679864578112,0,Fixed-Wing
1970-01-01 00:00:45.611396000,5030,1538770021210970400,base_link,0,1,40.5913496,-79.8991259,359.892643646,0.348099969053,0.0,0.0,0.0,0.348099969053,0.0,0.0,0.0,1.39239987621,1,171.10116120123502,138.96168995704687,359.8888345990308,-13.080142790001307,-7.829942647523149,-0.024601053537927943,0,Fixed-Wing
1970-01-01 00:00:46.009972896,5032,1538770021618119744,base_link,0,1,40.591321,-79.8991868,359.90259343,0.348099969053,0.0,0.0,0.0,0.348099969053,0.0,0.0,0.0,1.39239987621,1,165.94559378883528,135.78547788375295,359.89898897747617,-12.889659686431303,-7.940986789975236,0.02538740588921293,0,Fixed-Wing
1970-01-01 00:00:46.406111840,5034,1538770022014016032,base_link,0,1,40.5912926,-79.8992478,359.932543035,0.348099969053,0.0,0.0,0.0,0.348099969053,0.0,0.0,0.0,1.39239987621,1,160.78155623996656,132.63148007769752,359.92913717970805,-12.9108362452559,-7.885447928394455,0.07537483963299159,0,Fixed-Wing
1970-01-01 00:00:46.802224224,5036,1538770022409140256,base_link,0,1,40.5912641,-79.8993083,360.032493198,0.348099969053,0.0,0.0,0.0,0.348099969053,0.0,0.0,0.0,1.39239987621,1,155.65984498730444,129.46638291150524,360.02927939743813,-12.805014419984458,-7.913197924361357,0.25036994059678686,0,Fixed-Wing
1970-01-01 00:00:47.238198720,5038,1538770022846520992,base_link,0,1,40.591235,-79.8993684,360.192444026,0.348099969053,0.0,0.0,0.0,0.348099969053,0.0,0.0,0.0,1.39239987621,1,150.57199502131255,126.23465967581633,360.1894171208518,-12.72035633546902,-8.079772676151137,0.40036732965555705,0,Fixed-Wing
1970-01-01 00:00:47.607129824,5040,1538770023215201856,base_link,0,1,40.5912054,-79.8994285,360.32239507,0.348099969053,0.0,0.0,0.0,0.348099969053,0.0,0.0,0.0,1.39239987621,1,145.48414079037923,122.94741303303083,360.31955044251606,-12.720366998435702,-8.218589175841371,0.32535201190140633,0,Fixed-Wing
1970-01-01 00:00:47.977599744,5042,1538770023585353824,base_link,0,1,40.5911757,-79.8994885,360.462346264,0.348099969053,0.0,0.0,0.0,0.348099969053,0.0,0.0,0.0,1.39239987621,1,140.4047480603387,119.64906486262919,360.4596781832255,-12.699212029793022,-8.246344590818067,0.350339496294615,0,Fixed-Wing
1970-01-01 00:00:48.383221920,5044,1538770023991283744,base_link,0,1,40.5911459,-79.8995482,360.532297813,0.348099969053,0.0,0.0,0.0,0.348099969053,0.0,0.0,0.0,1.39239987621,1,135.35074664580537,116.33961397503452,360.52980019687925,-12.63573009081355,-8.274102979908005,0.1753151147534948,0,Fixed-Wing
1970-01-01 00:00:48.783462016,5046,1538770024391748256,base_link,0,1,40.5911153,-79.8996077,360.742249906,0.348099969053,0.0,0.0,0.0,0.348099969053,0.0,0.0,0.0,1.39239987621,1,130.31367659069906,112.94132739395062,360.7399182658467,-12.593399258223128,-8.49620498449638,0.5253253786279227,0,Fixed-Wing
1970-01-01 00:00:49.180756640,5048,1538770024789022656,base_link,0,1,40.591085,-79.8996682,360.982200861,0.348099969053,0.0,0.0,0.0,0.348099969053,0.0,0.0,0.0,1.39239987621,1,125.19194384855993,109.57635879878919,360.98003049577267,-12.805068146766263,-8.412905229954294,0.6003150929327323,0,Fixed-Wing
1970-01-01 00:00:49.566382560,5050,1538770025174708320,base_link,0,1,40.5910558,-79.8997298,361.092150239,0.348099969053,0.0,0.0,0.0,0.348099969053,0.0,0.0,0.0,1.39239987621,1,119.97707807144106,106.3335473617291,361.09013497253795,-13.037914122859249,-8.10749477359969,0.27527702034188606,0,Fixed-Wing
1970-01-01 00:00:49.983832992,5052,1538770025592129824,base_link,0,1,40.5910291,-79.8997924,361.192097556,0.348099969053,0.0,0.0,0.0,0.348099969053,0.0,0.0,0.0,1.39239987621,1,114.67754525993506,103.36836880110525,361.19022849391666,-13.249593880413117,-7.413372670488189,0.25024819271785675,0,Fixed-Wing
1970-01-01 00:00:50.390532256,5054,1538770025998509824,base_link,0,1,40.5910045,-79.8998558,361.002043184,0.348099969053,0.0,0.0,0.0,0.348099969053,0.0,0.0,0.0,1.39239987621,1,109.310273362714,100.63639821137951,361.00031202341256,-13.418951332754279,-6.8303192176693495,-0.47481847832275764,0,Fixed-Wing
1970-01-01 00:00:50.805694304,5056,1538770026413905888,base_link,0,1,40.590982,-79.8999202,360.431986919,0.348099969053,0.0,0.0,0.0,0.348099969053,0.0,0.0,0.0,1.39239987621,1,103.85833050019349,98.137634466988,360.4303857609468,-13.63064091815407,-6.247268578922064,-1.4248975877756525,0,Fixed-Wing
1970-01-01 00:00:51.200348384,5058,1538770026808781920,base_link,0,1,40.5909621,-79.8999869,359.551927224,0.348099969053,0.0,0.0,0.0,0.348099969053,0.0,0.0,0.0,1.39239987621,1,98.21166313252678,95.9276038820752,359.5504490839676,-14.11748017427679,-5.525394172446917,-2.199968190619064,0,Fixed-Wing
1970-01-01 00:00:51.596720768,5060,1538770027204859840,base_link,0,1,40.5909462,-79.9000569,358.341862496,0.348099969053,0.0,0.0,0.0,0.348099969053,0.0,0.0,0.0,1.39239987621,1,92.28561249733082,94.16177892547393,358.3404991010889,-14.815978506754046,-4.414816243437193,-3.0250488975083503,0,Fixed-Wing
1970-01-01 00:00:52.050493408,5062,1538770027653854560,base_link,0,1,40.5909368,-79.9001306,356.781791279,0.348099969053,0.0,0.0,0.0,0.348099969053,0.0,0.0,0.0,1.39239987621,1,86.04631388775641,93.11779018836268,356.7805303431367,-15.599143474685805,-2.610121924788798,-3.9001461532842208,0,Fixed-Wing
1970-01-01 00:00:52.394730816,5064,1538770028002829920,base_link,0,1,40.5909361,-79.9002088,355.391711839,0.348099969053,0.0,0.0,0.0,0.348099969053,0.0,0.0,0.0,1.39239987621,1,79.4260477789505,93.03995982424237,355.39053779123543,-16.551616989991693,-0.19458709905895194,-3.4751812026723705,0,Fixed-Wing
1970-01-01 00:00:52.791868864,5066,1538770028400284352,base_link,0,1,40.590945,-79.9002886,354.131626759,0.348099969053,0.0,0.0,0.0,0.348099969053,0.0,0.0,0.0,1.39239987621,1,72.67032287969849,94.02823697867115,354.1305186156315,-16.890283439427805,2.4708349590820773,-3.1502290771817614,0,Fixed-Wing
1970-01-01 00:00:53.193962720,5068,1538770028801512992,base_link,0,1,40.5909653,-79.9003679,353.151537432,0.348099969053,0.0,0.0,0.0,0.348099969053,0.0,0.0,0.0,1.39239987621,1,65.95692305053662,96.28251920047609,353.15046842613015,-16.78446467962376,5.636029626215863,-2.4502663640693223,0,Fixed-Wing
1970-01-01 00:00:53.594948000,5070,1538770029203066304,base_link,0,1,40.5909973,-79.9004429,352.24144761,0.462400009727,0.0,0.0,0.0,0.462400009727,0.0,0.0,0.0,1.84960003891,1,59.607548153413056,99.83612102034505,352.2403862436088,-15.874350017934932,8.884515409308433,-2.275336288139979,0,Fixed-Wing
1970-01-01 00:00:54.002733568,5072,1538770029611084672,base_link,0,1,40.5910401,-79.9005101,351.351361243,0.462400009727,0.0,0.0,0.0,0.462400009727,0.0,0.0,0.0,1.84960003891,1,53.918502944958675,104.58909547558704,351.35027408126257,-14.223430868410885,11.883119417471496,-2.2254083668466262,0,Fixed-Wing
1970-01-01 00:00:54.375425312,5074,1538770029982780224,base_link,0,1,40.5910918,-79.9005671,350.321281574,0.462400009727,0.0,0.0,0.0,0.462400009727,0.0,0.0,0.0,1.84960003891,1,49.09296708287555,110.33044013534209,350.3201363586552,-12.064533365876342,14.354187015140978,-2.575492397331292,0,Fixed-Wing
1970-01-01 00:00:54.812525312,5076,1538770030420879648,base_link,0,1,40.591151,-79.9006104,349.161212757,0.462400009727,0.0,0.0,0.0,0.462400009727,0.0,0.0,0.0,1.84960003891,1,45.42724283631547,116.90468152458362,349.1599772702601,-9.164837594561892,16.43654857464688,-2.9005645034467453,0,Fixed-Wing
1970-01-01 00:00:55.190165024,5078,1538770030798457440,base_link,0,1,40.5912161,-79.9006376,348.061157905,0.462400009727,0.0,0.0,0.0,0.462400009727,0.0,0.0,0.0,1.84960003891,1,43.124508153043166,124.13413863978144,348.0598014457229,-5.75716774532612,18.07468208221427,-2.7505977207119128,0,Fixed-Wing
1970-01-01 00:00:55.594435360,5080,1538770031202740096,base_link,0,1,40.5912847,-79.900647,347.091119749,0.462400009727,0.0,0.0,0.0,0.462400009727,0.0,0.0,0.0,1.84960003891,1,42.32867837954576,131.75228739704835,347.0896154263845,-1.9896888408518727,19.04646706502351,-2.425604520605862,0,Fixed-Wing
1970-01-01 00:00:56.010726560,5082,1538770031618944736,base_link,0,1,40.5913531,-79.9006411,346.111097282,0.462400009727,0.0,0.0,0.0,0.462400009727,0.0,0.0,0.0,1.84960003891,1,42.828106574077864,139.34823070341184,346.1094278106573,1.248642283261557,18.990950245547854,-2.450609949390169,0,Fixed-Wing
1970-01-01 00:00:56.431007232,5084,1538770032039295040,base_link,0,1,40.5914186,-79.9006214,344.931090095,0.462400009727,0.0,0.0,0.0,0.462400009727,0.0,0.0,0.0,1.84960003891,1,44.49580291016771,146.62212314319618,344.9292457652904,4.169480585358275,18.185776781625776,-2.9506247743417875,0,Fixed-Wing
1970-01-01 00:00:56.792001152,5086,1538770032400249888,base_link,0,1,40.5914784,-79.9005871,343.701100163,0.532900027847,0.0,0.0,0.0,0.532900027847,0.0,0.0,0.0,2.13160011139,1,47.399492121688084,153.26302338222774,343.6990784504224,7.259640458127274,16.603205281882623,-3.075595133890123,0,Fixed-Wing
1970-01-01 00:00:57.209861248,5088,1538770032817878720,base_link,0,1,40.5915308,-79.9005396,342.69112676,0.462400009727,0.0,0.0,0.0,0.462400009727,0.0,0.0,0.0,1.84960003891,1,51.4206545605261,159.082150590729,342.688931112937,10.053484172434962,14.548654568890818,-2.5255135607432946,0,Fixed-Wing
1970-01-01 00:00:57.617224864,5090,1538770033225340768,base_link,0,1,40.5915736,-79.9004811,342.021168557,0.462400009727,0.0,0.0,0.0,0.462400009727,0.0,0.0,0.0,1.84960003891,1,56.373046507592036,163.83519485073418,342.01881051170017,12.381691814944192,11.883293939414507,-1.6753978384677555,0,Fixed-Wing
1970-01-01 00:00:58.024150016,5092,1538770033632519328,base_link,0,1,40.5916076,-79.9004166,341.731220126,0.462400009727,0.0,0.0,0.0,0.462400009727,0.0,0.0,0.0,1.84960003891,1,61.83338405924694,167.61099821627053,341.7287132153437,13.651628847796003,9.440051216785834,-0.7252849447754848,0,Fixed-Wing
1970-01-01 00:00:58.393735840,5094,1538770034001585920,base_link,0,1,40.5916363,-79.9003503,341.711275735,0.462400009727,0.0,0.0,0.0,0.462400009727,0.0,0.0,0.0,1.84960003891,1,67.44610605693285,170.79823837775209,341.7086272653708,14.032611869397263,7.968558595823145,-0.05021776245357838,0,Fixed-Wing
1970-01-01 00:00:58.855376416,5096,1538770034463018208,base_link,0,1,40.5916629,-79.9002846,341.981331613,0.462400009727,0.0,0.0,0.0,0.462400009727,0.0,0.0,0.0,1.84960003891,1,73.00803473431047,173.7522810092193,341.9785420128349,13.905621266666888,7.385531246714729,0.6748256711363391,0,Fixed-Wing
1970-01-01 00:00:59.225081824,5098,1538770034833455200,base_link,0,1,40.5916888,-79.90022,341.981386666,0.462400009727,0.0,0.0,0.0,0.462400009727,0.0,0.0,0.0,1.84960003891,1,78.47683451538548,176.62858317943642,341.9784530224101,13.672785637861692,7.19116891775556,-0.00022248885507318317,0,Fixed-Wing
1970-01-01 00:00:59.587318432,5100,1538770035194251424,base_link,0,1,40.5917169,-79.9001578,341.731438369,0.462400009727,0.0,0.0,0.0,0.462400009727,0.0,0.0,0.0,1.84960003891,1,83.74244786237422,179.74919441337914,341.72835047069435,13.164790342916575,7.8019766985169765,-0.6252923335986069,0,Fixed-Wing
1970-01-01 00:00:59.993117824,5102,1538770035601037280,base_link,0,1,40.591749,-79.9000992,341.071484751,0.462400009727,0.0,0.0,0.0,0.462400009727,0.0,0.0,0.0,1.84960003891,1,88.70328128353624,183.3140016313481,341.06822818292414,12.402796713716093,8.912530515427042,-1.6504006174610217,0,Fixed-Wing
1970-01-01 00:01:00.396483264,5104,1538770036004277856,base_link,0,1,40.5917858,-79.900046,340.091523689,0.348099969053,0.0,0.0,0.0,0.348099969053,0.0,0.0,0.0,1.39239987621,1,93.20695186953834,187.40074052237696,340.0880839381049,11.259823904879784,10.217434730069124,-2.450501515885307,0,Fixed-Wing
1970-01-01 00:01:00.788186592,5106,1538770036395688480,base_link,0,1,40.591829,-79.9000003,339.08155234,0.348099969053,0.0,0.0,0.0,0.348099969053,0.0,0.0,0.0,1.39239987621,1,97.07568213123545,192.19820414855752,339.07791185910406,9.672381816197204,11.994348740503975,-2.525575418088601,0,Fixed-Wing
1970-01-01 00:01:01.213904704,5108,1538770036822235712,base_link,0,1,40.5918775,-79.8999632,338.121570041,0.348099969053,0.0,0.0,0.0,0.348099969053,0.0,0.0,0.0,1.39239987621,1,100.21635319214576,197.58423524590637,338.11771608340126,7.8521291497018755,13.465852029863836,-2.4006274753368326,0,Fixed-Wing
1970-01-01 00:01:01.589859488,5110,1538770037197576448,base_link,0,1,40.5919289,-79.8999322,337.361580336,0.348099969053,0.0,0.0,0.0,0.348099969053,0.0,0.0,0.0,1.39239987621,1,102.84061340867817,203.29231588102982,337.35750485286457,6.561027800429539,14.271022171583494,-1.900637362990115,0,Fixed-Wing
1970-01-01 00:01:02.008460512,5112,1538770037616796288,base_link,0,1,40.5919809,-79.8999033,336.701588254,0.348099969053,0.0,0.0,0.0,0.348099969053,0.0,0.0,0.0,1.39239987621,1,105.28709137242932,209.0670280440811,336.69728578931773,6.116546610807996,14.437610570235979,-1.6506425708149048,0,Fixed-Wing
1970-01-01 00:01:02.406741728,5114,1538770038006448096,base_link,0,1,40.5920317,-79.8998728,336.07159831,0.348099969053,0.0,0.0,0.0,0.348099969053,0.0,0.0,0.0,1.39239987621,1,107.86901750288435,214.7084805586083,336.0670648984319,6.45518649936129,14.10444229174978,-1.575642826677092,0,Fixed-Wing
1970-01-01 00:01:02.825913856,5116,1538770038434247488,base_link,0,1,40.59208,-79.8998377,335.401614097,0.348099969053,0.0,0.0,0.0,0.348099969053,0.0,0.0,0.0,1.39239987621,1,110.84036115194712,220.07230758219896,335.396846557343,7.428786277867912,13.41033865344922,-1.6756422021489035,0,Fixed-Wing
1970-01-01 00:01:03.183318880,5118,1538770038791611040,base_link,0,1,40.5921244,-79.8997964,334.501637822,0.348099969053,0.0,0.0,0.0,0.348099969053,0.0,0.0,0.0,1.39239987621,1,114.33657042823384,225.00303229223886,334.4966362033125,8.741025799700282,12.327520607534675,-2.25065529775585,0,Fixed-Wing
1970-01-01 00:01:03.579393952,5120,1538770039187038976,base_link,0,1,40.5921626,-79.8997476,333.401671759,0.348099969053,0.0,0.0,0.0,0.348099969053,0.0,0.0,0.0,1.39239987621,1,118.4677017993513,229.24523863651933,333.39644342938163,10.328422312076599,10.606125712929682,-2.7506400966327345,0,Fixed-Wing
1970-01-01 00:01:04.044793472,5122,1538770039652854016,base_link,0,1,40.592193,-79.8996921,332.131715751,0.348099969053,0.0,0.0,0.0,0.348099969053,0.0,0.0,0.0,1.39239987621,1,123.16603331538181,232.62124466544984,332.1262760240439,11.746504214068576,8.440500401099325,-3.175601110408245,0,Fixed-Wing
1970-01-01 00:01:04.389422112,5124,1538770039997683968,base_link,0,1,40.5922139,-79.8996314,330.941768971,0.348099969053,0.0,0.0,0.0,0.348099969053,0.0,0.0,0.0,1.39239987621,1,128.3045894525798,234.9422706587907,330.9361428136123,12.847129052915493,5.802898650024546,-2.9755041175656456,0,Fixed-Wing
1970-01-01 00:01:04.787799520,5126,1538770040396139584,base_link,0,1,40.5922242,-79.8995685,329.891828816,0.348099969053,0.0,0.0,0.0,0.348099969053,0.0,0.0,0.0,1.39239987621,1,133.62940754913757,236.08615889472338,329.8860511406996,13.312810728011303,2.8598850332211057,-2.6253801416400004,0,Fixed-Wing
1970-01-01 00:01:05.214122528,5128,1538770040822194048,base_link,0,1,40.5922235,-79.8995068,329.081891988,0.348099969053,0.0,0.0,0.0,0.348099969053,0.0,0.0,0.0,1.39239987621,1,138.8526631327233,236.00848805647377,329.07600578531856,13.058889845130443,-0.19418826144907514,-2.025229839168305,0,Fixed-Wing
1970-01-01 00:01:05.621268448,5130,1538770041229566496,base_link,0,1,40.5922122,-79.8994504,328.551954144,0.348099969053,0.0,0.0,0.0,0.348099969053,0.0,0.0,0.0,1.39239987621,1,143.62727007627805,234.75367387659878,328.546008783292,11.937203748102375,-3.1372158395982366,-1.3250686965164542,0,Fixed-Wing
1970-01-01 00:01:06.002400512,5132,1538770041610559328,base_link,0,1,40.5921923,-79.8994033,328.162010382,0.36000002861,0.0,0.0,0.0,0.36000002861,0.0,0.0,0.0,1.44000011444,1,147.61459966212888,232.54380732446552,328.15605526939356,9.968897176214707,-5.524984066917006,-0.9749398437871011,0,Fixed-Wing
1970-01-01 00:01:06.396243552,5134,1538770042003649728,base_link,0,1,40.5921668,-79.8993668,327.972058136,0.348099969053,0.0,0.0,0.0,0.348099969053,0.0,0.0,0.0,1.39239987621,1,150.70459501576224,229.7120423871571,327.9661337298669,7.725432596457685,-7.079819432888407,-0.47483115160788025,0,Fixed-Wing
