time,field.header.seq,field.header.stamp,field.header.frame_id,field.status.status,field.status.service,lat,lon,alt,field.position_covariance0,field.position_covariance1,field.position_covariance2,field.position_covariance3,field.position_covariance4,field.position_covariance5,field.position_covariance6,field.position_covariance7,field.position_covariance8,field.position_covariance_type,x,y,z,vel_x,vel_y,vel_z,track_id,uav_category
1970-01-01 00:00:00.000000000,3309,1536701837978539863,base_link,0,1,40.5913897,-79.8967845,377.935021704,0.36000002861,0.0,0.0,0.0,0.36000002861,0.0,0.0,0.0,1.44000011444,1,390.33094865523816,237.75161133671514,377.91865368998896,-16.79460730630543,3.550635058673382,-0.7488788738502324,0,Fixed-Wing
1970-01-01 00:00:00.437082265,3311,1536701838415590180,base_link,0,1,40.5914025,-79.8968639,377.634934961,0.33639998064,0.0,0.0,0.0,0.33639998064,0.0,0.0,0.0,1.34559992256,1,383.60904143774786,239.1727246138687,377.6189209117614,-16.79460730630543,3.550635058673382,-0.7488788738502324,0,Fixed-Wing
1970-01-01 00:00:00.843703576,3313,1536701838822028606,base_link,0,1,40.5914184,-79.8969412,377.264849081,0.33639998064,0.0,0.0,0.0,0.33639998064,0.0,0.0,0.0,1.34559992256,1,377.06489681345266,240.93811323365355,377.24915808646637,-16.350469526674363,4.410803013638893,-0.9238481351158216,0,Fixed-Wing
1970-01-01 00:00:01.185111246,3315,1536701839163616216,base_link,0,1,40.5914358,-79.8970177,376.954763404,0.372100017452,0.0,0.0,0.0,0.372100017452,0.0,0.0,0.0,1.48840006981,1,370.58847729669895,242.87009194863236,376.93937798528873,-16.181259130110554,4.827026436452974,-0.7739819938378203,0,Fixed-Wing
1970-01-01 00:00:01.590333853,3317,1536701839568828386,base_link,0,1,40.5914505,-79.8970949,376.394678159,0.372100017452,0.0,0.0,0.0,0.372100017452,0.0,0.0,0.0,1.48840006981,1,364.0528018874623,244.50222160678874,376.37960606876555,-16.329309290970613,4.077857041880595,-1.3985836482007765,0,Fixed-Wing
1970-01-01 00:00:02.025273100,3319,1536701840003316615,base_link,0,1,40.5914604,-79.897173,375.34459402,0.372100017452,0.0,0.0,0.0,0.372100017452,0.0,0.0,0.0,1.48840006981,1,357.44093686444717,245.60128176475263,375.32985301265916,-16.519668158302046,2.745989071521456,-2.6227958487774816,0,Fixed-Wing
1970-01-01 00:00:02.407873940,3321,1536701840386416428,base_link,0,1,40.5914649,-79.8972529,373.694510315,0.33639998064,0.0,0.0,0.0,0.33639998064,0.0,0.0,0.0,1.34559992256,1,350.6766877651769,246.10063326566865,373.68012494733586,-16.900398007381217,1.2476239398064686,-4.121826458300983,0,Fixed-Wing
1970-01-01 00:00:02.785804599,3323,1536701840762857403,base_link,0,1,40.5914633,-79.8973344,371.434427543,0.33639998064,0.0,0.0,0.0,0.33639998064,0.0,0.0,0.0,1.34559992256,1,343.77698954887046,245.92254049414524,371.4204241220284,-17.23881605705157,-0.4449627263590777,-5.645836332287586,0,Fixed-Wing
1970-01-01 00:00:03.184481307,3325,1536701841163028533,base_link,0,1,40.5914556,-79.8974177,368.724345498,0.33639998064,0.0,0.0,0.0,0.33639998064,0.0,0.0,0.0,1.34559992256,1,336.7249193952265,245.067009993448,368.7107507289826,-17.619515577185723,-2.137533044251297,-6.770087579628871,0,Fixed-Wing
1970-01-01 00:00:03.588035699,3327,1536701841566540733,base_link,0,1,40.5914421,-79.8975021,365.664264769,0.33639998064,0.0,0.0,0.0,0.33639998064,0.0,0.0,0.0,1.34559992256,1,329.57974088339967,243.56736541668016,365.6511002426832,-17.852145731399574,-3.7468446009360576,-7.644501292466567,0,Fixed-Wing
1970-01-01 00:00:04.003688232,3329,1536701841982233121,base_link,0,1,40.5914222,-79.8975887,362.584184483,0.33639998064,0.0,0.0,0.0,0.33639998064,0.0,0.0,0.0,1.34559992256,1,322.24834981839706,241.35698529806297,362.57147825020206,-18.317395638145438,-5.5226091180265815,-7.694399869281891,0,Fixed-Wing
1970-01-01 00:00:04.389387139,3331,1536701842367981390,base_link,0,1,40.5913956,-79.8976784,360.104103845,0.33639998064,0.0,0.0,0.0,0.33639998064,0.0,0.0,0.0,1.34559992256,1,314.65458458326583,238.40257557424644,360.0918875748795,-18.972934462478275,-7.381558466668978,-6.195228575018573,0,Fixed-Wing
1970-01-01 00:00:04.786178431,3333,1536701842764753027,base_link,0,1,40.5913617,-79.8977699,358.684024439,0.33639998064,0.0,0.0,0.0,0.33639998064,0.0,0.0,0.0,1.34559992256,1,306.90852022916346,234.63752722064942,358.672325001798,-19.35345204676764,-9.406929691529184,-3.5467606425149385,0,Fixed-Wing
1970-01-01 00:00:05.166978462,3335,1536701843145596467,base_link,0,1,40.5913234,-79.8978602,358.103948119,0.33639998064,0.0,0.0,0.0,0.33639998064,0.0,0.0,0.0,1.34559992256,1,299.26409939104525,230.383893201388,358.09276684040856,-19.09949689967122,-10.62765531668697,-1.448019351765824,0,Fixed-Wing
1970-01-01 00:00:05.639301664,3337,1536701843613228359,base_link,0,1,40.5912834,-79.8979483,358.233874776,0.33639998064,0.0,0.0,0.0,0.33639998064,0.0,0.0,0.0,1.34559992256,1,291.80595752940604,225.9415114878608,358.22319786569165,-18.634081035071798,-11.099239244075328,0.3258804055623532,0,Fixed-Wing
1970-01-01 00:00:06.010081876,3339,1536701843988511809,base_link,0,1,40.591244,-79.8980349,358.963802728,0.33639998064,0.0,0.0,0.0,0.33639998064,0.0,0.0,0.0,1.34559992256,1,284.4748169916798,221.565794185485,358.9536103970469,-18.316769698647924,-10.932678985153458,1.8249272474033902,0,Fixed-Wing
1970-01-01 00:00:06.392996178,3341,1536701844371018533,base_link,0,1,40.5912061,-79.8981198,359.823731802,0.33639998064,0.0,0.0,0.0,0.33639998064,0.0,0.0,0.0,1.34559992256,1,277.2875835799797,217.3566713468992,359.8140006976856,-17.957219411506305,-10.516444647452824,2.149675198101895,0,Fixed-Wing
1970-01-01 00:00:06.800944967,3343,1536701844779305018,base_link,0,1,40.5911711,-79.898203,360.883661408,0.33639998064,0.0,0.0,0.0,0.33639998064,0.0,0.0,0.0,1.34559992256,1,270.2442549670142,213.4696179515173,360.8743637726199,-17.59767493907567,-9.71175787494037,2.649304857896832,0,Fixed-Wing
1970-01-01 00:00:07.204036656,3345,1536701845182508814,base_link,0,1,40.5911387,-79.8982843,362.163591877,0.302500013113,0.0,0.0,0.0,0.302500013113,0.0,0.0,0.0,1.21000005245,1,263.36176524766404,209.87131893366825,362.15470142299046,-17.195820826775133,-8.990308408035784,3.198908786110755,0,Fixed-Wing
1970-01-01 00:00:07.598821558,3347,1536701845577382869,base_link,0,1,40.5911079,-79.8983636,363.483523728,0.324899991846,0.0,0.0,0.0,0.324899991846,0.0,0.0,0.0,1.29959996738,1,256.64857721438256,206.45071573832348,363.47501844193107,-16.772822525575734,-8.546337454202128,3.2987967753024763,0,Fixed-Wing
1970-01-01 00:00:07.991740442,3349,1536701845970355309,base_link,0,1,40.5910782,-79.8984414,364.303456661,0.348099969053,0.0,0.0,0.0,0.348099969053,0.0,0.0,0.0,1.39239987621,1,250.06234335177385,203.15226309671294,364.29531878064387,-16.45562900097618,-8.241145710871269,2.049510892691916,0,Fixed-Wing
1970-01-01 00:00:08.367359635,3351,1536701846345920306,base_link,0,1,40.5910496,-79.8985175,364.593390879,0.324899991846,0.0,0.0,0.0,0.324899991846,0.0,0.0,0.0,1.29959996738,1,243.61999618416772,199.97596111109527,364.5856025755156,-16.096129760510216,-7.935953712048385,0.7252706984068507,0,Fixed-Wing
1970-01-01 00:00:08.791773464,3353,1536701846770336727,base_link,0,1,40.5910221,-79.8985935,364.463324745,0.33639998064,0.0,0.0,0.0,0.33639998064,0.0,0.0,0.0,1.34559992256,1,237.1860892503851,196.9218093045096,364.45587384425744,-16.075041934086435,-7.63076290490673,-0.3241257320775505,0,Fixed-Wing
1970-01-01 00:00:09.186245831,3355,1536701847164786494,base_link,0,1,40.5909948,-79.8986693,364.193258741,0.33639998064,0.0,0.0,0.0,0.33639998064,0.0,0.0,0.0,1.34559992256,1,230.76910315230893,193.8898699209705,364.186136007715,-16.03276542211004,-7.5752654232666305,-0.6739368595560861,0,Fixed-Wing
1970-01-01 00:00:09.592008418,3357,1536701847570250792,base_link,0,1,40.5909675,-79.8987451,364.023192745,0.324899991846,0.0,0.0,0.0,0.324899991846,0.0,0.0,0.0,1.29959996738,1,224.35211588914103,190.85793933355674,364.01639028861814,-16.03276833307823,-7.5752434462494405,-0.42410771257602176,0,Fixed-Wing
1970-01-01 00:00:09.985462480,3359,1536701847963556478,base_link,0,1,40.5909394,-79.8988203,363.963127707,0.324899991846,0.0,0.0,0.0,0.324899991846,0.0,0.0,0.0,1.29959996738,1,217.98592490762562,187.73717728924697,363.9566385235278,-15.90585441186936,-7.797187812148078,-0.14928909282476172,0,Fixed-Wing
1970-01-01 00:00:10.409423753,3361,1536701848387684759,base_link,0,1,40.5909111,-79.8988945,364.003063784,0.324899991846,0.0,0.0,0.0,0.324899991846,0.0,0.0,0.0,1.29959996738,1,211.70439071154212,184.594215587041,363.9968778380967,-15.69434041425812,-7.852653400207825,0.10053746125820755,0,Fixed-Wing
1970-01-01 00:00:10.825627279,3363,1536701848804098796,base_link,0,1,40.5908825,-79.8989677,364.073001017,0.324899991846,0.0,0.0,0.0,0.324899991846,0.0,0.0,0.0,1.29959996738,1,205.50751111125084,181.41794663320303,364.0671088042842,-15.482831887436308,-7.935871182529475,0.17547125535931596,0,Fixed-Wing
1970-01-01 00:00:11.209825715,3365,1536701849188165854,base_link,0,1,40.5908539,-79.8990402,363.982938973,0.324899991846,0.0,0.0,0.0,0.324899991846,0.0,0.0,0.0,1.29959996738,1,199.36988178869018,178.24167988032428,363.97733104775745,-15.334795754969884,-7.935865683458373,-0.2243086845627332,0,Fixed-Wing
1970-01-01 00:00:11.578965307,3367,1536701849557505458,base_link,0,1,40.5908257,-79.8991125,363.952876973,0.324899991846,0.0,0.0,0.0,0.324899991846,0.0,0.0,0.0,1.29959996738,1,193.249179705143,175.10984131823608,363.94754411705554,-15.292503244405067,-7.824862363490602,-0.07442230126249307,0,Fixed-Wing
1970-01-01 00:00:11.984910106,3369,1536701849963529487,base_link,0,1,40.5907991,-79.8991851,364.382814002,0.324899991846,0.0,0.0,0.0,0.324899991846,0.0,0.0,0.0,1.29959996738,1,187.1030840933679,172.15570340718494,364.3777447484426,-15.35594868048608,-7.380879345623733,1.0748512934350665,0,Fixed-Wing
1970-01-01 00:00:12.393830847,3371,1536701850372302876,base_link,0,1,40.5907731,-79.8992569,364.892751604,0.324899991846,0.0,0.0,0.0,0.324899991846,0.0,0.0,0.0,1.29959996738,1,181.02471002183313,169.2682053765442,364.8879349755237,-15.186747196782866,-7.214380376474125,1.2747043715580204,0,Fixed-Wing
1970-01-01 00:00:12.816605496,3373,1536701850795067473,base_link,0,1,40.5907477,-79.8993285,365.202689165,0.324899991846,0.0,0.0,0.0,0.324899991846,0.0,0.0,0.0,1.29959996738,1,174.96325488412188,166.44733844564303,365.1981158599887,-15.144475436638956,-7.047903345728737,0.7749833462380566,0,Fixed-Wing
1970-01-01 00:00:13.187265982,3375,1536701851165792240,base_link,0,1,40.5907231,-79.8994003,365.172626193,0.324899991846,0.0,0.0,0.0,0.324899991846,0.0,0.0,0.0,1.29959996738,1,168.8848519071815,163.71530895770326,365.1682873723452,-15.186819416603873,-6.825944023715076,-0.074526130799614,0,Fixed-Wing
1970-01-01 00:00:13.593233479,3377,1536701851571717096,base_link,0,1,40.5906994,-79.8994726,364.992562339,0.324899991846,0.0,0.0,0.0,0.324899991846,0.0,0.0,0.0,1.29959996738,1,162.76410935876902,161.08322688094358,364.98844959438173,-15.292604345402268,-6.5762265748214155,-0.4493226047328486,0,Fixed-Wing
1970-01-01 00:00:13.973101062,3379,1536701851951422858,base_link,0,1,40.5906764,-79.8995452,364.952497893,0.324899991846,0.0,0.0,0.0,0.324899991846,0.0,0.0,0.0,1.29959996738,1,156.6179671256678,158.52888960395077,364.9486029575315,-15.356065163329227,-6.381982093315572,-0.09955636052752286,0,Fixed-Wing
1970-01-01 00:00:14.407649985,3381,1536701852386231528,base_link,0,1,40.5906548,-79.8996183,364.972432354,0.324899991846,0.0,0.0,0.0,0.324899991846,0.0,0.0,0.0,1.29959996738,1,150.42948983985386,156.13003137756286,364.9687454732702,-15.461838802059619,-5.993519486680347,0.050325842212241755,0,Fixed-Wing
1970-01-01 00:00:14.800978976,3383,1536701852779418513,base_link,0,1,40.5906342,-79.8996912,365.162366606,0.324899991846,0.0,0.0,0.0,0.324899991846,0.0,0.0,0.0,1.29959996738,1,144.2579419045984,153.8422350906365,365.15887781363824,-15.419541015824079,-5.716032517642705,0.47504344963310235,0,Fixed-Wing
1970-01-01 00:00:15.197890921,3385,1536701853176145781,base_link,0,1,40.5906147,-79.8997636,365.352300913,0.324899991846,0.0,0.0,0.0,0.324899991846,0.0,0.0,0.0,1.29959996738,1,138.12871677617062,151.6766021902668,365.34899959379504,-15.313797973295598,-5.4108087116537025,0.4750170650676364,0,Fixed-Wing
1970-01-01 00:00:15.610803891,3387,1536701853588580009,base_link,0,1,40.5905965,-79.8998353,365.582235394,0.324899991846,0.0,0.0,0.0,0.324899991846,0.0,0.0,0.0,1.29959996738,1,132.05874691872307,149.65534429261072,365.57911031476533,-15.165749365252887,-5.050089440028994,0.5749289703986282,0,Fixed-Wing
1970-01-01 00:00:16.001693688,3389,1536701853980183772,base_link,0,1,40.5905815,-79.8999076,365.662167924,0.348099969053,0.0,0.0,0.0,0.348099969053,0.0,0.0,0.0,1.39239987621,1,125.93796927557477,147.98945449049546,365.65920541921645,-15.292692029193091,-4.162206370434037,0.20011669053002434,0,Fixed-Wing
1970-01-01 00:00:16.402245761,3391,1536701854380637344,base_link,0,1,40.5905685,-79.8999804,365.64209911,0.324899991846,0.0,0.0,0.0,0.324899991846,0.0,0.0,0.0,1.29959996738,1,119.77485404523658,146.54567146471015,365.63928856058476,-15.39847200028531,-3.6072751629896613,-0.049762040544692174,0,Fixed-Wing
1970-01-01 00:00:16.790479034,3393,1536701854769046428,base_link,0,1,40.5905588,-79.9000537,365.562028404,0.324899991846,0.0,0.0,0.0,0.324899991846,0.0,0.0,0.0,1.29959996738,1,113.5694005555309,145.4683643935918,365.55935592213507,-15.504253650805452,-2.6916392360580725,-0.1997107711077068,0,Fixed-Wing
1970-01-01 00:00:17.220918853,3395,1536701855199517202,base_link,0,1,40.5905519,-79.9001269,365.60195663,0.324899991846,0.0,0.0,0.0,0.324899991846,0.0,0.0,0.0,1.29959996738,1,107.3724088202684,144.70201203643725,365.59940879736484,-15.483112055362756,-1.9147224857824652,0.10007164472937864,0,Fixed-Wing
1970-01-01 00:00:17.591953881,3397,1536701855570445438,base_link,0,1,40.5905483,-79.9002005,365.571883067,0.324899991846,0.0,0.0,0.0,0.324899991846,0.0,0.0,0.0,1.29959996738,1,101.14154623867654,144.3021356410672,365.56944601408964,-15.567737972506295,-0.9990865410677977,-0.07486166687956138,0,Fixed-Wing
1970-01-01 00:00:17.993837978,3399,1536701855971994240,base_link,0,1,40.5905482,-79.9002743,365.321807838,0.324899991846,0.0,0.0,0.0,0.324899991846,0.0,0.0,0.0,1.29959996738,1,94.8937431225948,144.29094258654342,365.3194669121907,-15.610063701664846,-0.02796571705061592,-0.6245698899638966,0,Fixed-Wing
1970-01-01 00:00:18.383604630,3401,1536701856362144973,base_link,0,1,40.590553,-79.9003478,365.241730862,0.324899991846,0.0,0.0,0.0,0.324899991846,0.0,0.0,0.0,1.29959996738,1,88.67133392329224,144.8239155736098,365.23946723722787,-15.546617294793053,1.331626833431741,-0.19987826105914644,0,Fixed-Wing
1970-01-01 00:00:18.794472859,3403,1536701856772522232,base_link,0,1,40.5905633,-79.9004195,365.20165342,0.324899991846,0.0,0.0,0.0,0.324899991846,0.0,0.0,0.0,1.29959996738,1,82.60130484378811,145.96768441144226,365.1994450383106,-15.165897330875131,2.8576931902010627,-0.09999500031794877,0,Fixed-Wing
1970-01-01 00:00:19.236919551,3405,1536701857215240932,base_link,0,1,40.5905798,-79.9004884,365.181576238,0.324899991846,0.0,0.0,0.0,0.324899991846,0.0,0.0,0.0,1.29959996738,1,76.7683146319686,147.7999858121079,365.1793983244924,-14.573658466176765,4.577983821452127,-0.05008648222376323,0,Fixed-Wing
1970-01-01 00:00:19.600363327,3407,1536701857578913913,base_link,0,1,40.5906029,-79.9005534,365.141500272,0.324899991846,0.0,0.0,0.0,0.324899991846,0.0,0.0,0.0,1.29959996738,1,71.26548810580968,150.365240129303,365.13932601888354,-13.748748322662072,6.409258191781718,-0.10012019130644373,0,Fixed-Wing
1970-01-01 00:00:19.995436817,3409,1536701857973935256,base_link,0,1,40.5906323,-79.9006129,365.10142728,0.324899991846,0.0,0.0,0.0,0.324899991846,0.0,0.0,0.0,1.29959996738,1,66.2282805650311,153.63013257553249,365.09922924868295,-12.585404682113776,8.157295951523032,-0.10018131580541631,0,Fixed-Wing
1970-01-01 00:00:20.391860674,3411,1536701858370382002,base_link,0,1,40.5906677,-79.9006651,365.281359224,0.302500013113,0.0,0.0,0.0,0.302500013113,0.0,0.0,0.0,1.21000005245,1,61.809080281938975,157.56135320057223,365.2791093495659,-11.041320708701546,9.822109186541498,0.4494283480567758,0,Fixed-Wing
1970-01-01 00:00:20.784500092,3413,1536701858762912643,base_link,0,1,40.5907075,-79.9007096,365.611297184,0.302500013113,0.0,0.0,0.0,0.302500013113,0.0,0.0,0.0,1.21000005245,1,58.041751138944534,161.98121604781375,365.6089716684585,-9.412628217414568,11.042976117552676,0.8241571821362936,0,Fixed-Wing
1970-01-01 00:00:21.225254145,3415,1536701859203803196,base_link,0,1,40.5907502,-79.9007471,365.801241077,0.302500013113,0.0,0.0,0.0,0.302500013113,0.0,0.0,0.0,1.21000005245,1,54.8670304899435,166.72313389513462,365.79882113754644,-7.932002760832275,11.847626804085722,0.4743366990169952,0,Fixed-Wing
1970-01-01 00:00:21.604001080,3417,1536701859582430758,base_link,0,1,40.590795,-79.9007779,365.911190931,0.302500013113,0.0,0.0,0.0,0.302500013113,0.0,0.0,0.0,1.21000005245,1,52.25952152748323,171.69826523595992,365.90866055010065,-6.514830933435952,12.430308015713743,0.27443249972318895,0,Fixed-Wing
1970-01-01 00:00:22.011249893,3419,1536701859989765011,base_link,0,1,40.5908416,-79.9008018,365.971147075,0.302500013113,0.0,0.0,0.0,0.302500013113,0.0,0.0,0.0,1.21000005245,1,50.23615557766155,176.87329453637167,365.9684911779981,-5.055356383941918,12.929750751824525,0.14948613063456742,0,Fixed-Wing
1970-01-01 00:00:22.412188288,3421,1536701860390348712,base_link,0,1,40.5908895,-79.9008202,365.971108291,0.302500013113,0.0,0.0,0.0,0.302500013113,0.0,0.0,0.0,1.21000005245,1,48.678410592707564,182.19269394911817,365.9683143640595,-3.892007797667373,13.290457804894269,-0.00044176757710204776,0,Fixed-Wing
1970-01-01 00:00:22.803147936,3423,1536701860781619773,base_link,0,1,40.5909381,-79.9008336,365.931074322,0.302500013113,0.0,0.0,0.0,0.302500013113,0.0,0.0,0.0,1.21000005245,1,47.54395726165842,187.58983191799928,365.9281321094258,-2.834418504427682,13.484686686757291,-0.10039489767113803,0,Fixed-Wing
1970-01-01 00:00:23.246756316,3425,1536701861224940428,base_link,0,1,40.5909873,-79.9008423,365.931044903,0.302500013113,0.0,0.0,0.0,0.302500013113,0.0,0.0,0.0,1.21000005245,1,46.807397977630956,193.05360517672523,365.9279447006634,-1.8402848377418273,13.651174186432085,-0.00046823862170569625,0,Fixed-Wing
1970-01-01 00:00:23.621904675,3427,1536701861600287710,base_link,0,1,40.5910367,-79.9008479,365.84101857,0.302500013113,0.0,0.0,0.0,0.302500013113,0.0,0.0,0.0,1.21000005245,1,46.33327853111208,198.53958785073524,365.8377530101004,-1.1845819442209387,13.706664153212351,-0.22534289395655754,0,Fixed-Wing
1970-01-01 00:00:23.999130907,3429,1536701861977244177,base_link,0,1,40.5910864,-79.9008503,365.570995383,0.302500013113,0.0,0.0,0.0,0.302500013113,0.0,0.0,0.0,1.21000005245,1,46.13006342472227,204.0588820661224,365.5675566821218,-0.5077305889681881,13.789892653412593,-0.6750823950975263,0,Fixed-Wing
1970-01-01 00:00:24.386268854,3431,1536701862364592860,base_link,0,1,40.5911365,-79.9008506,365.17097418,0.324899991846,0.0,0.0,0.0,0.324899991846,0.0,0.0,0.0,1.29959996738,1,46.10462877337076,209.62259363428205,365.1673547996763,-0.06354818172882966,13.900868894717814,-0.9998997667549006,0,Fixed-Wing
1970-01-01 00:00:24.804406422,3433,1536701862782962484,base_link,0,1,40.5911872,-79.9008496,364.760954064,0.324899991846,0.0,0.0,0.0,0.324899991846,0.0,0.0,0.0,1.29959996738,1,46.18924870606217,215.25293632438414,364.75714608870237,0.21142192146603886,14.067345980936741,-1.0249017118990624,0,Fixed-Wing
1970-01-01 00:00:25.197317272,3435,1536701863174766034,base_link,0,1,40.5912379,-79.9008486,364.56093396,0.302500013113,0.0,0.0,0.0,0.302500013113,0.0,0.0,0.0,1.21000005245,1,46.273870022242384,220.88328562902413,364.5569324070322,0.21142537809677941,14.067362507283075,-0.5002315640791412,0,Fixed-Wing
1970-01-01 00:00:25.603256789,3437,1536701863574405378,base_link,0,1,40.5912881,-79.900848,364.57091367,0.302500013113,0.0,0.0,0.0,0.302500013113,0.0,0.0,0.0,1.21000005245,1,46.32463004053273,226.45811570537725,364.56671577891257,0.12682331761870913,13.928648358625841,0.024443641297914605,0,Fixed-Wing
1970-01-01 00:00:25.997843600,3439,1536701863976174680,base_link,0,1,40.5913377,-79.9008486,364.700892421,0.302500013113,0.0,0.0,0.0,0.302500013113,0.0,0.0,0.0,1.21000005245,1,46.27380224086073,231.96631816181292,364.6964964745689,-0.12699266861548686,13.762180022175755,0.3242555645243036,0,Fixed-Wing
1970-01-01 00:00:26.413062945,3441,1536701864391490093,base_link,0,1,40.5913869,-79.900851,364.810869518,0.302500013113,0.0,0.0,0.0,0.302500013113,0.0,0.0,0.0,1.21000005245,1,46.070591210852214,237.4300982495808,364.806273503867,-0.5077204041767679,13.65119124871421,0.27427663588047396,0,Fixed-Wing
1970-01-01 00:00:26.787247036,3443,1536701864765819903,base_link,0,1,40.5914355,-79.9008543,364.87084596,0.302500013113,0.0,0.0,0.0,0.302500013113,0.0,0.0,0.0,1.21000005245,1,45.7911888622523,242.82724476762345,364.8660482718335,-0.6980835309635576,13.484708046738374,0.14934656524435308,0,Fixed-Wing
1970-01-01 00:00:27.202141170,3445,1536701865180287796,base_link,0,1,40.5914837,-79.9008584,364.800821767,0.302500013113,0.0,0.0,0.0,0.302500013113,0.0,0.0,0.0,1.21000005245,1,45.4440603846511,248.17996500352461,364.7958200270424,-0.8672964796328111,13.373709495508118,-0.17546445598190652,0,Fixed-Wing
1970-01-01 00:00:27.609663558,3447,1536701865588190936,base_link,0,1,40.5915319,-79.9008632,364.550796873,0.302500013113,0.0,0.0,0.0,0.302500013113,0.0,0.0,0.0,1.21000005245,1,45.03767104897088,253.53267765222495,364.5455869784591,-1.0153590469771387,13.373690538974753,-0.6252043728127266,0,Fixed-Wing
1970-01-01 00:00:28.015746266,3449,1536701865993545304,base_link,0,1,40.5915804,-79.9008687,364.360771155,0.302500013113,0.0,0.0,0.0,0.302500013113,0.0,0.0,0.0,1.21000005245,1,44.57202249968692,258.91870774722366,364.35534763613396,-1.1634175056189882,13.456933792552297,-0.47531079278318694,0,Fixed-Wing
1970-01-01 00:00:28.401566562,3451,1536701866380090355,base_link,0,1,40.5916291,-79.9008748,364.190744756,0.302500013113,0.0,0.0,0.0,0.302500013113,0.0,0.0,0.0,1.21000005245,1,44.055580368026334,264.32694860210734,364.1851024489447,-1.2903246827184294,13.512427118802306,-0.42535562781833564,0,Fixed-Wing
1970-01-01 00:00:28.830950366,3453,1536701866809166906,base_link,0,1,40.5916779,-79.9008805,364.110718735,0.302500013113,0.0,0.0,0.0,0.302500013113,0.0,0.0,0.0,1.21000005245,1,43.573002395948464,269.74629850018255,364.1048522953826,-1.2057154723339125,13.540182934512648,-0.20050407893743366,0,Fixed-Wing
1970-01-01 00:00:29.222265507,3455,1536701867196427524,base_link,0,1,40.5917271,-79.9008854,364.250693375,0.33639998064,0.0,0.0,0.0,0.33639998064,0.0,0.0,0.0,1.34559992256,1,43.158151985184944,275.2100791967169,364.2445957758782,-1.0364989450470476,13.651192769710184,0.3491474670214785,0,Fixed-Wing
1970-01-01 00:00:29.616276132,3457,1536701867594647259,base_link,0,1,40.5917764,-79.9008899,364.170668393,0.33639998064,0.0,0.0,0.0,0.33639998064,0.0,0.0,0.0,1.34559992256,1,42.77716341511255,280.6849559324736,364.16433419769737,-0.9518955283863181,13.678916095154204,-0.20053262321508655,0,Fixed-Wing
1970-01-01 00:00:30.023813054,3459,1536701868002332557,base_link,0,1,40.5918262,-79.9008925,364.03064515,0.33639998064,0.0,0.0,0.0,0.33639998064,0.0,0.0,0.0,1.34559992256,1,42.55702280695646,286.2153570033479,364.02406605654295,-0.5500187590409956,13.81764300316881,-0.3504583255990681,0,Fixed-Wing
1970-01-01 00:00:30.409537026,3461,1536701868387870539,base_link,0,1,40.5918762,-79.9008928,364.030624177,0.33639998064,0.0,0.0,0.0,0.33639998064,0.0,0.0,0.0,1.34559992256,1,42.53159405792978,291.7679758901194,364.02379306096395,-0.0635334348386238,13.873153958783645,-0.0006820762913336442,0,Fixed-Wing
1970-01-01 00:00:30.817564437,3463,1536701868795862961,base_link,0,1,40.5919259,-79.9008923,364.260604155,0.33639998064,0.0,0.0,0.0,0.33639998064,0.0,0.0,0.0,1.34559992256,1,42.57389248636807,297.28729024226675,364.2535172751653,0.10568213340500585,13.78994296487469,0.573963287714248,0,Fixed-Wing
1970-01-01 00:00:31.233931256,3465,1536701869205369522,base_link,0,1,40.591975,-79.9008921,364.600584087,0.33639998064,0.0,0.0,0.0,0.33639998064,0.0,0.0,0.0,1.34559992256,1,42.590794956088274,302.73997869477444,364.5932399952785,0.042230624772531596,13.623478926518674,0.8487932803484631,0,Fixed-Wing
1970-01-01 00:00:31.589611264,3467,1536701869568143060,base_link,0,1,40.5920236,-79.9008922,364.920563932,0.33639998064,0.0,0.0,0.0,0.33639998064,0.0,0.0,0.0,1.34559992256,1,42.5823005868483,308.1371404631136,364.91296081274857,-0.02122308313464392,13.484746149427533,0.7988187583263534,0,Fixed-Wing
1970-01-01 00:00:32.012588454,3469,1536701869991220928,base_link,0,1,40.592072,-79.9008929,365.240543262,0.33639998064,0.0,0.0,0.0,0.33639998064,0.0,0.0,0.0,1.34559992256,1,42.523012394430324,313.5120920489163,365.2326779728298,-0.14813086187350044,13.429254265676029,0.7988096203826965,0,Fixed-Wing
1970-01-01 00:00:32.398754674,3471,1536701870376544749,base_link,0,1,40.5921204,-79.9008941,365.450522095,0.33639998064,0.0,0.0,0.0,0.33639998064,0.0,0.0,0.0,1.34559992256,1,42.421395276602716,318.88703846602573,365.44239037505054,-0.2538891916080976,13.42924135175572,0.5239640073274656,0,Fixed-Wing
1970-01-01 00:00:32.809780818,3473,1536701870788342129,base_link,0,1,40.5921689,-79.9008952,365.360501,0.33639998064,0.0,0.0,0.0,0.33639998064,0.0,0.0,0.0,1.34559992256,1,42.328241897342195,324.27307528447903,365.35209768569587,-0.23274263885479488,13.456950591025695,-0.22559523826752106,0,Fixed-Wing
1970-01-01 00:00:33.207433203,3475,1536701871186013625,base_link,0,1,40.5922177,-79.9008947,365.06048142,0.33639998064,0.0,0.0,0.0,0.33639998064,0.0,0.0,0.0,1.34559992256,1,42.37053734537355,329.69241760849144,365.05179932648025,0.10567468689281372,13.540164010804476,-0.7502919713963477,0,Fixed-Wing
1970-01-01 00:00:33.620449924,3477,1536701871598965682,base_link,0,1,40.5922671,-79.9008913,365.000464555,0.33639998064,0.0,0.0,0.0,0.33639998064,0.0,0.0,0.0,1.34559992256,1,42.658337373584445,335.17840495042515,364.99149392398266,0.7190650361803501,13.70667581596561,-0.15067234947254518,0,Fixed-Wing
1970-01-01 00:00:33.987406675,3479,1536701871965454736,base_link,0,1,40.5923168,-79.9008869,364.850448595,0.33639998064,0.0,0.0,0.0,0.33639998064,0.0,0.0,0.0,1.34559992256,1,43.03079246535067,340.69770363801695,364.84118232826813,0.9305747317028874,13.789903827164064,-0.3755517804591395,0,Fixed-Wing
1970-01-01 00:00:34.382231079,3481,1536701872360461161,base_link,0,1,40.5923667,-79.9008801,364.480435005,0.33639998064,0.0,0.0,0.0,0.33639998064,0.0,0.0,0.0,1.34559992256,1,43.60642029930777,346.23920182701653,364.4708657027015,1.4381994742108517,13.845369024239293,-0.9252317986784465,0,Fixed-Wing
1970-01-01 00:00:34.800638989,3483,1536701872771280731,base_link,0,1,40.5924162,-79.9008688,364.480426166,0.33639998064,0.0,0.0,0.0,0.33639998064,0.0,0.0,0.0,1.34559992256,1,44.56300275390016,351.73630122698125,364.4705487563246,2.3900101803218705,13.734439164217461,-0.0007918868506302794,0,Fixed-Wing
1970-01-01 00:00:35.241516417,3485,1536701873220087171,base_link,0,1,40.5924656,-79.9008539,364.470421039,0.33639998064,0.0,0.0,0.0,0.33639998064,0.0,0.0,0.0,1.34559992256,1,45.8243457458711,357.2222968611789,364.4602290744539,3.1514508521617968,13.706696534091,-0.025783605595429946,0,Fixed-Wing
1970-01-01 00:00:35.610471331,3487,1536701873589089880,base_link,0,1,40.592514,-79.900834,364.290421416,0.33639998064,0.0,0.0,0.0,0.33639998064,0.0,0.0,0.0,1.34559992256,1,47.508966497251464,362.5972333382915,364.2799131133861,4.209005430165662,13.429216516788875,-0.450517339678936,0,Fixed-Wing
1970-01-01 00:00:36.042543862,3489,1536701874020949467,base_link,0,1,40.5925613,-79.9008081,364.120428355,0.33639998064,0.0,0.0,0.0,0.33639998064,0.0,0.0,0.0,1.34559992256,1,49.70152144308134,367.85001624762276,364.10960186132996,5.4780731303308405,13.12401724289616,-0.42552069012281973,0,Fixed-Wing
1970-01-01 00:00:36.399550740,3491,1536701874373664226,base_link,0,1,40.5926066,-79.9007763,364.05044212,0.33639998064,0.0,0.0,0.0,0.33639998064,0.0,0.0,0.0,1.34559992256,1,52.39354543622028,372.88070413093124,364.0393012882193,6.725990758438492,12.569115393458143,-0.175645167450371,0,Fixed-Wing
1970-01-01 00:00:36.799415066,3493,1536701874777921572,base_link,0,1,40.5926493,-79.9007376,364.080463973,0.33639998064,0.0,0.0,0.0,0.33639998064,0.0,0.0,0.0,1.34559992256,1,55.66969417260282,377.6226669614603,364.0690157692096,8.185419662060799,11.847739194110254,0.07424128649747301,0,Fixed-Wing
1970-01-01 00:00:37.219149878,3495,1536701875197620242,base_link,0,1,40.592688,-79.9006921,364.260494385,0.33639998064,0.0,0.0,0.0,0.33639998064,0.0,0.0,0.0,1.34559992256,1,59.52150320827697,381.92043529862195,364.2487549321046,9.623700250533805,10.737924398642926,0.4490762161266818,0,Fixed-Wing
1970-01-01 00:00:37.591331099,3497,1536701875568752940,base_link,0,1,40.5927226,-79.9006407,364.510532481,0.33639998064,0.0,0.0,0.0,0.33639998064,0.0,0.0,0.0,1.34559992256,1,63.87278165273742,385.7628995444337,364.49851920114406,10.871618781788156,9.600352401326584,0.6240331325534905,0,Fixed-Wing
1970-01-01 00:00:38.027308723,3499,1536701876005835237,base_link,0,1,40.5927532,-79.9005847,364.700576897,0.33639998064,0.0,0.0,0.0,0.33639998064,0.0,0.0,0.0,1.34559992256,1,68.61347577230922,389.1611569171672,364.68830751791387,11.844569334482118,8.490506675295189,0.47418391065856885,0,Fixed-Wing
1970-01-01 00:00:38.406285761,3501,1536701876384460558,base_link,0,1,40.5927788,-79.9005238,365.050628347,0.33639998064,0.0,0.0,0.0,0.33639998064,0.0,0.0,0.0,1.34559992256,1,73.76898613339921,392.0041694098171,365.0381269917634,12.880982908065608,7.1032337751907715,0.8740199025828123,0,Fixed-Wing
1970-01-01 00:00:38.804280292,3503,1536701876780350549,base_link,0,1,40.5927996,-79.9004592,365.390685529,0.33639998064,0.0,0.0,0.0,0.33639998064,0.0,0.0,0.0,1.34559992256,1,79.2377246975181,394.31413686646573,365.3779759427979,13.663579944430854,5.771426928329914,0.8491086668427323,0,Fixed-Wing
1970-01-01 00:00:39.199628382,3505,1536701877172648110,base_link,0,1,40.592816,-79.9003914,365.640747772,0.33639998064,0.0,0.0,0.0,0.33639998064,0.0,0.0,0.0,1.34559992256,1,84.97736296065277,396.13547538272644,365.62785127472625,14.340419703915796,4.550593181776799,0.6243106218946665,0,Fixed-Wing
1970-01-01 00:00:39.593969756,3507,1536701877569797009,base_link,0,1,40.5928273,-79.9003208,365.900814955,0.33639998064,0.0,0.0,0.0,0.33639998064,0.0,0.0,0.0,1.34559992256,1,90.95404175300865,397.3904545780639,365.88775789554825,14.932662719944144,3.1355509800007377,0.6493736809779928,0,Fixed-Wing
1970-01-01 00:00:40.024454487,3509,1536701878002887461,base_link,0,1,40.5928342,-79.9002482,366.190885981,0.324899991846,0.0,0.0,0.0,0.324899991846,0.0,0.0,0.0,1.29959996738,1,97.10003714164294,398.1568120275613,366.1776905422317,15.355698274129878,1.9147352089420333,0.7243933587265693,0,Fixed-Wing
1970-01-01 00:00:40.426232656,3511,1536701878404812470,base_link,0,1,40.5928384,-79.9001746,366.470959137,0.324899991846,0.0,0.0,0.0,0.324899991846,0.0,0.0,0.0,1.29959996738,1,103.33069146772223,398.623333567729,366.4576367346901,15.567217648520868,1.165598663228044,0.6994423185432728,0,Fixed-Wing
1970-01-01 00:00:40.866349380,3513,1536701878844861808,base_link,0,1,40.5928411,-79.9001002,366.48103373,0.324899991846,0.0,0.0,0.0,0.324899991846,0.0,0.0,0.0,1.29959996738,1,109.62906789977119,398.92326575475266,366.4675875379972,15.736420545692242,0.7493770944170559,0.02486196677786457,0,Fixed-Wing
1970-01-01 00:00:41.226404898,3515,1536701879204991723,base_link,0,1,40.5928425,-79.900025,366.351109677,0.324899991846,0.0,0.0,0.0,0.324899991846,0.0,0.0,0.0,1.29959996738,1,115.99516806678837,399.0788273614807,366.3375412958816,15.905627512897647,0.3886688721524541,-0.3249190292763159,0,Fixed-Wing
1970-01-01 00:00:41.583973044,3517,1536701879561173425,base_link,0,1,40.5928426,-79.8999492,366.211186777,0.324899991846,0.0,0.0,0.0,0.324899991846,0.0,0.0,0.0,1.29959996738,1,122.41206327439113,399.09002643438254,366.1974979421635,16.032538333315255,0.02798075389847053,-0.34989669679358015,0,Fixed-Wing
1970-01-01 00:00:42.010127883,3519,1536701879988552310,base_link,0,1,40.5928422,-79.8998729,366.061264601,0.324899991846,0.0,0.0,0.0,0.324899991846,0.0,0.0,0.0,1.29959996738,1,128.87128676157602,399.04570491660917,366.0474514953784,16.138295049457295,-0.11073679867022733,-0.37488930893084055,0,Fixed-Wing
1970-01-01 00:00:42.382599422,3521,1536701880360994942,base_link,0,1,40.5928418,-79.8997961,365.791342943,0.324899991846,0.0,0.0,0.0,0.324899991846,0.0,0.0,0.0,1.29959996738,1,135.37283529972538,399.0013822432446,365.77739813545605,16.244043698935556,-0.11073968590139822,-0.6747251910653349,0,Fixed-Wing
1970-01-01 00:00:42.803773498,3523,1536701880782285991,base_link,0,1,40.5928418,-79.8997185,365.511421946,0.324899991846,0.0,0.0,0.0,0.324899991846,0.0,0.0,0.0,1.29959996738,1,141.9421068082535,399.0014868739533,365.49733452980496,16.413248755823023,0.0002614186134306816,-0.6997356740449375,0,Fixed-Wing
1970-01-01 00:00:43.220871025,3525,1536701881199301599,base_link,0,1,40.5928424,-79.8996404,365.301501222,0.324899991846,0.0,0.0,0.0,0.324899991846,0.0,0.0,0.0,1.29959996738,1,148.55370585884376,399.068233980515,365.28725927702334,16.51900362927993,0.16676687244643607,-0.5248705852499768,0,Fixed-Wing
1970-01-01 00:00:43.614126997,3527,1536701881591627363,base_link,0,1,40.5928438,-79.8995625,365.221579977,0.302500013113,0.0,0.0,0.0,0.302500013113,0.0,0.0,0.0,1.21000005245,1,155.14837453715097,399.22383668435907,365.2071714966702,16.47670329027742,0.3887715528207122,-0.20009839135611318,0,Fixed-Wing
1970-01-01 00:00:44.023555161,3529,1536701882002034489,base_link,0,1,40.5928449,-79.8994846,365.341658865,0.302500013113,0.0,0.0,0.0,0.302500013113,0.0,0.0,0.0,1.21000005245,1,161.74304856341803,399.3461420461507,365.3270791259434,16.476716652093128,0.30557852946875164,0.29958782255035754,0,Fixed-Wing
1970-01-01 00:00:44.431191160,3531,1536701882399084278,base_link,0,1,40.592846,-79.8994071,365.561737356,0.302500013113,0.0,0.0,0.0,0.302500013113,0.0,0.0,0.0,1.21000005245,1,168.30386300215162,399.4684587589027,365.54698044049826,16.39211886492069,0.3056068897117848,0.5494208867507027,0,Fixed-Wing
1970-01-01 00:00:44.782215264,3533,1536701882760596411,base_link,0,1,40.5928475,-79.8993297,365.72181559,0.302500013113,0.0,0.0,0.0,0.302500013113,0.0,0.0,0.0,1.21000005245,1,174.85620943194039,399.6351982592434,365.7068721978023,16.370961642678104,0.416596709842216,0.39948770319962407,0,Fixed-Wing
1970-01-01 00:00:45.204247105,3535,1536701883182572871,base_link,0,1,40.5928493,-79.8992527,365.661893304,0.324899991846,0.0,0.0,0.0,0.324899991846,0.0,0.0,0.0,1.29959996738,1,181.37468658395315,399.83524460784935,365.64675557876114,16.28633964454696,0.49981348435684314,-0.15020067619375047,0,Fixed-Wing
1970-01-01 00:00:45.622931376,3537,1536701883601010776,base_link,0,1,40.5928509,-79.8991753,365.561971517,0.324899991846,0.0,0.0,0.0,0.324899991846,0.0,0.0,0.0,1.29959996738,1,187.92702489980394,400.01308450669615,365.5466331982086,16.370941370098066,0.4443309269062178,-0.2501546078435901,0,Fixed-Wing
1970-01-01 00:00:46.019962374,3539,1536701883997000933,base_link,0,1,40.5928519,-79.8990977,365.54205019,0.324899991846,0.0,0.0,0.0,0.324899991846,0.0,0.0,0.0,1.29959996738,1,194.4962979957462,400.12430417672937,365.52650822812694,16.413252721958877,0.2778810570435436,-0.050282004591390886,0,Fixed-Wing
1970-01-01 00:00:46.416107758,3541,1536701884394612631,base_link,0,1,40.5928527,-79.8990197,365.462129363,0.324899991846,0.0,0.0,0.0,0.324899991846,0.0,0.0,0.0,1.29959996738,1,201.09943181326827,400.21331628788244,365.4463773283103,16.497853342532927,0.22239572846694627,-0.2002061248361039,0,Fixed-Wing
1970-01-01 00:00:46.787688080,3543,1536701884766212001,base_link,0,1,40.5928532,-79.8989416,365.372208771,0.324899991846,0.0,0.0,0.0,0.324899991846,0.0,0.0,0.0,1.29959996738,1,207.7110314739592,400.2690181259067,365.35624165853255,16.519005153609385,0.13917039697052444,-0.22520292667370578,0,Fixed-Wing
1970-01-01 00:00:47.200044583,3545,1536701885178536940,base_link,0,1,40.592853,-79.898863,365.252288987,0.324899991846,0.0,0.0,0.0,0.324899991846,0.0,0.0,0.0,1.29959996738,1,214.36495988694855,400.24698846057254,365.2361034208362,16.624763050827646,-0.05504086361294764,-0.3001639950239621,0,Fixed-Wing
1970-01-01 00:00:47.623352330,3547,1536701885601926958,base_link,0,1,40.5928526,-79.8987843,365.112369397,0.324899991846,0.0,0.0,0.0,0.324899991846,0.0,0.0,0.0,1.29959996738,1,221.027353619647,400.20275324465814,365.09595954932183,16.645913554045887,-0.11052117447543722,-0.35014783934304733,0,Fixed-Wing
1970-01-01 00:00:47.995486494,3549,1536701885973788763,base_link,0,1,40.5928525,-79.8987054,365.012449898,0.324899991846,0.0,0.0,0.0,0.324899991846,0.0,0.0,0.0,1.29959996738,1,227.70667866970132,400.19184274303063,364.9958061216545,16.688216254301974,-0.0272597619128093,-0.25023217870026393,0,Fixed-Wing
1970-01-01 00:00:48.403492168,3551,1536701886381465897,base_link,0,1,40.592853,-79.8986263,364.922530368,0.324899991846,0.0,0.0,0.0,0.324899991846,0.0,0.0,0.0,1.29959996738,1,234.40293292464463,400.24757083607193,364.9056408643701,16.73051367658395,0.1392359948263695,-0.22527685071620304,0,Fixed-Wing
1970-01-01 00:00:48.802831335,3553,1536701886781322475,base_link,0,1,40.5928537,-79.8985474,364.932610562,0.324899991846,0.0,0.0,0.0,0.324899991846,0.0,0.0,0.0,1.29959996738,1,241.08225882559063,400.3255211698882,364.91546755374645,16.688218380244944,0.1947580059470552,0.024551869559729485,0,Fixed-Wing
1970-01-01 00:00:49.253748269,3555,1536701887231793257,base_link,0,1,40.5928532,-79.8984688,365.322690953,0.324899991846,0.0,0.0,0.0,0.324899991846,0.0,0.0,0.0,1.29959996738,1,247.7362070891147,400.2702376496724,365.30529682058693,16.624812647158684,-0.13812523477237937,0.9739839068375614,0,Fixed-Wing
1970-01-01 00:00:49.624372230,3557,1536701887602979799,base_link,0,1,40.5928522,-79.8983918,365.862769928,0.324899991846,0.0,0.0,0.0,0.324899991846,0.0,0.0,0.0,1.29959996738,1,254.25471512851198,400.1594386596925,365.8451266259721,16.28641681631928,-0.27682999280413406,1.3487585145616448,0,Fixed-Wing
1970-01-01 00:00:50.001716139,3559,1536701887980160478,base_link,0,1,40.5928509,-79.8983163,366.402847506,0.324899991846,0.0,0.0,0.0,0.324899991846,0.0,0.0,0.0,1.29959996738,1,260.64624217201253,400.0153251778872,366.38495565623936,15.96915626920853,-0.3600658646652131,1.3487565779384527,0,Fixed-Wing
1970-01-01 00:00:50.395130987,3561,1536701888373257990,base_link,0,1,40.5928501,-79.8982424,366.892923255,0.324899991846,0.0,0.0,0.0,0.324899991846,0.0,0.0,0.0,1.29959996738,1,266.90231743263604,399.9267353834712,366.87477863110996,15.630731558965588,-0.2213405749920108,1.2238170278746503,0,Fixed-Wing
1970-01-01 00:00:50.802791027,3563,1536701888780793374,base_link,0,1,40.5928496,-79.8981693,367.122998073,0.324899991846,0.0,0.0,0.0,0.324899991846,0.0,0.0,0.0,1.29959996738,1,273.090656943035,399.87144774099374,367.104595349652,15.461494571781511,-0.13813553419551386,0.5741944087378483,0,Fixed-Wing
1970-01-01 00:00:51.201855722,3565,1536701889180111701,base_link,0,1,40.5928493,-79.8980963,367.053072716,0.324899991846,0.0,0.0,0.0,0.324899991846,0.0,0.0,0.0,1.29959996738,1,279.27051747863663,399.83835655397286,367.034404872011,15.440309951483401,-0.08267794739404295,-0.17537009519492222,0,Fixed-Wing
1970-01-01 00:00:51.602888233,3567,1536701889581241081,base_link,0,1,40.5928495,-79.8980231,366.793147367,0.324899991846,0.0,0.0,0.0,0.324899991846,0.0,0.0,0.0,1.29959996738,1,285.4672984442441,399.86078542547585,366.774204178153,15.482585449821471,0.056038275600750705,-0.6501084190514643,0,Fixed-Wing
1970-01-01 00:00:52.013420398,3569,1536701889991984366,base_link,0,1,40.5928508,-79.8979493,366.383222186,0.324899991846,0.0,0.0,0.0,0.324899991846,0.0,0.0,0.0,1.29959996738,1,291.7148606234202,400.0053696900603,366.36398764164244,15.609461723597475,0.36124210998462525,-1.0249212639117704,0,Fixed-Wing
1970-01-01 00:00:52.412819780,3571,1536701890391284382,base_link,0,1,40.5928525,-79.8978746,365.863297769,0.324899991846,0.0,0.0,0.0,0.324899991846,0.0,0.0,0.0,1.29959996738,1,298.03860491526444,400.1943762734145,365.84375940726335,15.799801849491718,0.47223075877636833,-1.2997842164967441,0,Fixed-Wing
1970-01-01 00:00:52.815639814,3573,1536701890794060016,base_link,0,1,40.5928542,-79.8977989,365.523374382,0.324899991846,0.0,0.0,0.0,0.324899991846,0.0,0.0,0.0,1.29959996738,1,304.447012055886,400.38340297300635,365.5035219007614,16.011330996301073,0.4722810189631865,-0.8500794681765568,0,Fixed-Wing
1970-01-01 00:00:53.200166918,3575,1536701891178497742,base_link,0,1,40.5928569,-79.8977227,365.443451103,0.324899991846,0.0,0.0,0.0,0.324899991846,0.0,0.0,0.0,1.29959996738,1,310.89775401874743,400.6835057206951,365.4232690148991,16.11710405919783,0.7498032382627369,-0.20051090555790677,0,Fixed-Wing
1970-01-01 00:00:53.604216314,3577,1536701891581656017,base_link,0,1,40.5928598,-79.8976463,365.493527956,0.324899991846,0.0,0.0,0.0,0.324899991846,0.0,0.0,0.0,1.29959996738,1,317.3654319376011,401.00583343967855,365.4730074908114,16.159418349033004,0.805332071555321,0.12427100582224383,0,Fixed-Wing
1970-01-01 00:00:54.020915962,3579,1536701891999466869,base_link,0,1,40.5928626,-79.8975699,365.763604859,0.324899991846,0.0,0.0,0.0,0.324899991846,0.0,0.0,0.0,1.29959996738,1,323.833121035275,401.3170754073093,365.742740150025,16.1594462791858,0.7776344502344468,0.6739239240598428,0,Fixed-Wing
1970-01-01 00:00:54.396356048,3581,1536701892374665776,base_link,0,1,40.5928651,-79.8974934,366.093681998,0.324899991846,0.0,0.0,0.0,0.324899991846,0.0,0.0,0.0,1.29959996738,1,330.30928027764054,401.5950114443521,366.0724681462702,16.180608837567156,0.6944199685260937,0.8238215785579641,0,Fixed-Wing
1970-01-01 00:00:54.817754080,3583,1536701892794222216,base_link,0,1,40.5928673,-79.8974168,366.203759372,0.324899991846,0.0,0.0,0.0,0.324899991846,0.0,0.0,0.0,1.29959996738,1,336.79389517535236,401.83962389416024,366.1821914582356,16.20173519448689,0.6111613718903323,0.2741424237471596,0,Fixed-Wing
1970-01-01 00:00:55.216592290,3585,1536701893195078981,base_link,0,1,40.5928681,-79.8973392,366.063838355,0.324899991846,0.0,0.0,0.0,0.324899991846,0.0,0.0,0.0,1.29959996738,1,343.3631592056818,401.92875668294056,366.0419150584556,16.413230071630323,0.2226972401205236,-0.3504789596794457,0,Fixed-Wing
1970-01-01 00:00:55.620898518,3587,1536701893599299609,base_link,0,1,40.5928674,-79.8972606,365.923918989,0.324899991846,0.0,0.0,0.0,0.324899991846,0.0,0.0,0.0,1.29959996738,1,350.0170862212612,401.8513205818019,365.9016394347405,16.62475955941498,-0.1934732015597745,-0.3504770206901568,0,Fixed-Wing
1970-01-01 00:00:56.028282454,3589,1536701894006709602,base_link,0,1,40.5928655,-79.8971811,365.814001049,0.324899991846,0.0,0.0,0.0,0.324899991846,0.0,0.0,0.0,1.29959996738,1,356.74721118445626,401.6406330455309,365.79136246339885,16.815139248742177,-0.5264003684545742,-0.2755257352842726,0,Fixed-Wing
1970-01-01 00:00:56.411523152,3591,1536701894389914446,base_link,0,1,40.5928624,-79.8971006,365.594084638,0.324899991846,0.0,0.0,0.0,0.324899991846,0.0,0.0,0.0,1.29959996738,1,363.56199214691117,401.29668586815507,365.5710835115253,17.026651282111583,-0.8593480378766097,-0.5503644092163773,0,Fixed-Wing
1970-01-01 00:00:56.807707686,3593,1536701894786076188,base_link,0,1,40.5928582,-79.8970197,365.484169102,0.324899991846,0.0,0.0,0.0,0.324899991846,0.0,0.0,0.0,1.29959996738,1,370.41064796263794,400.8305958907708,365.4608038758131,17.111287210554547,-1.164520408613503,-0.27553239218316594,0,Fixed-Wing
1970-01-01 00:00:57.225344905,3595,1536701895203427155,base_link,0,1,40.5928541,-79.8969386,365.59425374,0.324899991846,0.0,0.0,0.0,0.324899991846,0.0,0.0,0.0,1.29959996738,1,377.2762479567362,400.37563216288237,365.5705153364923,17.15362204390909,-1.1367216031511236,0.27411281344584865,0,Fixed-Wing
1970-01-01 00:00:57.670645989,3597,1536701895649215815,base_link,0,1,40.5928507,-79.8968577,365.724337898,0.324899991846,0.0,0.0,0.0,0.324899991846,0.0,0.0,0.0,1.29959996738,1,384.12491509463837,399.9984118282063,365.700215036873,17.1113154988786,-0.9424806359054109,0.3240531987664555,0,Fixed-Wing
1970-01-01 00:00:58.028383191,3599,1536701896006814501,base_link,0,1,40.5928475,-79.8967771,365.844421677,0.324899991846,0.0,0.0,0.0,0.324899991846,0.0,0.0,0.0,1.29959996738,1,390.94818473905343,399.643406297156,365.8199071531178,17.047860155643495,-0.8869772064159283,0.29904936574581076,0,Fixed-Wing
1970-01-01 00:00:58.435291523,3601,1536701896413825239,base_link,0,1,40.5928441,-79.8966972,366.074504834,0.324899991846,0.0,0.0,0.0,0.324899991846,0.0,0.0,0.0,1.29959996738,1,397.71220437365207,399.2662002510107,366.0495964216465,16.8998246925576,-0.9424449361769078,0.573875976356095,0,Fixed-Wing
1970-01-01 00:00:58.825695056,3603,1536701896802900622,base_link,0,1,40.5928397,-79.8966178,366.234587905,0.324899991846,0.0,0.0,0.0,0.324899991846,0.0,0.0,0.0,1.29959996738,1,404.4338989498779,398.777941193417,366.20928805879856,16.794076024569744,-1.2199095986769657,0.39898770531837363,0,Fixed-Wing
1970-01-01 00:00:59.204066009,3605,1536701897182298780,base_link,0,1,40.5928326,-79.8965386,366.194671899,0.324899991846,0.0,0.0,0.0,0.324899991846,0.0,0.0,0.0,1.29959996738,1,411.1386672765525,397.9898331379606,366.1689933595581,16.751785986164826,-1.9690788459392194,-0.10067583921842849,0,Fixed-Wing
1970-01-01 00:00:59.607304026,3607,1536701897584760759,base_link,0,1,40.5928214,-79.8964597,366.024757294,0.324899991846,0.0,0.0,0.0,0.324899991846,0.0,0.0,0.0,1.29959996738,1,417.81805725487516,396.74640660590273,365.99872299308123,16.68837847682817,-3.1066867846399617,-0.4254185379767005,0,Fixed-Wing
1970-01-01 00:01:00.025571723,3609,1536701898003743575,base_link,0,1,40.5928039,-79.896381,365.774845104,0.324899991846,0.0,0.0,0.0,0.324899991846,0.0,0.0,0.0,1.29959996738,1,424.4805524911675,394.80334988619694,365.7484923859648,16.646167159599266,-4.854704702919219,-0.625198272835952,0,Fixed-Wing
1970-01-01 00:01:00.404211578,3611,1536701898382581841,base_link,0,1,40.592779,-79.8963036,365.404934662,0.324899991846,0.0,0.0,0.0,0.324899991846,0.0,0.0,0.0,1.29959996738,1,431.03303768332694,392.0384975814195,365.3783140957596,16.371308338853623,-6.907951451315541,-0.9248861693805681,0,Fixed-Wing
1970-01-01 00:01:00.806514649,3613,1536701898780049644,base_link,0,1,40.5927455,-79.8962291,364.995024831,0.324899991846,0.0,0.0,0.0,0.324899991846,0.0,0.0,0.0,1.29959996738,1,437.3400786181776,388.31858375107436,364.96820365948884,15.758068705559754,-9.29416160808998,-1.0246561736918418,0,Fixed-Wing
1970-01-01 00:01:01.220706790,3615,1536701899199346050,base_link,0,1,40.5927017,-79.8961607,364.635113042,0.324899991846,0.0,0.0,0.0,0.324899991846,0.0,0.0,0.0,1.29959996738,1,443.1307961955889,383.4548082709289,364.60818774158145,14.468040778857112,-12.152086687917505,-0.8994955999305166,0,Fixed-Wing
1970-01-01 00:01:01.628279277,3617,1536701899606892672,base_link,0,1,40.5926479,-79.8961022,364.485195284,0.324899991846,0.0,0.0,0.0,0.324899991846,0.0,0.0,0.0,1.29959996738,1,448.0835092209004,377.48047591132655,364.4582817096318,12.374296114129656,-14.926800184893962,-0.37453848409119134,0,Fixed-Wing
1970-01-01 00:01:02.028804876,3619,1536701900007120814,base_link,0,1,40.5925862,-79.8960559,364.595268333,0.324899991846,0.0,0.0,0.0,0.324899991846,0.0,0.0,0.0,1.29959996738,1,452.00349915729714,370.62878567100273,364.5684813661966,9.794049441080013,-17.11886868525497,0.27533256520994703,0,Fixed-Wing
1970-01-01 00:01:02.392214014,3621,1536701900370783712,base_link,0,1,40.592519,-79.8960227,364.755330274,0.324899991846,0.0,0.0,0.0,0.324899991846,0.0,0.0,0.0,1.29959996738,1,454.8145433122879,363.1662442147563,364.72877408007287,7.023361253918334,-18.64507337122644,0.4004894885501471,0,Fixed-Wing
1970-01-01 00:01:02.827996204,3623,1536701900806579219,base_link,0,1,40.5924488,-79.8960048,365.025377811,0.324899991846,0.0,0.0,0.0,0.324899991846,0.0,0.0,0.0,1.29959996738,1,456.33038284123086,355.37047305270306,364.9991536813929,3.7873075013190363,-19.477643930555157,0.6755403014177183,0,Fixed-Wing
1970-01-01 00:01:03.236707105,3625,1536701901215142736,base_link,0,1,40.5923785,-79.8960025,365.685409429,0.324899991846,0.0,0.0,0.0,0.324899991846,0.0,0.0,0.0,1.29959996738,1,456.5256172167727,347.56353670409925,365.6596025879044,0.48779082540516877,-19.505540019797554,1.6501239412942077,0,Fixed-Wing
1970-01-01 00:01:03.609324235,3627,1536701901587937598,base_link,0,1,40.59231,-79.8960109,366.675429353,0.324899991846,0.0,0.0,0.0,0.324899991846,0.0,0.0,0.0,1.29959996738,1,455.8150407326212,339.95645539856866,366.6500842439832,-1.7753671132751894,-19.006204510097852,2.4747069424968586,0,Fixed-Wing
1970-01-01 00:01:04.028062094,3629,1536701902006289135,base_link,0,1,40.5922441,-79.8960234,367.835444012,0.324899991846,0.0,0.0,0.0,0.324899991846,0.0,0.0,0.0,1.29959996738,1,454.75736573151573,332.63809596487357,367.8105610959597,-2.642588736577999,-18.28483625830146,2.8994379699694477,0,Fixed-Wing
1970-01-01 00:01:04.440746786,3631,1536701902418919502,base_link,0,1,40.5921802,-79.8960365,368.815457242,0.324899991846,0.0,0.0,0.0,0.324899991846,0.0,0.0,0.0,1.29959996738,1,453.64886805804144,325.54182674252024,368.7910201760363,-2.7695685946859387,-17.729946438288156,2.449665652471682,0,Fixed-Wing
1970-01-01 00:01:04.805961982,3633,1536701902784481773,base_link,0,1,40.5921169,-79.8960482,369.565471675,0.324899991846,0.0,0.0,0.0,0.324899991846,0.0,0.0,0.0,1.29959996738,1,452.65886683805087,318.51218275154696,369.5414606195893,-2.4735065784964463,-17.56348406957112,1.8749667539964119,0,Fixed-Wing
1970-01-01 00:01:05.226799771,3635,1536701903205094805,base_link,0,1,40.5920551,-79.8960572,370.005488268,0.324899991846,0.0,0.0,0.0,0.324899991846,0.0,0.0,0.0,1.29959996738,1,451.8974045622144,311.64911471905714,369.98187098322825,-1.9025046742633034,-17.147295967164418,1.1003601911816658,0,Fixed-Wing
1970-01-01 00:01:05.613268537,3637,1536701903591853057,base_link,0,1,40.5919929,-79.8960642,370.125507098,0.324899991846,0.0,0.0,0.0,0.324899991846,0.0,0.0,0.0,1.29959996738,1,451.3052344046189,304.741619814858,370.10226625550104,-1.4795302781704316,-17.258295991423076,0.3008061929352434,0,Fixed-Wing
1970-01-01 00:01:06.029891005,3639,1536701904008016887,base_link,0,1,40.5919307,-79.8960693,369.805527893,0.324899991846,0.0,0.0,0.0,0.324899991846,0.0,0.0,0.0,1.29959996738,1,450.87388008004245,297.8341139001813,369.78264459021153,-1.0777337825026665,-17.258323500973603,-0.7985710277519681,0,Fixed-Wing
1970-01-01 00:01:06.441884555,3641,1536701904420142071,base_link,0,1,40.5918678,-79.8960724,369.105551052,0.302500013113,0.0,0.0,0.0,0.302500013113,0.0,0.0,0.0,1.21000005245,1,450.61181672267656,290.84886490948634,369.0830093732769,-0.6547622622460643,-17.45256367571362,-1.7480304838937684,0,Fixed-Wing
1970-01-01 00:01:06.811216923,3643,1536701904789484715,base_link,0,1,40.5918039,-79.8960735,368.1555767,0.302500013113,0.0,0.0,0.0,0.302500013113,0.0,0.0,0.0,1.21000005245,1,450.51905597557004,283.7525641659414,368.13336197998285,-0.23176165196687099,-17.730025193620186,-2.3726830100141205,0,Fixed-Wing
1970-01-01 00:01:07.210188463,3645,1536701905188289568,base_link,0,1,40.591738,-79.8960725,367.265605361,0.302500013113,0.0,0.0,0.0,0.302500013113,0.0,0.0,0.0,1.21000005245,1,450.60409253812617,276.43417410351685,367.2437067963369,0.21246286635617123,-18.284912783827174,-2.2227931692475322,0,Fixed-Wing
1970-01-01 00:01:07.619980445,3647,1536701905598623419,base_link,0,1,40.5916708,-79.8960686,366.615637565,0.302500013113,0.0,0.0,0.0,0.302500013113,0.0,0.0,0.0,1.21000005245,1,450.9346605779688,268.9714430210486,366.59403551407274,0.8259204177539096,-18.645547150144864,-1.623196171976297,0,Fixed-Wing
1970-01-01 00:01:08.022818919,3649,1536701906001001622,base_link,0,1,40.5916031,-79.8960624,366.285672361,0.302500013113,0.0,0.0,0.0,0.302500013113,0.0,0.0,0.0,1.21000005245,1,451.4599667596321,261.4532122969857,366.2643465748209,1.3124714089557519,-18.7842123616783,-0.8237239951126231,0,Fixed-Wing
1970-01-01 00:01:08.438055614,3651,1536701906416084820,base_link,0,1,40.5915358,-79.8960544,366.215708859,0.302500013113,0.0,0.0,0.0,0.302500013113,0.0,0.0,0.0,1.21000005245,1,452.13767277857386,253.97942306059042,366.1946378499655,1.693240636769161,-18.673175819617395,-0.17416644144139917,0,Fixed-Wing
1970-01-01 00:01:08.838078432,3653,1536701906813707050,base_link,0,1,40.5914688,-79.8960449,366.155746794,0.33639998064,0.0,0.0,0.0,0.33639998064,0.0,0.0,0.0,1.34559992256,1,452.9423648899493,246.53895795928833,366.1349114183961,2.0105139175185496,-18.58991585416347,-0.1492257973161286,0,Fixed-Wing
1970-01-01 00:01:09.244787200,3655,1536701907223126603,base_link,0,1,40.591402,-79.8960344,366.045785695,0.33639998064,0.0,0.0,0.0,0.33639998064,0.0,0.0,0.0,1.34559992256,1,453.8317111474323,239.12070693026897,366.0251703029521,2.2220213208084068,-18.534414251925984,-0.2741869055320704,0,Fixed-Wing
1970-01-01 00:01:09.640776429,3657,1536701907619297692,base_link,0,1,40.5913355,-79.896023,366.015825417,0.33639998064,0.0,0.0,0.0,0.33639998064,0.0,0.0,0.0,1.34559992256,1,454.7972545941055,231.73577963005653,365.99541459684247,2.412399115218209,-18.451155301573646,-0.07434428698051193,0,Fixed-Wing
1970-01-01 00:01:10.040578650,3659,1536701908019105516,base_link,0,1,40.5912696,-79.8960112,365.995865321,0.33639998064,0.0,0.0,0.0,0.33639998064,0.0,0.0,0.0,1.34559992256,1,455.7966596338462,224.41748647444584,365.97564558898097,2.4970019131943584,-18.284670663275442,-0.04939263710829515,0,Fixed-Wing
1970-01-01 00:01:10.419246164,3661,1536701908397851203,base_link,0,1,40.5912043,-79.8959995,365.935904893,0.33639998064,0.0,0.0,0.0,0.33639998064,0.0,0.0,0.0,1.34559992256,1,456.7875939139195,217.16582314010583,365.9158660068991,2.4758378183031873,-18.118196826769825,-0.1493585932557987,0,Fixed-Wing
1970-01-01 00:01:10.792904456,3663,1536701908771073234,base_link,0,1,40.5911392,-79.8959885,365.855943684,0.33639998064,0.0,0.0,0.0,0.33639998064,0.0,0.0,0.0,1.34559992256,1,457.7192668517896,209.93636633704375,365.83608074125993,2.327774041380154,-18.06271406564548,-0.1993425618479459,0,Fixed-Wing
1970-01-01 00:01:11.207670413,3665,1536701909186263448,base_link,0,1,40.5910741,-79.8959788,365.645981165,0.33639998064,0.0,0.0,0.0,0.33639998064,0.0,0.0,0.0,1.34559992256,1,458.54087701022485,202.70689900266692,365.62629371764274,2.0527834620935552,-18.06274037801339,-0.524150448021936,0,Fixed-Wing
1970-01-01 00:01:11.605587955,3667,1536701909583886895,base_link,0,1,40.5910087,-79.8959717,365.386016126,0.33639998064,0.0,0.0,0.0,0.33639998064,0.0,0.0,0.0,1.34559992256,1,459.1423765010247,195.44410150382993,365.36651270397425,1.5028395090966995,-18.146015407770772,-0.6490598529601768,0,Fixed-Wing
1970-01-01 00:01:12.056810221,3669,1536701910035172224,base_link,0,1,40.5909428,-79.8959679,365.076047933,0.33639998064,0.0,0.0,0.0,0.33639998064,0.0,0.0,0.0,1.34559992256,1,459.4645054528473,188.1257598378062,365.0567419313155,0.8048354541066379,-18.284791865980363,-0.7739586866414252,0,Fixed-Wing
1970-01-01 00:01:12.449750905,3671,1536701910428358153,base_link,0,1,40.5908768,-79.895969,364.756074774,0.33639998064,0.0,0.0,0.0,0.33639998064,0.0,0.0,0.0,1.34559992256,1,459.37181025666075,180.79628788834552,364.736987922309,-0.23159787375269378,-18.312600750197873,-0.7989016869955868,0,Fixed-Wing
1970-01-01 00:01:12.804904602,3673,1536701910783532467,base_link,0,1,40.5908111,-79.8959759,364.636095554,0.33639998064,0.0,0.0,0.0,0.33639998064,0.0,0.0,0.0,1.34559992256,1,458.7881097320211,173.50010769245554,364.61725378707297,-1.4583689983551276,-18.229421689602727,-0.2991543497085717,0,Fixed-Wing
1970-01-01 00:01:13.210958499,3675,1536701911189477074,base_link,0,1,40.5907468,-79.8959893,364.676109085,0.33639998064,0.0,0.0,0.0,0.33639998064,0.0,0.0,0.0,1.34559992256,1,457.6541312657615,166.35937159563142,364.65753937107235,-2.833232060252491,-17.841046408982887,0.10065306489418314,0,Fixed-Wing
1970-01-01 00:01:13.641166390,3677,1536701911619124337,base_link,0,1,40.5906845,-79.8960101,364.816114186,0.33639998064,0.0,0.0,0.0,0.33639998064,0.0,0.0,0.0,1.34559992256,1,455.8936723804774,159.44070457258022,364.7978474930426,-4.39848612910213,-17.28620940094043,0.35055821720418096,0,Fixed-Wing
1970-01-01 00:01:14.015823491,3679,1536701911993781086,base_link,0,1,40.5906249,-79.8960378,364.97611107,0.33639998064,0.0,0.0,0.0,0.33639998064,0.0,0.0,0.0,1.34559992256,1,453.54905016867394,152.8218440600732,364.95817370130464,-5.858011432591988,-16.537146307751343,0.4005731738849574,0,Fixed-Wing
1970-01-01 00:01:14.420215544,3681,1536701912398673968,base_link,0,1,40.5905684,-79.8960725,365.036099462,0.33639998064,0.0,0.0,0.0,0.33639998064,0.0,0.0,0.0,1.34559992256,1,450.61178629098424,146.547208239747,365.01851758745835,-7.338719768764153,-15.677104902349605,0.15076850044149015,0,Fixed-Wing
1970-01-01 00:01:14.830186281,3683,1536701912808738565,base_link,0,1,40.5905159,-79.8961144,365.016078772,0.33639998064,0.0,0.0,0.0,0.33639998064,0.0,0.0,0.0,1.34559992256,1,447.0649434742662,140.71674466429477,364.9988777406694,-8.861745685655245,-14.567345694485407,-0.04906992966492281,0,Fixed-Wing
1970-01-01 00:01:15.209559341,3685,1536701913187963825,base_link,0,1,40.5904686,-79.8961642,364.986047766,0.302500013113,0.0,0.0,0.0,0.302500013113,0.0,0.0,0.0,1.21000005245,1,442.8492569597289,135.4637152230904,364.96925440444306,-10.532843915774233,-13.124633199924986,-0.0740135623606131,0,Fixed-Wing
1970-01-01 00:01:15.621807900,3687,1536701913600425904,base_link,0,1,40.5904273,-79.8962211,364.936006924,0.302500013113,0.0,0.0,0.0,0.302500013113,0.0,0.0,0.0,1.21000005245,1,438.0324473770381,130.87696672166965,364.9196416929362,-12.034742937249915,-11.459937991067262,-0.1239567849123321,0,Fixed-Wing
1970-01-01 00:01:16.075301840,3689,1536701914053748452,base_link,0,1,40.5903937,-79.8962844,364.895956238,0.302500013113,0.0,0.0,0.0,0.302500013113,0.0,0.0,0.0,1.21000005245,1,432.67376714819943,127.14529339879442,364.8800318969448,-13.388600468813102,-9.32354256393688,-0.0989646163855765,0,Fixed-Wing
1970-01-01 00:01:16.413878680,3691,1536701914392292639,base_link,0,1,40.5903691,-79.8963527,364.805896592,0.302500013113,0.0,0.0,0.0,0.302500013113,0.0,0.0,0.0,1.21000005245,1,426.89172725705316,124.4130700649699,364.7904153024758,-14.446359680259116,-6.826428345412329,-0.22390602302847826,0,Fixed-Wing
1970-01-01 00:01:16.813042676,3693,1536701914791313414,base_link,0,1,40.5903542,-79.8964245,364.665829226,0.302500013113,0.0,0.0,0.0,0.302500013113,0.0,0.0,0.0,1.21000005245,1,420.81331347505227,122.758041538367,364.6507834203062,-15.186846412922417,-4.135069599399626,-0.34886863989692257,0,Fixed-Wing
1970-01-01 00:01:17.246107103,3695,1536701915224736535,base_link,0,1,40.590351,-79.896497,364.555756165,0.302500013113,0.0,0.0,0.0,0.302500013113,0.0,0.0,0.0,1.21000005245,1,414.6755657907235,122.40232793649699,364.541118619284,-15.335091480476208,-0.8887463131555604,-0.2739962348333684,0,Fixed-Wing
1970-01-01 00:01:17.592076049,3697,1536701915570729106,base_link,0,1,40.590361,-79.8965665,364.58568057,0.302500013113,0.0,0.0,0.0,0.302500013113,0.0,0.0,0.0,1.21000005245,1,408.7917226133214,123.5125271787101,364.571400834378,-14.700714011528344,2.773819944466381,0.07565976357794009,0,Fixed-Wing
1970-01-01 00:01:18.045226083,3699,1536701916023872706,base_link,0,1,40.590383,-79.8966289,364.805607163,0.302500013113,0.0,0.0,0.0,0.302500013113,0.0,0.0,0.0,1.21000005245,1,403.5088980685073,125.95539569452787,364.7916154453475,-13.199075921102995,6.103478684940022,0.5502036542129318,0,Fixed-Wing
1970-01-01 00:01:18.416562697,3701,1536701916395113796,base_link,0,1,40.5904134,-79.8966841,364.955537583,0.302500013113,0.0,0.0,0.0,0.302500013113,0.0,0.0,0.0,1.21000005245,1,398.8355650097278,129.33113920287985,364.94177165668975,-11.676268504503433,8.434256045972157,0.3751635544052795,0,Fixed-Wing
