time,field.header.seq,field.header.stamp,field.header.frame_id,field.status.status,field.status.service,lat,lon,alt,field.position_covariance0,field.position_covariance1,field.position_covariance2,field.position_covariance3,field.position_covariance4,field.position_covariance5,field.position_covariance6,field.position_covariance7,field.position_covariance8,field.position_covariance_type,x,y,z,vel_x,vel_y,vel_z,track_id,uav_category
1970-01-01 00:00:00.000000000,3982,1538765738442654824,base_link,0,1,40.5915034,-79.8961873,388.585586161,0.532900027847,0.0,0.0,0.0,0.532900027847,0.0,0.0,0.0,2.13160011139,1,435.39419511933914,127.7012139621057,388.56946589523443,-17.441061585322625,2.33126678712377,-0.8991597842644226,0,Fixed-Wing
1970-01-01 00:00:00.361179936,3984,1538765738803848264,base_link,0,1,40.5915118,-79.8962697,388.22549812,0.532900027847,0.0,0.0,0.0,0.532900027847,0.0,0.0,0.0,2.13160011139,1,428.4183285991808,128.63364607641802,388.20983075464176,-17.441061585322625,2.33126678712377,-0.8991597842644226,0,Fixed-Wing
1970-01-01 00:00:00.785265472,3986,1538765739227245704,base_link,0,1,40.5915257,-79.8963518,387.895408088,0.532900027847,0.0,0.0,0.0,0.532900027847,0.0,0.0,0.0,2.13160011139,1,421.4678293383657,130.17687701115702,387.8801717283981,-17.37763836310692,3.858386007728119,-0.8242135026892965,0,Fixed-Wing
1970-01-01 00:00:01.196395264,3988,1538765739638825608,base_link,0,1,40.5915447,-79.8964328,387.185317056,0.532900027847,0.0,0.0,0.0,0.532900027847,0.0,0.0,0.0,2.13160011139,1,414.61040083762657,132.2864807516295,387.17048597301505,-17.144942847275544,5.27443130568569,-1.7743563369646504,0,Fixed-Wing
1970-01-01 00:00:01.574877696,3990,1538765740017525992,base_link,0,1,40.591569,-79.8965121,386.005225559,0.532900027847,0.0,0.0,0.0,0.532900027847,0.0,0.0,0.0,2.13160011139,1,407.89683331893195,134.98466790346157,385.9907700455517,-16.785261617665956,6.746007560184962,-2.9495257807208293,0,Fixed-Wing
1970-01-01 00:00:02.001204480,3992,1538765740444044232,base_link,0,1,40.5915991,-79.8965894,384.425133695,0.532900027847,0.0,0.0,0.0,0.532900027847,0.0,0.0,0.0,2.13160011139,1,401.35252826435186,138.32696641123357,384.411020948232,-16.362071602178407,8.356414782612609,-3.949688718396665,0,Fixed-Wing
1970-01-01 00:00:02.390886784,3994,1538765740833891176,base_link,0,1,40.5916346,-79.8966648,382.615041534,0.532900027847,0.0,0.0,0.0,0.532900027847,0.0,0.0,0.0,2.13160011139,1,394.9690353717976,142.26895700524938,382.6012397707937,-15.960009032108252,9.855764946235213,-4.52481492879008,0,Fixed-Wing
1970-01-01 00:00:02.792586656,3996,1538765741235142248,base_link,0,1,40.5916742,-79.8967387,380.564949213,0.532900027847,0.0,0.0,0.0,0.532900027847,0.0,0.0,0.0,2.13160011139,1,388.71250047704825,146.66626788086302,380.55143140679957,-15.642588643964858,10.994156721571828,-5.12493090445772,0,Fixed-Wing
1970-01-01 00:00:03.230346944,3998,1538765741673000840,base_link,0,1,40.5917175,-79.8968119,378.414856084,0.532900027847,0.0,0.0,0.0,0.532900027847,0.0,0.0,0.0,2.13160011139,1,382.5152099687214,151.47447659773184,378.4015997516018,-15.494465828083323,12.021483510852915,-5.375009138725529,0,Fixed-Wing
1970-01-01 00:00:03.578958112,4000,1538765742021910696,base_link,0,1,40.5917637,-79.896885,376.174761869,0.532900027847,0.0,0.0,0.0,0.532900027847,0.0,0.0,0.0,2.13160011139,1,376.3263757808756,156.60473798339513,376.1617489481522,-15.473323335481409,12.826679598526104,-5.600075014625167,0,Fixed-Wing
1970-01-01 00:00:03.968655296,4002,1538765742411676424,base_link,0,1,40.5918116,-79.8969585,373.844666562,0.532900027847,0.0,0.0,0.0,0.532900027847,0.0,0.0,0.0,2.13160011139,1,370.1036770429785,161.92378630101058,373.83188408162687,-15.557991484061416,13.298684688813742,-5.825128176567443,0,Fixed-Wing
1970-01-01 00:00:04.417849504,4004,1538765742860539464,base_link,0,1,40.5918615,-79.8970326,371.514569833,0.532900027847,0.0,0.0,0.0,0.532900027847,0.0,0.0,0.0,2.13160011139,1,363.83018671124137,167.46493850672005,371.50200433471025,-15.6849806277931,13.853988833380335,-5.825165380521986,0,Fixed-Wing
1970-01-01 00:00:04.805876768,4006,1538765743248408744,base_link,0,1,40.5919137,-79.8971074,369.374471458,0.532900027847,0.0,0.0,0.0,0.532900027847,0.0,0.0,0.0,2.13160011139,1,357.49744886504897,173.26151499707987,369.36210832197173,-15.833111264382154,14.49260063395028,-5.3501680452899185,0,Fixed-Wing
1970-01-01 00:00:05.198932928,4008,1538765743641865960,base_link,0,1,40.5919679,-79.8971814,367.0843731,0.532900027847,0.0,0.0,0.0,0.532900027847,0.0,0.0,0.0,2.13160011139,1,351.23243180846316,179.28019686002295,367.07219078947685,-15.663795745124123,15.047908490036912,-5.725251851385318,0,Fixed-Wing
1970-01-01 00:00:05.581677216,4010,1538765744024436456,base_link,0,1,40.5920257,-79.8972542,364.974274503,0.532900027847,0.0,0.0,0.0,0.532900027847,0.0,0.0,0.0,2.13160011139,1,345.06900856964444,185.6986782991919,364.9622440372969,-15.409790880317233,16.04748739691411,-5.275288903562163,0,Fixed-Wing
1970-01-01 00:00:05.978123968,4012,1538765744421059528,base_link,0,1,40.5920869,-79.8973243,362.684177288,0.532900027847,0.0,0.0,0.0,0.532900027847,0.0,0.0,0.0,2.13160011139,1,339.13414599149434,192.4947436280574,362.6722627015496,-14.838343512856285,16.991522643975255,-5.725411372278066,0,Fixed-Wing
1970-01-01 00:00:06.402780480,4014,1538765744845783656,base_link,0,1,40.592154,-79.8973882,360.524083998,0.532900027847,0.0,0.0,0.0,0.532900027847,0.0,0.0,0.0,2.13160011139,1,333.7241458998019,199.94604513196776,360.51222456188907,-13.526082315816362,18.629744139307075,-5.400527391342593,0,Fixed-Wing
1970-01-01 00:00:06.759826336,4016,1538765745202842280,base_link,0,1,40.592229,-79.8974424,358.883997386,0.532900027847,0.0,0.0,0.0,0.532900027847,0.0,0.0,0.0,2.13160011139,1,329.1353146916096,208.27471190124828,358.87210887679873,-11.472995860149535,20.823332789824477,-4.100617262106809,0,Fixed-Wing
1970-01-01 00:00:07.175835872,4018,1538765745618838344,base_link,0,1,40.5923109,-79.8974834,357.923921449,0.532900027847,0.0,0.0,0.0,0.532900027847,0.0,0.0,0.0,2.13160011139,1,325.6639592029245,217.36970994157565,357.9119066573311,-8.679083048356633,22.7393142459581,-2.4006976044774744,0,Fixed-Wing
1970-01-01 00:00:07.558642272,4020,1538765746001616904,base_link,0,1,40.5923973,-79.8975081,357.763860357,0.532900027847,0.0,0.0,0.0,0.532900027847,0.0,0.0,0.0,2.13160011139,1,323.5725263277088,226.96453049222578,357.75161683555416,-5.229000508079972,23.98897049426486,-0.40075661497151766,0,Fixed-Wing
1970-01-01 00:00:07.972465120,4022,1538765746415348552,base_link,0,1,40.592485,-79.8975165,358.163815432,0.532900027847,0.0,0.0,0.0,0.532900027847,0.0,0.0,0.0,2.13160011139,1,322.86101352804906,236.7037997218224,358.1512530585241,-1.7789243130943357,24.35012108367827,0.9991704910641495,0,Fixed-Wing
1970-01-01 00:00:08.378490592,4024,1538765746821352008,base_link,0,1,40.5925715,-79.8975095,358.983786786,0.532900027847,0.0,0.0,0.0,0.532900027847,0.0,0.0,0.0,2.13160011139,1,323.4532301645803,246.30988034405402,358.9708298437296,1.48066004413165,24.017122925413073,2.049105891484994,0,Fixed-Wing
1970-01-01 00:00:08.780240704,4026,1538765747223408680,base_link,0,1,40.592655,-79.8974883,359.80377393,0.5625,0.0,0.0,0.0,0.5625,0.0,0.0,0.0,2.25,1,325.2475722255244,255.58285901688623,359.7903601550744,4.486214049484146,23.18430142619462,2.048989697537819,0,Fixed-Wing
1970-01-01 00:00:09.169665568,4028,1538765747612716104,base_link,0,1,40.5927347,-79.8974531,360.523776984,0.5625,0.0,0.0,0.0,0.5625,0.0,0.0,0.0,2.25,1,328.2271035588574,264.433889692697,360.5098491160227,7.449424287275482,22.12934703728989,1.7988663116756767,0,Fixed-Wing
1970-01-01 00:00:09.593576288,4030,1538765748036563208,base_link,0,1,40.5928082,-79.8974036,361.233797239,0.5625,0.0,0.0,0.0,0.5625,0.0,0.0,0.0,2.25,1,332.4172339657753,272.5964525678668,361.2193082210719,10.476164110423696,20.408039831110948,1.7737896657963488,0,Fixed-Wing
1970-01-01 00:00:10.001991808,4032,1538765748445017480,base_link,0,1,40.5928737,-79.8973409,361.803834308,0.5625,0.0,0.0,0.0,0.5625,0.0,0.0,0.0,2.25,1,337.72484209521485,279.8706451959706,361.78875107215066,13.270081930153236,18.186936525181597,1.423721025378899,0,Fixed-Wing
1970-01-01 00:00:10.385067904,4034,1538765748826934824,base_link,0,1,40.5929285,-79.8972643,362.623890014,0.5625,0.0,0.0,0.0,0.5625,0.0,0.0,0.0,2.25,1,344.20922022111904,285.9566480775664,362.6081900410933,16.212242294143998,15.216224501949629,2.048761323262412,0,Fixed-Wing
1970-01-01 00:00:10.798388544,4036,1538765749240620456,base_link,0,1,40.5929724,-79.897178,363.353960141,0.5625,0.0,0.0,0.0,0.5625,0.0,0.0,0.0,2.25,1,351.5147992338914,290.83222171667734,363.33764132732443,18.265408764632024,12.18990929052059,1.8237741175072844,0,Fixed-Wing
1970-01-01 00:00:11.169997760,4038,1538765749612201832,base_link,0,1,40.5930045,-79.8970847,363.854042301,0.5625,0.0,0.0,0.0,0.5625,0.0,0.0,0.0,2.25,1,359.41300838686715,294.397403210559,363.8371200019509,19.74710265065147,8.913666828050376,1.2487965902933722,0,Fixed-Wing
1970-01-01 00:00:11.585775264,4040,1538765750027941032,base_link,0,1,40.5930254,-79.8969874,364.244133177,0.5625,0.0,0.0,0.0,0.5625,0.0,0.0,0.0,2.25,1,367.64988773701594,296.7188182358031,364.2266342686562,20.593845883042636,5.804001883260929,0.9738635758493307,0,Fixed-Wing
1970-01-01 00:00:11.993657504,4042,1538765750436422280,base_link,0,1,40.5930353,-79.8968887,364.484230032,0.5625,0.0,0.0,0.0,0.5625,0.0,0.0,0.0,2.25,1,376.00533326529234,297.8186650586433,364.4661933585902,20.89028504349446,2.749837044064076,0.5989456404862514,0,Fixed-Wing
1970-01-01 00:00:12.436108448,4044,1538765750878686184,base_link,0,1,40.5930317,-79.8967906,364.814331852,0.5625,0.0,0.0,0.0,0.5625,0.0,0.0,0.0,2.25,1,384.31006644206246,297.4193153098732,364.7958195989682,20.763494021447038,-0.9984542482651981,0.824131531467494,0,Fixed-Wing
1970-01-01 00:00:12.789416032,4046,1538765751232440168,base_link,0,1,40.5930192,-79.8966951,365.004434699,0.5625,0.0,0.0,0.0,0.5625,0.0,0.0,0.0,2.25,1,392.3947407623141,296.03159010906137,364.9854956288456,20.213302864858246,-3.4695905692750793,0.474228012934616,0,Fixed-Wing
1970-01-01 00:00:13.163363776,4048,1538765751606211848,base_link,0,1,40.5929984,-79.8966036,364.884536896,0.5625,0.0,0.0,0.0,0.5625,0.0,0.0,0.0,2.25,1,400.14082693147174,293.7221059906866,364.8652243085546,19.36676476407525,-5.7741722297153,-0.30070235691607927,0,Fixed-Wing
1970-01-01 00:00:13.589402816,4050,1538765752021778952,base_link,0,1,40.5929677,-79.8965179,364.404637266,0.5625,0.0,0.0,0.0,0.5625,0.0,0.0,0.0,2.25,1,407.39595309204293,290.3131678355381,364.38502251903213,18.139266542751407,-8.523027230049701,-1.2006005218479532,0,Fixed-Wing
1970-01-01 00:00:13.987588896,4052,1538765752428767688,base_link,0,1,40.592926,-79.8964424,364.024731762,0.5625,0.0,0.0,0.0,0.5625,0.0,0.0,0.0,2.25,1,413.78767302805113,285.6826173881513,364.00491574378265,15.980578286283405,-11.577302302651166,-0.9503429655609632,0,Fixed-Wing
1970-01-01 00:00:14.388509440,4054,1538765752831247976,base_link,0,1,40.5928761,-79.8963792,363.734817082,0.5625,0.0,0.0,0.0,0.5625,0.0,0.0,0.0,2.25,1,419.13819388102274,280.1413887255711,363.7148985951368,13.377372322214809,-13.85417999084972,-0.7251008796850221,0,Fixed-Wing
1970-01-01 00:00:14.771208480,4056,1538765753214204360,base_link,0,1,40.5928192,-79.8963291,363.684891912,0.5625,0.0,0.0,0.0,0.5625,0.0,0.0,0.0,2.25,1,423.37979351811913,273.8227449963726,363.6649687496693,10.604847480539407,-15.797873152848545,-0.12483460043675638,0,Fixed-Wing
1970-01-01 00:00:15.178882176,4058,1538765753620510568,base_link,0,1,40.5927593,-79.8962899,363.724956849,0.5625,0.0,0.0,0.0,0.5625,0.0,0.0,0.0,2.25,1,426.6986780976151,267.170897572371,363.7050956252539,8.29787527876216,-16.630949035926808,0.100325214978639,0,Fixed-Wing
1970-01-01 00:00:15.575576000,4060,1538765754018524808,base_link,0,1,40.5926978,-79.8962615,363.995011414,0.5625,0.0,0.0,0.0,0.5625,0.0,0.0,0.0,2.25,1,429.10331175297136,260.34132451274417,363.9752722104896,6.012065103599019,-17.07529867296097,0.6754955027295463,0,Fixed-Wing
1970-01-01 00:00:15.978958496,4062,1538765754421879912,base_link,0,1,40.5926354,-79.8962425,364.625056749,0.5625,0.0,0.0,0.0,0.5625,0.0,0.0,0.0,2.25,1,430.7122147960691,253.41177287732535,364.60548901716794,4.022579414097407,-17.325265109755826,1.5756680701414458,0,Fixed-Wing
1970-01-01 00:00:16.374936480,4064,1538765754817994696,base_link,0,1,40.5925738,-79.896228,365.215097165,0.5625,0.0,0.0,0.0,0.5625,0.0,0.0,0.0,2.25,1,431.9401614191123,246.57103859358602,365.19571528441753,3.0701121665814206,-17.10320396566556,1.475683722821803,0,Fixed-Wing
1970-01-01 00:00:16.780859968,4066,1538765755223931784,base_link,0,1,40.5925136,-79.8962151,365.675135382,0.532900027847,0.0,0.0,0.0,0.532900027847,0.0,0.0,0.0,2.13160011139,1,433.0326429851197,239.8857639380327,365.6559350876549,2.731422428812788,-16.71452380078735,1.1506415594181305,0,Fixed-Wing
1970-01-01 00:00:17.176295232,4068,1538765755618965544,base_link,0,1,40.5924546,-79.8962018,365.93517353,0.532900027847,0.0,0.0,0.0,0.532900027847,0.0,0.0,0.0,2.13160011139,1,434.1589677669062,233.3337460995303,365.9161404249147,2.8160372374451943,-16.38135510466443,0.650565388380654,0,Fixed-Wing
1970-01-01 00:00:17.584876512,4070,1538765756027947176,base_link,0,1,40.592397,-79.8961874,366.205212242,0.532900027847,0.0,0.0,0.0,0.532900027847,0.0,0.0,0.0,2.13160011139,1,435.3784080490306,226.93720715651193,366.1863274923198,3.04884461288009,-15.992626767687307,0.6755217102494726,0,Fixed-Wing
1970-01-01 00:00:17.990034400,4072,1538765756430022312,base_link,0,1,40.5923404,-79.8961721,366.095251478,0.532900027847,0.0,0.0,0.0,0.532900027847,0.0,0.0,0.0,2.13160011139,1,436.6740086980827,220.6517116515656,366.0764993613655,3.239260763491235,-15.714995962042813,-0.27459229476925634,0,Fixed-Wing
1970-01-01 00:00:18.392207520,4074,1538765756834943336,base_link,0,1,40.5922844,-79.8961553,366.015292021,0.532900027847,0.0,0.0,0.0,0.532900027847,0.0,0.0,0.0,2.13160011139,1,438.09659414751223,214.4328565765072,365.99665511331335,3.556748163426979,-15.548381558170654,-0.19962659025760662,0,Fixed-Wing
1970-01-01 00:00:18.772127424,4076,1538765757215158568,base_link,0,1,40.5922287,-79.8961374,365.645333584,0.532900027847,0.0,0.0,0.0,0.532900027847,0.0,0.0,0.0,2.13160011139,1,439.6122820695635,208.2473137165157,365.62679799124504,3.7895229669654986,-15.465094357527352,-0.9247167825133777,0,Fixed-Wing
1970-01-01 00:00:19.232122208,4078,1538765757675196008,base_link,0,1,40.5921735,-79.8961181,364.945376392,0.532900027847,0.0,0.0,0.0,0.532900027847,0.0,0.0,0.0,2.13160011139,1,441.2464653152675,202.1172946785332,364.9269257935402,4.085784977058257,-15.32627369685198,-1.7498204799005146,0,Fixed-Wing
1970-01-01 00:00:19.574062560,4080,1538765758017088776,base_link,0,1,40.592118,-79.8960966,364.275421598,0.532900027847,0.0,0.0,0.0,0.532900027847,0.0,0.0,0.0,2.13160011139,1,443.0668993202788,195.9539736800142,364.2570377779454,4.55144912845851,-15.409535259118224,-1.6748540273091324,0,Fixed-Wing
1970-01-01 00:00:19.963167776,4082,1538765758404634760,base_link,0,1,40.5920622,-79.8960718,363.855470333,0.532900027847,0.0,0.0,0.0,0.532900027847,0.0,0.0,0.0,2.13160011139,1,445.16672212965824,189.75736290380388,363.83712833275683,5.249977021610275,-15.492766361834748,-1.049857601579576,0,Fixed-Wing
1970-01-01 00:00:20.415005312,4084,1538765758856908104,base_link,0,1,40.5920067,-79.8960435,363.35552255,0.532900027847,0.0,0.0,0.0,0.532900027847,0.0,0.0,0.0,2.13160011139,1,447.56283886546964,183.59408478196588,363.3371939271724,5.990771101216607,-15.409428058839719,-1.2499360088418083,0,Fixed-Wing
1970-01-01 00:00:20.785335296,4086,1538765759228386856,base_link,0,1,40.5919516,-79.8960123,362.775577594,0.532900027847,0.0,0.0,0.0,0.532900027847,0.0,0.0,0.0,2.13160011139,1,450.2044553703381,177.47524199544813,362.7572369433003,6.604569627741385,-15.298330832760985,-1.4500084603570285,0,Fixed-Wing
1970-01-01 00:00:21.178427936,4088,1538765759621172456,base_link,0,1,40.5918953,-79.8959833,362.505630906,0.532900027847,0.0,0.0,0.0,0.532900027847,0.0,0.0,0.0,2.13160011139,1,452.6598608619775,171.22313552950993,362.4872880364503,6.139004849486451,-15.631516686180388,-0.6749262612259088,0,Fixed-Wing
1970-01-01 00:00:21.598003040,4090,1538765760041050344,base_link,0,1,40.5918375,-79.8959599,362.115679123,0.532900027847,0.0,0.0,0.0,0.532900027847,0.0,0.0,0.0,2.13160011139,1,454.6411934775606,164.80441990433513,362.0973650260796,4.953727837184688,-16.048072908769697,-0.9748855167680768,0,Fixed-Wing
1970-01-01 00:00:21.977195968,4092,1538765760420180680,base_link,0,1,40.5917783,-79.895946,361.535718204,0.532900027847,0.0,0.0,0.0,0.532900027847,0.0,0.0,0.0,2.13160011139,1,455.8182844119952,158.23017844093044,361.5174871009226,2.9429627731083547,-16.436918612000685,-1.4498107977563375,0,Fixed-Wing
1970-01-01 00:00:22.376719648,4094,1538765760819848936,base_link,0,1,40.5917181,-79.8959428,360.925746748,0.532900027847,0.0,0.0,0.0,0.532900027847,0.0,0.0,0.0,2.13160011139,1,456.0895520405698,151.54482991610286,360.9076590164562,0.6782233293028583,-16.714708488748073,-1.5246921865409597,0,Fixed-Wing
1970-01-01 00:00:22.784343424,4096,1538765761227354440,base_link,0,1,40.5916585,-79.8959529,360.445761413,0.532900027847,0.0,0.0,0.0,0.532900027847,0.0,0.0,0.0,2.13160011139,1,455.23488638653726,144.92604825847073,360.42788884777826,-2.136835081887912,-16.548278006320825,-1.1995213834054987,0,Fixed-Wing
1970-01-01 00:00:23.194698336,4098,1538765761637830408,base_link,0,1,40.5916017,-79.8959786,360.325758914,0.532900027847,0.0,0.0,0.0,0.532900027847,0.0,0.0,0.0,2.13160011139,1,453.0595747367884,138.61814168502644,360.30818155855303,-5.438714221509808,-15.771028115859982,-0.29929216643639545,0,Fixed-Wing
1970-01-01 00:00:23.562757120,4100,1538765762005496232,base_link,0,1,40.5915494,-79.8960184,360.415740071,0.532900027847,0.0,0.0,0.0,0.532900027847,0.0,0.0,0.0,2.13160011139,1,449.6905775757252,132.80990371580043,360.39852466997706,-8.4231667559986,-14.521756663598122,0.22587584862797372,0,Fixed-Wing
1970-01-01 00:00:23.982836000,4102,1538765762425917480,base_link,0,1,40.5915037,-79.8960703,360.57570605,0.532900027847,0.0,0.0,0.0,0.532900027847,0.0,0.0,0.0,2.13160011139,1,445.2971832430996,127.73455256504529,360.5589023507416,-10.984364580730398,-12.689393028330116,0.4009762800137874,0,Fixed-Wing
1970-01-01 00:00:24.387189408,4104,1538765762827411560,base_link,0,1,40.5914657,-79.8961334,360.965657309,0.532900027847,0.0,0.0,0.0,0.532900027847,0.0,0.0,0.0,2.13160011139,1,439.9555861141971,123.51425506676298,360.94930708011134,-13.355061227154403,-10.551587872735585,0.9760899106171503,0,Fixed-Wing
1970-01-01 00:00:24.812825184,4106,1538765763255505416,base_link,0,1,40.5914373,-79.8962062,361.485594585,0.532900027847,0.0,0.0,0.0,0.532900027847,0.0,0.0,0.0,2.13160011139,1,433.7927526331036,120.36001786429814,361.46972630854395,-15.408316368043229,-7.88622390407443,1.301152163254599,0,Fixed-Wing
1970-01-01 00:00:25.174397600,4108,1538765763616848520,base_link,0,1,40.5914195,-79.8962854,362.185520845,0.532900027847,0.0,0.0,0.0,0.532900027847,0.0,0.0,0.0,2.13160011139,1,427.08805018347016,118.38291231518136,362.17014147555483,-16.763097171857325,-4.943159325538008,1.7511780117681266,0,Fixed-Wing
1970-01-01 00:00:25.543356704,4110,1538765763986133992,base_link,0,1,40.5914123,-79.8963688,362.905438345,0.532900027847,0.0,0.0,0.0,0.532900027847,0.0,0.0,0.0,2.13160011139,1,420.0277165407503,117.58294762685136,362.8905419799107,-17.652246286502557,-2.000071726563108,1.8011453525179355,0,Fixed-Wing
1970-01-01 00:00:26.007636448,4112,1538765764449216808,base_link,0,1,40.5914154,-79.8964541,363.605349574,0.532900027847,0.0,0.0,0.0,0.532900027847,0.0,0.0,0.0,2.13160011139,1,412.80646605343827,117.92681952484884,363.59091761413913,-18.0545705839268,0.8597485248756744,1.7510791719047718,0,Fixed-Wing
1970-01-01 00:00:26.441311296,4114,1538765764878241864,base_link,0,1,40.5914286,-79.8965389,364.155257082,0.532900027847,0.0,0.0,0.0,0.532900027847,0.0,0.0,0.0,2.13160011139,1,405.62747280177155,119.3923269898539,364.1412577125992,-17.94891904269023,3.6640617874556485,1.3759603229760458,0,Fixed-Wing
1970-01-01 00:00:26.767194432,4116,1538765765210299336,base_link,0,1,40.5914521,-79.8966211,364.54516294,0.532900027847,0.0,0.0,0.0,0.532900027847,0.0,0.0,0.0,2.13160011139,1,398.66851919784267,122.00168988696186,364.53155219703785,-17.398775911895143,6.523929157102461,0.9758142762387019,0,Fixed-Wing
1970-01-01 00:00:27.194817472,4118,1538765765637644776,base_link,0,1,40.5914858,-79.8966987,364.805069247,0.532900027847,0.0,0.0,0.0,0.532900027847,0.0,0.0,0.0,2.13160011139,1,392.0989258772402,125.74381188390917,364.79179230370676,-16.42529732529215,9.356053476646428,0.6506523188577652,0,Fixed-Wing
1970-01-01 00:00:27.612361984,4120,1538765766055397672,base_link,0,1,40.5915297,-79.8967691,365.034978671,0.532900027847,0.0,0.0,0.0,0.532900027847,0.0,0.0,0.0,2.13160011139,1,386.13881068047175,130.61870532953603,365.02196660139623,-14.901480110330002,12.188208670760794,0.5754817827663037,0,Fixed-Wing
1970-01-01 00:00:27.986379104,4122,1538765766429151624,base_link,0,1,40.591582,-79.896832,365.02489228,0.532900027847,0.0,0.0,0.0,0.532900027847,0.0,0.0,0.0,2.13160011139,1,380.8135701349679,136.42647132445038,365.01207803533543,-13.31416649707938,14.520576633416544,-0.024723393023428877,0,Fixed-Wing
1970-01-01 00:00:28.364967520,4124,1538765766806948328,base_link,0,1,40.5916419,-79.8968851,364.784812772,0.532900027847,0.0,0.0,0.0,0.532900027847,0.0,0.0,0.0,2.13160011139,1,376.31792184911785,143.07827601171698,364.7721188681011,-11.240019916218428,16.630842185541354,-0.5999459137590017,0,Fixed-Wing
1970-01-01 00:00:28.781117984,4126,1538765767224107816,base_link,0,1,40.5917098,-79.8969234,364.534745101,0.532900027847,0.0,0.0,0.0,0.532900027847,0.0,0.0,0.0,2.13160011139,1,373.07516139391674,150.61856443022208,364.52206739446456,-8.107549741982128,18.852229224600716,-0.625178698387165,0,Fixed-Wing
1970-01-01 00:00:29.179090240,4128,1538765767621911944,base_link,0,1,40.5917834,-79.8969464,364.234690746,0.532900027847,0.0,0.0,0.0,0.532900027847,0.0,0.0,0.0,2.13160011139,1,371.1276248611086,158.7919154649466,364.22192776513225,-4.869230870490035,20.435012387802356,-0.7504091060592519,0,Fixed-Wing
1970-01-01 00:00:29.608127744,4130,1538765768051068360,base_link,0,1,40.5918594,-79.8969529,363.844652315,0.532900027847,0.0,0.0,0.0,0.532900027847,0.0,0.0,0.0,2.13160011139,1,370.5769124674187,167.2318589911789,363.8317050806095,-1.376891135515536,21.101546939335893,-0.9756347620878889,0,Fixed-Wing
1970-01-01 00:00:29.985251968,4132,1538765768428310696,base_link,0,1,40.5919353,-79.8969419,363.764631874,0.532900027847,0.0,0.0,0.0,0.532900027847,0.0,0.0,0.0,2.13160011139,1,371.507713144856,175.66077863825032,363.75140345435443,2.327187868622679,21.073985036481446,-0.20077012724780482,0,Fixed-Wing
1970-01-01 00:00:30.374844224,4134,1538765768817943080,base_link,0,1,40.5920092,-79.8969197,364.004623761,0.532900027847,0.0,0.0,0.0,0.532900027847,0.0,0.0,0.0,2.13160011139,1,373.3866961181995,183.86765022157294,363.99105391954595,4.69783326001958,20.518820463943676,0.5991740969065439,0,Fixed-Wing
1970-01-01 00:00:30.784163712,4136,1538765769227218248,base_link,0,1,40.5920798,-79.8968919,364.434622782,0.532900027847,0.0,0.0,0.0,0.532900027847,0.0,0.0,0.0,2.13160011139,1,375.7397815720868,191.708079724252,364.4206835612846,5.883184289461486,19.60264196805509,1.0741600371495794,0,Fixed-Wing
1970-01-01 00:00:31.161297856,4138,1538765769604016424,base_link,0,1,40.5921486,-79.8968647,364.97462196,0.532900027847,0.0,0.0,0.0,0.532900027847,0.0,0.0,0.0,2.13160011139,1,378.0420851410101,199.34861767416692,364.9603121041853,5.75621941986175,19.10287310463566,1.3491792915950442,0,Fixed-Wing
1970-01-01 00:00:31.574001824,4140,1538765770017031048,base_link,0,1,40.5922171,-79.8968433,365.324615345,0.532900027847,0.0,0.0,0.0,0.532900027847,0.0,0.0,0.0,2.13160011139,1,379.8533675140803,206.95581078276604,365.30995515003593,4.5285682181329125,19.019504331844345,0.8741775488305444,0,Fixed-Wing
1970-01-01 00:00:32.044718144,4142,1538765770484876520,base_link,0,1,40.5922859,-79.8968304,365.374599926,0.532900027847,0.0,0.0,0.0,0.532900027847,0.0,0.0,0.0,2.13160011139,1,380.9450478976558,214.59627406117127,365.35962162037646,2.7294193124838033,19.102686410925962,0.12417610994010983,0,Fixed-Wing
1970-01-01 00:00:32.374176608,4144,1538765770817283400,base_link,0,1,40.5923552,-79.8968287,365.024572856,0.532900027847,0.0,0.0,0.0,0.532900027847,0.0,0.0,0.0,2.13160011139,1,381.08854935600147,222.2922014131937,365.0093217778417,0.35878234845204554,19.241357688671187,-0.8758196719106348,0,Fixed-Wing
1970-01-01 00:00:32.779496800,4146,1538765771222497800,base_link,0,1,40.5924235,-79.8968424,364.414530463,0.532900027847,0.0,0.0,0.0,0.532900027847,0.0,0.0,0.0,2.13160011139,1,379.92833595300795,229.87699966062962,364.39907899394285,-2.9007655687292986,18.96351269960575,-1.5257290180685823,0,Fixed-Wing
1970-01-01 00:00:33.177775392,4148,1538765771620793704,base_link,0,1,40.592488,-79.8968737,363.664471661,0.532900027847,0.0,0.0,0.0,0.532900027847,0.0,0.0,0.0,2.13160011139,1,377.27819163837455,237.03971687603328,363.6489144629676,-6.625890857852114,17.908225696564877,-1.8755613723479603,0,Fixed-Wing
1970-01-01 00:00:33.571985952,4150,1538765772014999208,base_link,0,1,40.5925445,-79.8969238,362.954396966,0.5625,0.0,0.0,0.0,0.5625,0.0,0.0,0.0,2.25,1,373.0365676460638,243.31393614813197,362.9388520554076,-10.604908373446715,15.686803124496686,-1.7752980427433545,0,Fixed-Wing
1970-01-01 00:00:34.006950496,4152,1538765772449513032,base_link,0,1,40.592589,-79.8969909,362.174309875,0.5625,0.0,0.0,0.0,0.5625,0.0,0.0,0.0,2.25,1,367.3558631258701,248.25545433994847,362.15890330943876,-14.202897532286904,12.354783862250228,-1.9500278671515023,0,Fixed-Wing
1970-01-01 00:00:34.371672768,4154,1538765772814747496,base_link,0,1,40.5926193,-79.8970692,361.32421723,0.5625,0.0,0.0,0.0,0.5625,0.0,0.0,0.0,2.25,1,360.72709441659197,251.61998361834284,361.3090562917496,-16.57324763300594,8.411996155678384,-2.1247875272251067,0,Fixed-Wing
1970-01-01 00:00:34.820008928,4156,1538765773262931816,base_link,0,1,40.592632,-79.8971536,360.704125649,0.608399955368,0.0,0.0,0.0,0.608399955368,0.0,0.0,0.0,2.43359982147,1,353.5820384381966,253.02998147022112,360.6893083030213,-17.864069071514127,3.52527665182783,-1.5494939313352734,0,Fixed-Wing
1970-01-01 00:00:35.164455488,4158,1538765773607289160,base_link,0,1,40.5926249,-79.8972379,360.294042377,0.608399955368,0.0,0.0,0.0,0.608399955368,0.0,0.0,0.0,2.43359982147,1,346.4455657128251,252.2411585470223,360.27964740160354,-17.842609222166534,-1.9722150852038358,-1.024234192279726,0,Fixed-Wing
1970-01-01 00:00:35.602728224,4160,1538765774045636232,base_link,0,1,40.5925988,-79.8973153,359.983974031,0.608399955368,0.0,0.0,0.0,0.608399955368,0.0,0.0,0.0,2.43359982147,1,339.8933192503716,249.34237895454532,359.9700453290912,-16.381926710270633,-7.24752878349514,-0.7740671066494021,0,Fixed-Wing
1970-01-01 00:00:35.974458912,4162,1538765774417588360,base_link,0,1,40.5925573,-79.897381,359.553924029,0.608399955368,0.0,0.0,0.0,0.608399955368,0.0,0.0,0.0,2.43359982147,1,334.33161277123105,244.73343945675708,359.54046779468763,-13.905378628141566,-11.523270606119095,-1.0740297583895795,0,Fixed-Wing
1970-01-01 00:00:36.390069696,4164,1538765774832848776,base_link,0,1,40.5925022,-79.8974283,359.383898481,0.608399955368,0.0,0.0,0.0,0.608399955368,0.0,0.0,0.0,2.43359982147,1,330.3276502614626,238.61427198878357,359.37088298270174,-10.01070713099155,-15.299142601341886,-0.42399594964068416,0,Fixed-Wing
1970-01-01 00:00:36.773155360,4166,1538765775216123656,base_link,0,1,40.5924401,-79.8974571,359.773894761,0.5625,0.0,0.0,0.0,0.5625,0.0,0.0,0.0,2.25,1,327.8898812813078,231.71783001589017,359.76125975350465,-6.094910043190527,-17.242484330979977,0.9760200086079442,0,Fixed-Wing
1970-01-01 00:00:37.172319904,4168,1538765775615233512,base_link,0,1,40.5923782,-79.8974766,360.783900483,0.5625,0.0,0.0,0.0,0.5625,0.0,0.0,0.0,2.25,1,326.23944038922843,224.84365485567918,360.7715966127612,-4.126432344785981,-17.186812845555135,2.5260442316798852,0,Fixed-Wing
1970-01-01 00:00:37.586668256,4170,1538765776029660872,base_link,0,1,40.592319,-79.8974959,362.013905306,0.608399955368,0.0,0.0,0.0,0.608399955368,0.0,0.0,0.0,2.43359982147,1,324.6059253067382,218.26932758423573,362.00191358075057,-4.084114435380451,-16.437133149260568,3.0760385030536974,0,Fixed-Wing
1970-01-01 00:00:37.965887808,4172,1538765776408986120,base_link,0,1,40.5922632,-79.897519,363.253904848,0.608399955368,0.0,0.0,0.0,0.608399955368,0.0,0.0,0.0,2.43359982147,1,322.65069677686375,212.07256267176706,363.2422217424016,-4.888462401678215,-15.49315173331033,3.1010184856064926,0,Fixed-Wing
1970-01-01 00:00:38.380274624,4174,1538765776823340968,base_link,0,1,40.5922103,-79.8975469,364.04389829,0.608399955368,0.0,0.0,0.0,0.608399955368,0.0,0.0,0.0,2.43359982147,1,320.2890770025059,206.1978158111159,364.0325271336919,-5.904521797638432,-14.688042195003494,1.9759215519497721,0,Fixed-Wing
1970-01-01 00:00:38.796627712,4176,1538765777239265736,base_link,0,1,40.5921608,-79.8975809,364.323884093,0.608399955368,0.0,0.0,0.0,0.608399955368,0.0,0.0,0.0,2.43359982147,1,317.41100690520824,200.70060836438023,364.31283237239916,-7.195750903316431,-13.744118146290884,0.7008191623011973,0,Fixed-Wing
1970-01-01 00:00:39.196884608,4178,1538765777639961480,base_link,0,1,40.5921143,-79.897621,364.243862422,0.608399955368,0.0,0.0,0.0,0.608399955368,0.0,0.0,0.0,2.43359982147,1,314.01649564522336,195.53652594574007,364.23313927443166,-8.486957106530726,-12.911238945716065,-0.19924868481351654,0,Fixed-Wing
1970-01-01 00:00:39.604376384,4180,1538765778047430056,base_link,0,1,40.5920712,-79.8976677,363.883832596,0.5625,0.0,0.0,0.0,0.5625,0.0,0.0,0.0,2.25,1,310.063216941088,190.74999170410925,363.87344786484283,-9.88398747933674,-11.967292987516046,-0.8993004680095251,0,Fixed-Wing
1970-01-01 00:00:39.965485408,4182,1538765778407998472,base_link,0,1,40.5920309,-79.8977194,363.303796502,0.5625,0.0,0.0,0.0,0.5625,0.0,0.0,0.0,2.25,1,305.6866271422476,186.2743829796421,363.2937553161066,-10.942349885091877,-11.189917004528239,-1.4493473196260815,0,Fixed-Wing
1970-01-01 00:00:40.381689504,4184,1538765778824309256,base_link,0,1,40.5919925,-79.897775,362.783755637,0.532900027847,0.0,0.0,0.0,0.532900027847,0.0,0.0,0.0,2.13160011139,1,300.97986616298067,182.0097655349129,362.77406138532996,-11.767843875677313,-10.662396603551276,-1.2993387740435944,0,Fixed-Wing
1970-01-01 00:00:40.791318624,4186,1538765779234201992,base_link,0,1,40.5919557,-79.8978332,362.423711455,0.532900027847,0.0,0.0,0.0,0.532900027847,0.0,0.0,0.0,2.13160011139,1,296.0529934690256,177.92283127878198,362.41436305102843,-12.318167188262787,-10.218153092574697,-0.899317781176311,0,Fixed-Wing
1970-01-01 00:00:41.191712704,4188,1538765779634453000,base_link,0,1,40.5919199,-79.8978928,362.223665433,0.532900027847,0.0,0.0,0.0,0.532900027847,0.0,0.0,0.0,2.13160011139,1,291.0075994239378,173.94695286271627,362.2146588170771,-12.614494272261254,-9.940491279466636,-0.4993005289205853,0,Fixed-Wing
1970-01-01 00:00:41.574488032,4190,1538765780015936648,base_link,0,1,40.5918855,-79.897953,362.233618221,0.532900027847,0.0,0.0,0.0,0.532900027847,0.0,0.0,0.0,2.13160011139,1,285.9114096704439,170.12655508661328,362.2249450415048,-12.74149370323098,-9.55175858094396,0.0257176184786267,0,Fixed-Wing
1970-01-01 00:00:41.983506208,4192,1538765780425182888,base_link,0,1,40.5918517,-79.8980128,362.233571176,0.532900027847,0.0,0.0,0.0,0.532900027847,0.0,0.0,0.0,2.13160011139,1,280.84907446502314,166.37279323039567,362.2252218432931,-12.656850561596842,-9.385155452980259,0.0006920598356504463,0,Fixed-Wing
1970-01-01 00:00:42.360605952,4194,1538765780803562248,base_link,0,1,40.5918183,-79.8980723,362.183524278,0.532900027847,0.0,0.0,0.0,0.532900027847,0.0,0.0,0.0,2.13160011139,1,275.81212742432734,162.66345543403094,362.17549033262225,-12.593375071745223,-9.274086417825265,-0.12433872377510478,0,Fixed-Wing
1970-01-01 00:00:42.832497696,4196,1538765781275560616,base_link,0,1,40.5917848,-79.8981313,362.083477939,0.532900027847,0.0,0.0,0.0,0.532900027847,0.0,0.0,0.0,2.13160011139,1,270.8175021951861,158.94301617465337,362.07575173024367,-12.487562077819385,-9.301842295827594,-0.2493664552628694,0,Fixed-Wing
1970-01-01 00:00:43.160154240,4198,1538765781603214664,base_link,0,1,40.5917507,-79.8981899,361.953432267,0.532900027847,0.0,0.0,0.0,0.532900027847,0.0,0.0,0.0,2.13160011139,1,265.8567360499533,155.15594946988622,361.94600792986404,-12.40290759568954,-9.468424235856723,-0.32438545178521466,0,Fixed-Wing
1970-01-01 00:00:43.562480960,4200,1538765782005478824,base_link,0,1,40.5917164,-79.8982482,361.813386991,0.532900027847,0.0,0.0,0.0,0.532900027847,0.0,0.0,0.0,2.13160011139,1,260.9213625398083,151.34667642749127,361.80625791078086,-12.339420929036926,-9.523944521549097,-0.34940299994794743,0,Fixed-Wing
1970-01-01 00:00:43.994832896,4202,1538765782437803208,base_link,0,1,40.5916818,-79.8983068,361.793341541,0.532900027847,0.0,0.0,0.0,0.532900027847,0.0,0.0,0.0,2.13160011139,1,255.96059303716947,147.50409305095266,361.78650341359287,-12.402915989876218,-9.607227019508093,-0.049390194185508024,0,Fixed-Wing
1970-01-01 00:00:44.365414912,4204,1538765782807057320,base_link,0,1,40.591647,-79.8983654,361.923296182,0.532900027847,0.0,0.0,0.0,0.532900027847,0.0,0.0,0.0,2.13160011139,1,250.99982509449686,143.63930594188375,361.916743336248,-12.402912089648717,-9.66274079193564,0.32562585670630506,0,Fixed-Wing
1970-01-01 00:00:44.793644416,4206,1538765783236495400,base_link,0,1,40.5916123,-79.8984247,362.273250073,0.532900027847,0.0,0.0,0.0,0.532900027847,0.0,0.0,0.0,2.13160011139,1,245.9797999123971,139.785630109439,362.26697834586395,-12.551067040612608,-9.634960377942075,0.8756575766460608,0,Fixed-Wing
1970-01-01 00:00:45.193577536,4208,1538765783636220136,base_link,0,1,40.5915787,-79.8984853,362.693202183,0.532900027847,0.0,0.0,0.0,0.532900027847,0.0,0.0,0.0,2.13160011139,1,240.8497133315858,136.05411278479812,362.68720683513504,-12.826242551432387,-9.329539674776209,1.0506552755997889,0,Fixed-Wing
1970-01-01 00:00:45.591494848,4210,1538765784034180072,base_link,0,1,40.5915464,-79.8985471,363.223152532,0.5625,0.0,0.0,0.0,0.5625,0.0,0.0,0.0,2.25,1,235.61803174479905,132.4669656638431,363.217428001406,-13.080250386997832,-8.968585289210695,1.3256589683948776,0,Fixed-Wing
1970-01-01 00:00:46.033209824,4212,1538765784475864680,base_link,0,1,40.5915153,-79.8986103,363.783100956,0.532900027847,0.0,0.0,0.0,0.532900027847,0.0,0.0,0.0,2.13160011139,1,230.26782101800674,129.01308142741257,363.7776425057242,-13.37659694473636,-8.635401423190169,1.4006483126605036,0,Fixed-Wing
1970-01-01 00:00:46.391340352,4214,1538765784834096456,base_link,0,1,40.5914855,-79.8986744,364.283047925,0.5625,0.0,0.0,0.0,0.5625,0.0,0.0,0.0,2.25,1,224.84140632701724,125.70356504936603,364.27784903194004,-13.567122097241537,-8.274452901348454,1.2506163648487727,0,Fixed-Wing
1970-01-01 00:00:46.798055136,4216,1538765785240861832,base_link,0,1,40.591456,-79.8987389,364.442994367,0.532900027847,0.0,0.0,0.0,0.532900027847,0.0,0.0,0.0,2.13160011139,1,219.38111036185285,122.4273602963031,364.43804922550675,-13.651832059475737,-8.191167176031401,0.40053252651889404,0,Fixed-Wing
1970-01-01 00:00:47.192266816,4218,1538765785635269384,base_link,0,1,40.5914261,-79.8988034,364.282940983,0.532900027847,0.0,0.0,0.0,0.532900027847,0.0,0.0,0.0,2.13160011139,1,213.92079987956748,119.10673245204458,364.2782440654434,-13.651868355181827,-8.30223378934946,-0.3995448637474562,0,Fixed-Wing
1970-01-01 00:00:47.561028608,4220,1538765786003993192,base_link,0,1,40.5913959,-79.8988684,363.88288722,0.5625,0.0,0.0,0.0,0.5625,0.0,0.0,0.0,2.25,1,208.41814918787793,115.75278752906334,363.8784341166035,-13.757727347411675,-8.385533150105113,-0.9996048404869942,0,Fixed-Wing
1970-01-01 00:00:47.962807200,4222,1538765786405928232,base_link,0,1,40.5913655,-79.8989335,363.242833447,0.532900027847,0.0,0.0,0.0,0.532900027847,0.0,0.0,0.0,2.13160011139,1,202.90702146644912,112.37663216592958,363.23861831080677,-13.778921617301402,-8.44106369292984,-1.5996674878908548,0,Fixed-Wing
1970-01-01 00:00:48.379602688,4224,1538765786822430024,base_link,0,1,40.5913347,-79.8989985,362.33277995,0.5625,0.0,0.0,0.0,0.5625,0.0,0.0,0.0,2.25,1,197.4043484394339,108.95605623489965,362.32879673373986,-13.757783190193265,-8.552123997494625,-2.2747359215409912,0,Fixed-Wing
1970-01-01 00:00:48.774606464,4226,1538765787217674952,base_link,0,1,40.5913034,-79.8990642,361.602725954,0.5625,0.0,0.0,0.0,0.5625,0.0,0.0,0.0,2.25,1,191.84241849973654,105.47996066025127,361.5989707798693,-13.90593732422935,-8.690934211357867,-1.8247108615452865,0,Fixed-Wing
1970-01-01 00:00:49.180417632,4228,1538765787623500264,base_link,0,1,40.5912716,-79.8991304,361.242671665,0.5625,0.0,0.0,0.0,0.5625,0.0,0.0,0.0,2.25,1,186.23816804169655,101.9483487645494,361.23913991357267,-14.011747084866752,-8.829736118144131,-0.8996491376726323,0,Fixed-Wing
1970-01-01 00:00:49.601921664,4230,1538765788044410792,base_link,0,1,40.5912396,-79.8991961,360.972617977,0.5625,0.0,0.0,0.0,0.5625,0.0,0.0,0.0,2.25,1,180.6762447879077,98.39453345585082,360.96930191844257,-13.90592060812077,-8.88524909167377,-0.6746489597420382,0,Fixed-Wing
1970-01-01 00:00:49.951939040,4232,1538765788395057000,base_link,0,1,40.591208,-79.899261,360.952564946,0.5625,0.0,0.0,0.0,0.5625,0.0,0.0,0.0,2.25,1,175.18204862189913,94.8851488624218,360.94945523202284,-13.73658934216882,-8.774163416645878,-0.049620685704170726,0,Fixed-Wing
1970-01-01 00:00:50.380312928,4234,1538765788823222664,base_link,0,1,40.5911771,-79.8993255,361.132512038,0.5625,0.0,0.0,0.0,0.5625,0.0,0.0,0.0,2.25,1,169.72171393033324,91.45350862368309,361.12959999116424,-13.651928883225384,-8.579786979805156,0.4503979296878724,0,Fixed-Wing
1970-01-01 00:00:50.783254688,4236,1538765789226312360,base_link,0,1,40.5911466,-79.8993889,361.272460092,0.5625,0.0,0.0,0.0,0.5625,0.0,0.0,0.0,2.25,1,164.35449538870765,88.06629463506002,361.26973618354714,-13.419119883654668,-8.46871246855517,0.3503685104380781,0,Fixed-Wing
1970-01-01 00:00:51.171801248,4238,1538765789614569736,base_link,0,1,40.5911168,-79.8994516,361.282408575,0.5625,0.0,0.0,0.0,0.5625,0.0,0.0,0.0,2.25,1,159.0465272701041,84.75682053640847,361.2798639835365,-13.270981975066892,-8.274347194404426,0.025321525695390902,0,Fixed-Wing
1970-01-01 00:00:51.598785536,4240,1538765790041751784,base_link,0,1,40.5910876,-79.8995137,361.302357425,0.5625,0.0,0.0,0.0,0.5625,0.0,0.0,0.0,2.25,1,153.7893479659508,81.51398279159162,361.2999839413244,-13.143999780365636,-8.107742981480651,0.050303918783318975,0,Fixed-Wing
1970-01-01 00:00:51.977994368,4242,1538765790421136488,base_link,0,1,40.591059,-79.8995751,361.212306744,0.5625,0.0,0.0,0.0,0.5625,0.0,0.0,0.0,2.25,1,148.5914206471175,78.33777996640768,361.21009619089887,-12.995857965720528,-7.9411423543481865,-0.22473735505223527,0,Fixed-Wing
1970-01-01 00:00:52.384187328,4244,1538765790827344456,base_link,0,1,40.5910308,-79.8996354,361.052257025,0.532900027847,0.0,0.0,0.0,0.532900027847,0.0,0.0,0.0,2.13160011139,1,143.4866102712352,75.20600276149838,361.050200969947,-12.763046983464415,-7.830069417826671,-0.39977003398235095,0,Fixed-Wing
1970-01-01 00:00:52.805149472,4246,1538765791248072968,base_link,0,1,40.5910028,-79.8996947,360.852208249,0.532900027847,0.0,0.0,0.0,0.532900027847,0.0,0.0,0.0,2.13160011139,1,138.46645247501723,72.09644080658708,360.85029898489023,-12.551398602433126,-7.774526849426203,-0.4997949462376574,0,Fixed-Wing
1970-01-01 00:00:53.204375904,4248,1538765791647218056,base_link,0,1,40.5909749,-79.8997531,360.532160355,0.532900027847,0.0,0.0,0.0,0.532900027847,0.0,0.0,0.0,2.13160011139,1,133.5224802326375,68.9979877352871,360.530390703722,-12.36091947950772,-7.74675241844344,-0.7998346896957726,0,Fixed-Wing
1970-01-01 00:00:53.602154624,4250,1538765792044684232,base_link,0,1,40.5909479,-79.8998118,360.182111783,0.532900027847,0.0,0.0,0.0,0.532900027847,0.0,0.0,0.0,2.13160011139,1,128.55310466352552,65.99948458794842,360.1804758862619,-12.42443287741013,-7.49685761695606,-0.8748570322128351,0,Fixed-Wing
1970-01-01 00:00:53.980795360,4252,1538765792423574280,base_link,0,1,40.5909226,-79.8998718,360.002061179,0.532900027847,0.0,0.0,0.0,0.532900027847,0.0,0.0,0.0,2.13160011139,1,123.47367041891675,63.189773853950925,360.0005540118759,-12.699601579648279,-7.024838822099496,-0.44984067321877824,0,Fixed-Wing
1970-01-01 00:00:54.373787072,4254,1538765792816956744,base_link,0,1,40.5909001,-79.8999346,359.91200655,0.532900027847,0.0,0.0,0.0,0.532900027847,0.0,0.0,0.0,2.13160011139,1,118.15718692978393,60.69101025700962,359.9106242649198,-13.292272104600421,-6.247408785056059,-0.22484235477863732,0,Fixed-Wing
1970-01-01 00:00:54.788530400,4256,1538765793231422248,base_link,0,1,40.5908815,-79.9000006,359.861947028,0.532900027847,0.0,0.0,0.0,0.532900027847,0.0,0.0,0.0,2.13160011139,1,112.56978846643112,58.62535073307865,359.86068502229193,-13.96961372748023,-5.164561974785421,-0.1248580952173323,0,Fixed-Wing
1970-01-01 00:00:55.165449568,4258,1538765793608086632,base_link,0,1,40.5908675,-79.9000699,359.881882218,0.532900027847,0.0,0.0,0.0,0.532900027847,0.0,0.0,0.0,2.13160011139,1,106.70300926295081,57.0705325830599,359.8807350453818,-14.668121458417438,-3.8873563635559516,0.05012906805014323,0,Fixed-Wing
1970-01-01 00:00:55.571005728,4260,1538765794014080168,base_link,0,1,40.590858,-79.9001422,359.951812469,0.532900027847,0.0,0.0,0.0,0.532900027847,0.0,0.0,0.0,2.13160011139,1,100.58224740971983,56.015451356174395,359.9507739876683,-15.303128883388142,-2.637914100341791,0.17511136462538834,0,Fixed-Wing
1970-01-01 00:00:55.957663936,4262,1538765794400769160,base_link,0,1,40.5908536,-79.9002168,359.871738245,0.532900027847,0.0,0.0,0.0,0.532900027847,0.0,0.0,0.0,2.13160011139,1,94.26676073451819,55.52673804669419,359.87080037180755,-15.789979886395013,-1.2218810241824443,-0.19995003565473132,0,Fixed-Wing
1970-01-01 00:00:56.390620224,4264,1538765794833474984,base_link,0,1,40.5908566,-79.9002942,359.831658074,0.532900027847,0.0,0.0,0.0,0.532900027847,0.0,0.0,0.0,2.13160011139,1,87.71422166127533,55.859814585604,359.8308106263617,-16.3826582957708,0.832757967911952,-0.09998236220356851,0,Fixed-Wing
1970-01-01 00:00:56.775121952,4266,1538765795218149704,base_link,0,1,40.5908688,-79.9003731,359.901572531,0.532900027847,0.0,0.0,0.0,0.532900027847,0.0,0.0,0.0,2.13160011139,1,81.03468645459364,57.21457753588143,359.9008012768978,-16.70017403062668,3.387178349961579,0.1749906255903291,0,Fixed-Wing
1970-01-01 00:00:57.195711968,4268,1538765795638709576,base_link,0,1,40.5908881,-79.9004517,359.981484334,0.532900027847,0.0,0.0,0.0,0.532900027847,0.0,0.0,0.0,2.13160011139,1,74.38054318898425,59.35781811710916,359.9807743973365,-16.63668909915141,5.358530135480162,0.19994879700049611,0,Fixed-Wing
1970-01-01 00:00:57.587485888,4270,1538765796030446664,base_link,0,1,40.590916,-79.9005284,360.19139449,0.532900027847,0.0,0.0,0.0,0.532900027847,0.0,0.0,0.0,2.13160011139,1,67.88724647685044,62.4561171595914,360.19072720844747,-16.234540543578017,7.746367315590845,0.5249240216991162,0,Fixed-Wing
1970-01-01 00:00:57.980590752,4272,1538765796423554152,base_link,0,1,40.5909517,-79.9006024,360.501304154,0.532900027847,0.0,0.0,0.0,0.532900027847,0.0,0.0,0.0,2.13160011139,1,61.62252503912486,66.42063294750369,360.50066023120905,-15.663056638845049,9.912082436375636,0.7748945484678368,0,Fixed-Wing
1970-01-01 00:00:58.374775936,4274,1538765796817920104,base_link,0,1,40.5909956,-79.9006707,360.921216219,0.532900027847,0.0,0.0,0.0,0.532900027847,0.0,0.0,0.0,2.13160011139,1,55.84035390375854,71.29578816725046,360.9205727019572,-14.45658436516501,12.188863158419606,1.0498651660836835,0,Fixed-Wing
1970-01-01 00:00:58.779391296,4276,1538765797222484968,base_link,0,1,40.5910477,-79.9007288,361.541135273,0.532900027847,0.0,0.0,0.0,0.532900027847,0.0,0.0,0.0,2.13160011139,1,50.92169506516674,77.08158583359085,361.54046540213494,-12.297630906952064,14.465651417964402,1.5498557389034353,0,Fixed-Wing
1970-01-01 00:00:59.175768576,4278,1538765797618922856,base_link,0,1,40.5911063,-79.9007744,362.331064372,0.532900027847,0.0,0.0,0.0,0.532900027847,0.0,0.0,0.0,2.13160011139,1,47.06126197299008,83.58923693412149,362.33034194508934,-9.651854878831948,16.27042938567745,1.9748493453336338,0,Fixed-Wing
1970-01-01 00:00:59.574908288,4280,1538765798018082120,base_link,0,1,40.5911693,-79.9008079,363.001003984,0.532900027847,0.0,0.0,0.0,0.532900027847,0.0,0.0,0.0,2.13160011139,1,44.22518935117472,90.58552635737755,363.0002060647894,-7.090748814443559,17.492122927974386,1.674794282792716,0,Fixed-Wing
1970-01-01 00:00:59.974856512,4282,1538765798417788712,base_link,0,1,40.591235,-79.9008265,363.540957669,0.532900027847,0.0,0.0,0.0,0.532900027847,0.0,0.0,0.0,2.13160011139,1,42.65051775063944,97.88166490107531,363.5400624027328,-3.9369939608550744,18.24180570370071,1.349748824764565,0,Fixed-Wing
1970-01-01 00:01:00.380016448,4284,1538765798823002440,base_link,0,1,40.5913011,-79.9008303,364.330926279,0.532900027847,0.0,0.0,0.0,0.532900027847,0.0,0.0,0.0,2.13160011139,1,42.328782282425934,105.22223719127197,364.32991599662864,-0.8044030227755817,18.352898957408247,1.9747919680970167,0,Fixed-Wing
1970-01-01 00:01:00.802967680,4286,1538765799246012328,base_link,0,1,40.5913657,-79.9008247,365.170905105,0.532900027847,0.0,0.0,0.0,0.532900027847,0.0,0.0,0.0,2.13160011139,1,42.802829081428584,112.39623822343458,365.169768983042,1.1852118144517818,17.93643749540615,2.0998004500693757,0,Fixed-Wing
1970-01-01 00:01:01.170783104,4288,1538765799613906440,base_link,0,1,40.5914285,-79.9008138,365.760890094,0.532900027847,0.0,0.0,0.0,0.532900027847,0.0,0.0,0.0,2.13160011139,1,43.72555890152537,119.37034485769453,365.75962070591515,2.307009110970837,17.43666151857137,1.474747286965866,0,Fixed-Wing
1970-01-01 00:01:01.557604000,4290,1538765800000713448,base_link,0,1,40.5914897,-79.9008005,366.470878209,0.532900027847,0.0,0.0,0.0,0.532900027847,0.0,0.0,0.0,2.13160011139,1,44.85146671962232,126.16677271056885,366.4694698793953,2.814994744821974,16.992429026507914,1.7747649148936053,0,Fixed-Wing
1970-01-01 00:01:01.993281440,4292,1538765800436421512,base_link,0,1,40.5915495,-79.9007879,366.990866209,0.532900027847,0.0,0.0,0.0,0.532900027847,0.0,0.0,0.0,2.13160011139,1,45.918112226972774,132.80772459133772,366.9893151551152,2.6668271145452906,16.603707998562054,1.2997171666730536,0,Fixed-Wing
1970-01-01 00:01:02.377621888,4294,1538765800820818984,base_link,0,1,40.5916087,-79.9007772,367.140852541,0.532900027847,0.0,0.0,0.0,0.532900027847,0.0,0.0,0.0,2.13160011139,1,46.82390499834817,139.3820371976554,367.13915429271105,2.2646631014866077,16.43709648351287,0.3746278142147563,0,Fixed-Wing
1970-01-01 00:01:02.784683136,4296,1538765801223235336,base_link,0,1,40.5916677,-79.900768,366.840837446,0.532900027847,0.0,0.0,0.0,0.532900027847,0.0,0.0,0.0,2.13160011139,1,47.60270729052445,145.93412867293236,366.83898654018986,1.9471615033609697,16.381539211329326,-0.7504794196565483,0,Fixed-Wing
1970-01-01 00:01:03.181030912,4298,1538765801623717064,base_link,0,1,40.591727,-79.9007605,366.180820512,0.532900027847,0.0,0.0,0.0,0.532900027847,0.0,0.0,0.0,2.13160011139,1,48.23758820922535,152.5195258427372,366.1788103946912,1.5873292830949002,16.46481010932087,-1.6505724095394312,0,Fixed-Wing
1970-01-01 00:01:03.580318496,4300,1538765802022558856,base_link,0,1,40.5917871,-79.9007549,365.490801331,0.532900027847,0.0,0.0,0.0,0.532900027847,0.0,0.0,0.0,2.13160011139,1,48.71161882653914,159.19376188987775,365.4886241322945,1.1851713569930262,16.686925071857097,-1.7256037042881123,0,Fixed-Wing
1970-01-01 00:01:03.989517696,4302,1538765802432407080,base_link,0,1,40.591848,-79.9007516,364.860779495,0.532900027847,0.0,0.0,0.0,0.532900027847,0.0,0.0,0.0,2.13160011139,1,48.990937538850005,165.9568387870073,364.85842735815004,0.6983526489890892,16.909044966421227,-1.5756179847999126,0,Fixed-Wing
1970-01-01 00:01:04.371975936,4304,1538765802814841544,base_link,0,1,40.5919097,-79.9007514,364.300754193,0.532900027847,0.0,0.0,0.0,0.532900027847,0.0,0.0,0.0,2.13160011139,1,49.00781957348411,172.80875650540773,364.29821952425465,0.04220846326233066,17.131164789184172,-1.4006316352692971,0,Fixed-Wing
1970-01-01 00:01:04.779324992,4306,1538765803222291624,base_link,0,1,40.5919724,-79.9007541,363.860725547,0.532900027847,0.0,0.0,0.0,0.532900027847,0.0,0.0,0.0,2.13160011139,1,48.77919729942397,179.77172724832315,363.8579997099239,-0.571601413263419,17.40881956285357,-1.100637586833847,0,Fixed-Wing
1970-01-01 00:01:05.163382144,4308,1538765803606526376,base_link,0,1,40.5920358,-79.9007555,363.530697954,0.532900027847,0.0,0.0,0.0,0.532900027847,0.0,0.0,0.0,2.13160011139,1,48.66062943037646,186.812437719968,363.527770201494,-0.2964433880898223,17.60318443386682,-0.8256398222605532,0,Fixed-Wing
1970-01-01 00:01:05.607778560,4310,1538765804050915336,base_link,0,1,40.5921,-79.9007546,363.190672392,0.532900027847,0.0,0.0,0.0,0.532900027847,0.0,0.0,0.0,2.13160011139,1,48.73677118910781,193.94199040286713,363.1875307422937,0.1903696263984946,17.825307731866413,-0.8506667013368335,0,Fixed-Wing
1970-01-01 00:01:05.970707744,4312,1538765804413642216,base_link,0,1,40.5921643,-79.9007484,362.8006522,0.532900027847,0.0,0.0,0.0,0.532900027847,0.0,0.0,0.0,2.13160011139,1,49.261591553516524,201.08264901246423,362.7972848655215,1.3121558834924576,17.853074769974338,-0.9756927473503189,0,Fixed-Wing
1970-01-01 00:01:06.370411104,4314,1538765804813496456,base_link,0,1,40.5922277,-79.9007343,362.300640434,0.532900027847,0.0,0.0,0.0,0.532900027847,0.0,0.0,0.0,2.13160011139,1,50.45519597471263,208.12336063755447,362.29703738184793,2.9842497929737033,17.603187317711015,-1.250718766685203,0,Fixed-Wing
1970-01-01 00:01:06.802800960,4316,1538765805245760552,base_link,0,1,40.5922894,-79.9007083,361.89064149,0.532900027847,0.0,0.0,0.0,0.532900027847,0.0,0.0,0.0,2.13160011139,1,52.65620979026513,214.975292517202,361.8867928619975,5.5029747768633985,17.131200195134454,-1.0256933550945,0,Fixed-Wing
1970-01-01 00:01:07.174728512,4318,1538765805617832008,base_link,0,1,40.5923468,-79.9006673,361.640659586,0.532900027847,0.0,0.0,0.0,0.532900027847,0.0,0.0,0.0,2.13160011139,1,56.12706731917025,221.34971417124075,361.6365628420914,8.677838049306748,15.937329121426568,-0.6256250997732276,0,Fixed-Wing
1970-01-01 00:01:07.587649440,4320,1538765806028861288,base_link,0,1,40.5923984,-79.9006141,361.620692488,0.532900027847,0.0,0.0,0.0,0.532900027847,0.0,0.0,0.0,2.13160011139,1,60.630730901573905,227.08004993666026,361.61635265658475,11.260059760789998,14.32698557239457,-0.05052950612709433,0,Fixed-Wing
1970-01-01 00:01:07.934036896,4322,1538765806377102248,base_link,0,1,40.5924433,-79.9005516,361.610737614,0.532900027847,0.0,0.0,0.0,0.532900027847,0.0,0.0,0.0,2.13160011139,1,65.92169575287853,232.0663449802793,361.6061654623083,13.228470405894045,12.466734947843422,-0.02547002329300006,0,Fixed-Wing
1970-01-01 00:01:08.399943936,4324,1538765806842942248,base_link,0,1,40.5924799,-79.9004817,361.660793686,0.532900027847,0.0,0.0,0.0,0.532900027847,0.0,0.0,0.0,2.13160011139,1,71.83911770015145,236.13091753128595,361.65600818185226,14.794738447258064,10.162244357065186,0.124616768201357,0,Fixed-Wing
1970-01-01 00:01:08.766997344,4326,1538765807209213096,base_link,0,1,40.5925072,-79.9004065,361.880858979,0.532900027847,0.0,0.0,0.0,0.532900027847,0.0,0.0,0.0,2.13160011139,1,78.20522298578092,239.16271907148086,361.87588546845996,15.916536536996643,7.580110259308044,0.5497371954948843,0,Fixed-Wing
1970-01-01 00:01:09.168831904,4328,1538765807611852840,base_link,0,1,40.5925244,-79.9003282,362.06093158,0.532900027847,0.0,0.0,0.0,0.532900027847,0.0,0.0,0.0,2.13160011139,1,84.83376930360564,241.07289890148712,362.05580138976217,16.572691609890576,4.775831641546966,0.4498257893186725,0,Fixed-Wing
1970-01-01 00:01:09.607961760,4330,1538765808051059816,base_link,0,1,40.5925298,-79.9002486,362.40101036,0.532900027847,0.0,0.0,0.0,0.532900027847,0.0,0.0,0.0,2.13160011139,1,91.57238375196394,241.67267428818857,362.3957643662372,16.84788395161189,1.4995584314281452,0.8499754392226918,0,Fixed-Wing
1970-01-01 00:01:09.979558880,4332,1538765808422478984,base_link,0,1,40.5925263,-79.9001706,362.721091177,0.532900027847,0.0,0.0,0.0,0.532900027847,0.0,0.0,0.0,2.13160011139,1,98.17556096449113,241.2840871833547,362.7157618552098,16.509263772419757,-0.9715454857235436,0.800057727049673,0,Fixed-Wing
1970-01-01 00:01:10.378688128,4334,1538765808821500040,base_link,0,1,40.5925136,-79.9000959,363.101172426,0.532900027847,0.0,0.0,0.0,0.532900027847,0.0,0.0,0.0,2.13160011139,1,104.49939000931371,239.87382236628056,363.095796099569,15.810837479054795,-3.5259441182147975,0.9501616238278923,0,Fixed-Wing
1970-01-01 00:01:10.772238368,4336,1538765809215092744,base_link,0,1,40.5924938,-79.900025,363.311252738,0.532900027847,0.0,0.0,0.0,0.532900027847,0.0,0.0,0.0,2.13160011139,1,110.50153799242776,237.67507970127724,363.3058579089661,15.006570483423781,-5.497296446224005,0.5251965392159674,0,Fixed-Wing
1970-01-01 00:01:11.154148928,4338,1538765809596980712,base_link,0,1,40.5924683,-79.8999582,363.561331234,0.532900027847,0.0,0.0,0.0,0.532900027847,0.0,0.0,0.0,2.13160011139,1,116.15661059683957,234.84333920341206,363.55594121721,14.138812616038818,-7.079917638074005,0.6252582912729492,0,Fixed-Wing
1970-01-01 00:01:11.577378784,4340,1538765810018076456,base_link,0,1,40.5924396,-79.8998954,363.691406989,0.532900027847,0.0,0.0,0.0,0.532900027847,0.0,0.0,0.0,2.13160011139,1,121.47306697761528,231.6562252484833,363.6860349134049,13.292204328285525,-7.9684223611107585,0.3252602613082379,0,Fixed-Wing
1970-01-01 00:01:11.976292896,4342,1538765810418975976,base_link,0,1,40.592409,-79.8998353,363.551480791,0.532900027847,0.0,0.0,0.0,0.532900027847,0.0,0.0,0.0,2.13160011139,1,126.56095472569365,228.25810186352442,363.5461327448272,12.720737029158265,-8.49598814144855,-0.3497834041165582,0,Fixed-Wing
1970-01-01 00:01:12.401857120,4344,1538765810842664104,base_link,0,1,40.5923784,-79.8997765,363.101553284,0.532900027847,0.0,0.0,0.0,0.532900027847,0.0,0.0,0.0,2.13160011139,1,131.53878745519103,224.85996922114242,363.09622566382006,12.445577469941044,-8.496011286857936,-1.1248576911331767,0,Fixed-Wing
1970-01-01 00:01:12.808081408,4346,1538765811250630568,base_link,0,1,40.5923474,-79.8997177,362.591625957,0.532900027847,0.0,0.0,0.0,0.532900027847,0.0,0.0,0.0,2.13160011139,1,136.51662355152183,221.4174173670792,362.58631461520986,12.445585887698028,-8.607068200614114,-1.2748796118944674,0,Fixed-Wing
1970-01-01 00:01:13.190533280,4348,1538765811632036072,base_link,0,1,40.5923166,-79.8996587,362.171698766,0.532900027847,0.0,0.0,0.0,0.532900027847,0.0,0.0,0.0,2.13160011139,1,141.51139627450493,217.9970832815035,362.166396826143,12.487930841925104,-8.551519335486063,-1.0498784629441804,0,Fixed-Wing
1970-01-01 00:01:13.556079520,4350,1538765811999065320,base_link,0,1,40.5922864,-79.8995993,361.79177175,0.532900027847,0.0,0.0,0.0,0.532900027847,0.0,0.0,0.0,2.13160011139,1,146.540035046468,214.64338643774857,361.7864704429096,12.572602738126735,-8.384912902419524,-0.949891949439446,0,Fixed-Wing
1970-01-01 00:01:13.986049536,4352,1538765812427404520,base_link,0,1,40.5922571,-79.8995393,361.471844988,0.532900027847,0.0,0.0,0.0,0.532900027847,0.0,0.0,0.0,2.13160011139,1,151.6194709290706,211.38964353874954,361.4665340582072,12.69960567496045,-8.135008048141442,-0.7999049541524076,0,Fixed-Wing
1970-01-01 00:01:14.381690080,4354,1538765812823514088,base_link,0,1,40.5922285,-79.899479,361.301918258,0.532900027847,0.0,0.0,0.0,0.532900027847,0.0,0.0,0.0,2.13160011139,1,156.72430968937704,208.21364652291024,361.29658884072984,12.76311795020214,-7.940627789821437,-0.4248970354561719,0,Fixed-Wing
1970-01-01 00:01:14.763619168,4356,1538765813204375976,base_link,0,1,40.5922008,-79.8994185,361.261991373,0.532900027847,0.0,0.0,0.0,0.532900027847,0.0,0.0,0.0,2.13160011139,1,161.84608493018308,205.13760485055087,361.25663415017664,12.805462539018233,-7.690719438453493,-0.09989471796044183,0,Fixed-Wing
1970-01-01 00:01:15.166620096,4358,1538765813609513128,base_link,0,1,40.592174,-79.8993576,361.212064539,0.532900027847,0.0,0.0,0.0,0.532900027847,0.0,0.0,0.0,2.13160011139,1,167.00172440092322,202.16151429597028,361.2066698552456,12.890129887241333,-7.44082165218366,-0.12492073098608927,0,Fixed-Wing
1970-01-01 00:01:15.556013056,4360,1538765813999093736,base_link,0,1,40.5921475,-79.8992968,361.032137491,0.532900027847,0.0,0.0,0.0,0.532900027847,0.0,0.0,0.0,2.13160011139,1,172.14889799032397,199.21873880115425,361.0266989797076,12.868963490581123,-7.35752733922722,-0.4499631858998816,0,Fixed-Wing
1970-01-01 00:01:15.957840640,4362,1538765814400694280,base_link,0,1,40.5921211,-79.8992365,360.732209906,0.532900027847,0.0,0.0,0.0,0.532900027847,0.0,0.0,0.0,2.13160011139,1,177.25374351695714,196.28706756519,360.7267228907997,12.763134867372315,-7.329764471068299,-0.7500002222875257,0,Fixed-Wing
1970-01-01 00:01:16.364165344,4364,1538765814807008104,base_link,0,1,40.5920944,-79.8991763,360.402282357,0.532900027847,0.0,0.0,0.0,0.532900027847,0.0,0.0,0.0,2.13160011139,1,182.35012688670227,193.32208329862777,360.39674265961617,12.741977782585423,-7.413053710702421,-0.825016579285159,0,Fixed-Wing
1970-01-01 00:01:16.779342720,4366,1538765815222031528,base_link,0,1,40.5920674,-79.899116,360.062355047,0.532900027847,0.0,0.0,0.0,0.532900027847,0.0,0.0,0.0,2.13160011139,1,187.45497998122033,190.32378705666622,360.05675796850727,12.763153788598245,-7.496340312128857,-0.8500297301506514,0,Fixed-Wing
1970-01-01 00:01:17.161039328,4368,1538765815603851304,base_link,0,1,40.5920402,-79.8990562,359.782427324,0.532900027847,0.0,0.0,0.0,0.532900027847,0.0,0.0,0.0,2.13160011139,1,192.51751073577762,187.30328485688005,359.77676930088927,12.657339473551101,-7.551859648237271,-0.7000276712586994,0,Fixed-Wing
1970-01-01 00:01:17.563824064,4370,1538765816006883336,base_link,0,1,40.5920126,-79.898997,359.702499168,0.532900027847,0.0,0.0,0.0,0.532900027847,0.0,0.0,0.0,2.13160011139,1,197.52925855050765,184.23836989819057,359.69677761128116,12.530371966582399,-7.662900428758014,-0.19999522363815908,0,Fixed-Wing
1970-01-01 00:01:17.987523648,4372,1538765816430431784,base_link,0,1,40.5919848,-79.8989383,359.762570598,0.532900027847,0.0,0.0,0.0,0.532900027847,0.0,0.0,0.0,2.13160011139,1,202.49868708139917,181.15125077401694,359.7567820731821,12.424565292452195,-7.718415283656757,0.15002315660482038,0,Fixed-Wing
1970-01-01 00:01:18.379846592,4374,1538765816822935880,base_link,0,1,40.5919581,-79.8988796,359.982641585,0.532900027847,0.0,0.0,0.0,0.532900027847,0.0,0.0,0.0,2.13160011139,1,207.46812161833236,178.18629693999281,359.97677730860687,12.424580308757683,-7.412977623270185,0.5500320911292649,0,Fixed-Wing
1970-01-01 00:01:18.782629248,4376,1538765817224539784,base_link,0,1,40.5919326,-79.8988208,360.342712189,0.532900027847,0.0,0.0,0.0,0.532900027847,0.0,0.0,0.0,2.13160011139,1,212.44602698049982,175.35461310570184,360.33676295917763,12.445759066143946,-7.079775967804851,0.9000361293172541,0,Fixed-Wing
1970-01-01 00:01:19.193978080,4378,1538765817636918184,base_link,0,1,40.5919084,-79.8987613,360.682782979,0.532900027847,0.0,0.0,0.0,0.532900027847,0.0,0.0,0.0,2.13160011139,1,217.48319151906915,172.66730149460062,360.67673772446335,12.593918859932115,-6.718816533075702,0.8500049136073817,0,Fixed-Wing
1970-01-01 00:01:19.582935680,4380,1538765818024799144,base_link,0,1,40.5918854,-79.8987006,360.852854508,0.532900027847,0.0,0.0,0.0,0.532900027847,0.0,0.0,0.0,2.13160011139,1,222.62193846444734,170.11325429367324,360.84670101740346,12.847895195061074,-6.385628852626674,0.4249422277284945,0,Fixed-Wing
