time,field.header.seq,field.header.stamp,field.header.frame_id,field.status.status,field.status.service,lat,lon,alt,field.position_covariance0,field.position_covariance1,field.position_covariance2,field.position_covariance3,field.position_covariance4,field.position_covariance5,field.position_covariance6,field.position_covariance7,field.position_covariance8,field.position_covariance_type,x,y,z,vel_x,vel_y,vel_z,track_id,uav_category
1970-01-01 00:00:00.000000000,1777,1536691595357970712,base_link,0,1,40.5914722,-79.8972535,377.184506638,0.448900022364,0.0,0.0,0.0,0.448900022364,0.0,0.0,0.0,1.79560008945,1,329.39394097034943,141.71038282150153,377.1744354989269,-15.519553268990313,7.914720230967379,-0.32472252601028895,0,Fixed-Wing
1970-01-01 00:00:00.400332576,1779,1536691595760045080,base_link,0,1,40.5915007,-79.8973268,377.05441964,0.448900022364,0.0,0.0,0.0,0.448900022364,0.0,0.0,0.0,1.79560008945,1,323.18840103708385,144.87510745001453,377.04459422273413,-15.519553268990313,7.914720230967379,-0.32472252601028895,0,Fixed-Wing
1970-01-01 00:00:00.813211520,1781,1536691596173118136,base_link,0,1,40.5915332,-79.8973967,376.824334464,0.448900022364,0.0,0.0,0.0,0.448900022364,0.0,0.0,0.0,1.79560008945,1,317.27067806014753,148.48405743863367,376.81472252655936,-14.799746349124097,9.025691913326009,-0.574890512700339,0,Fixed-Wing
1970-01-01 00:00:01.188114208,1783,1536691596548084568,base_link,0,1,40.5915696,-79.8974629,376.35425146,0.448900022364,0.0,0.0,0.0,0.448900022364,0.0,0.0,0.0,1.79560008945,1,311.6661637762776,152.52612433808724,376.3448198294202,-14.016436750180556,10.108882262865535,-1.1751886246674697,0,Fixed-Wing
1970-01-01 00:00:01.576790688,1785,1536691596936597080,base_link,0,1,40.5916083,-79.8975258,375.54417089,0.448900022364,0.0,0.0,0.0,0.448900022364,0.0,0.0,0.0,1.79560008945,1,306.34099879201244,156.82361891328577,375.53489239796966,-13.31780675464519,10.747686212679477,-2.0255629730189506,0,Fixed-Wing
1970-01-01 00:00:02.017759968,1787,1536691597376036376,base_link,0,1,40.5916485,-79.8975858,374.304092679,0.448900022364,0.0,0.0,0.0,0.448900022364,0.0,0.0,0.0,1.79560008945,1,301.26132035618645,161.2876940905008,374.2949441909993,-12.703864759864242,11.164290819913875,-3.10101013865191,0,Fixed-Wing
1970-01-01 00:00:02.388072608,1789,1536691597747860632,base_link,0,1,40.5916895,-79.897644,372.544015995,0.448900022364,0.0,0.0,0.0,0.448900022364,0.0,0.0,0.0,1.79560008945,1,296.3340052656715,165.84060555089945,372.5349809566741,-12.322816361300086,11.386463176213912,-4.40152564648808,0,Fixed-Wing
1970-01-01 00:00:02.764718016,1791,1536691598123995992,base_link,0,1,40.5917314,-79.8977016,370.353939569,0.448900022364,0.0,0.0,0.0,0.448900022364,0.0,0.0,0.0,1.79560008945,1,291.4574696447294,170.49345549040817,370.34500592717205,-12.195821016578966,11.636401226222418,-5.476950353009787,0,Fixed-Wing
1970-01-01 00:00:03.159224992,1793,1536691598519103768,base_link,0,1,40.591774,-79.8977598,367.823862257,0.448900022364,0.0,0.0,0.0,0.448900022364,0.0,0.0,0.0,1.79560008945,1,286.53013100447373,175.2240308509839,367.8150230247852,-12.32287525729616,11.830786215373468,-6.32728253229774,0,Fixed-Wing
1970-01-01 00:00:03.657407744,1795,1536691599017065720,base_link,0,1,40.5918172,-79.8978189,364.933783795,0.448900022364,0.0,0.0,0.0,0.448900022364,0.0,0.0,0.0,1.79560008945,1,281.5265929023935,180.0212241199203,364.9250331277557,-12.51344394585074,11.997392213979664,-7.227630896928427,0,Fixed-Wing
1970-01-01 00:00:03.986097568,1797,1536691599345715928,base_link,0,1,40.5918616,-79.8978796,361.843703219,0.448900022364,0.0,0.0,0.0,0.448900022364,0.0,0.0,0.0,1.79560008945,1,276.38760124720756,184.9516684029588,361.83503557146787,-12.852202322318249,12.330642218611581,-7.727833869666633,0,Fixed-Wing
1970-01-01 00:00:04.407558880,1799,1536691599767481592,base_link,0,1,40.5919077,-79.8979431,358.963619094,0.448900022364,0.0,0.0,0.0,0.448900022364,0.0,0.0,0.0,1.79560008945,1,271.0115845686886,190.07089802134038,358.9550309371323,-13.444982727449752,12.802779067261172,-7.20265856286083,0,Fixed-Wing
1970-01-01 00:00:04.782658304,1801,1536691600141940120,base_link,0,1,40.5919563,-79.8980105,356.883529967,0.448900022364,0.0,0.0,0.0,0.448900022364,0.0,0.0,0.0,1.79560008945,1,265.3054426050287,195.4677703528924,356.8750178545167,-14.270599354412468,13.497141028207876,-5.2019444211136365,0,Fixed-Wing
1970-01-01 00:00:05.243526176,1803,1536691600603253112,base_link,0,1,40.5920069,-79.8980811,355.973436765,0.448900022364,0.0,0.0,0.0,0.448900022364,0.0,0.0,0.0,1.79560008945,1,259.3284514307894,201.08677555965428,355.9649950098919,-14.947971315056503,14.052677375840366,-2.275893502424261,0,Fixed-Wing
1970-01-01 00:00:05.570311872,1805,1536691600929931800,base_link,0,1,40.5920571,-79.8981535,356.19334192,0.448900022364,0.0,0.0,0.0,0.448900022364,0.0,0.0,0.0,1.79560008945,1,253.19913559213387,206.66139463385332,356.18496745004614,-15.328922975832477,13.941671249681844,0.5501332743639921,0,Fixed-Wing
1970-01-01 00:00:06.008251488,1807,1536691601366714456,base_link,0,1,40.5921059,-79.8982257,357.243247891,0.448900022364,0.0,0.0,0.0,0.448900022364,0.0,0.0,0.0,1.79560008945,1,247.08679704828785,212.08057425568583,357.2349344679444,-15.286464135184735,13.552929756266709,2.6258825565852155,0,Fixed-Wing
1970-01-01 00:00:06.346347552,1809,1536691601706208760,base_link,0,1,40.5921531,-79.8982958,358.743156699,0.448900022364,0.0,0.0,0.0,0.448900022364,0.0,0.0,0.0,1.79560008945,1,241.15226657378014,217.32209818152893,358.7348932185297,-14.841780540617952,13.108627235116648,3.7512754701984945,0,Fixed-Wing
1970-01-01 00:00:06.800855328,1811,1536691602160391672,base_link,0,1,40.5921992,-79.8983629,360.363069054,0.448900022364,0.0,0.0,0.0,0.448900022364,0.0,0.0,0.0,1.79560008945,1,235.47171906928125,222.44148400569094,360.35484059707085,-14.206589682955709,12.803169725279062,4.051357320168051,0,Fixed-Wing
1970-01-01 00:00:07.199220544,1813,1536691602558920024,base_link,0,1,40.592244,-79.8984267,361.792985342,0.448900022364,0.0,0.0,0.0,0.448900022364,0.0,0.0,0.0,1.79560008945,1,230.07054002764718,227.41651057347738,361.784777844158,-13.507911761657574,12.442138905513884,3.5761573555460107,0,Fixed-Wing
1970-01-01 00:00:07.624345824,1815,1536691602984122680,base_link,0,1,40.5922882,-79.8984877,363.012904761,0.448900022364,0.0,0.0,0.0,0.448900022364,0.0,0.0,0.0,1.79560008945,1,224.90639804478639,232.32491138393976,363.0047038568581,-12.915101256863892,12.275513277285357,3.050936250822462,0,Fixed-Wing
1970-01-01 00:00:07.950205248,1817,1536691603309900824,base_link,0,1,40.5923319,-79.8985464,363.942826756,0.448900022364,0.0,0.0,0.0,0.448900022364,0.0,0.0,0.0,1.79560008945,1,219.93696194676627,237.1777864278177,363.9346198502279,-12.428157592965691,12.13664782777153,2.3256446578361927,0,Fixed-Wing
1970-01-01 00:00:08.352692704,1819,1536691603712381400,base_link,0,1,40.5923752,-79.8986032,364.522750877,0.448900022364,0.0,0.0,0.0,0.448900022364,0.0,0.0,0.0,1.79560008945,1,215.1283671770313,241.98623660553278,364.5145266779434,-12.025906444955973,12.025544832013484,1.450300054558918,0,Fixed-Wing
1970-01-01 00:00:08.759849600,1821,1536691604119796824,base_link,0,1,40.5924183,-79.8986588,364.722676326,0.448900022364,0.0,0.0,0.0,0.448900022364,0.0,0.0,0.0,1.79560008945,1,210.4213532439544,246.77246844547065,364.71442509470853,-11.77186099160665,11.969978566968035,0.49992976610181433,0,Fixed-Wing
1970-01-01 00:00:09.163203008,1823,1536691604522140600,base_link,0,1,40.5924618,-79.8987134,364.69260265,0.448900022364,0.0,0.0,0.0,0.448900022364,0.0,0.0,0.0,1.79560008945,1,205.7989925337221,251.6031177978353,364.68431283573887,-11.560150130753803,12.081063171627186,-0.07530832323295329,0,Fixed-Wing
1970-01-01 00:00:09.578608256,1825,1536691604938460728,base_link,0,1,40.5925061,-79.8987669,364.502529787,0.448900022364,0.0,0.0,0.0,0.448900022364,0.0,0.0,0.0,1.79560008945,1,201.2697520728048,256.5226079937601,364.49418786164034,-11.327263921784489,12.303246933059956,-0.475487176783777,0,Fixed-Wing
1970-01-01 00:00:09.969060288,1827,1536691605328935640,base_link,0,1,40.5925519,-79.8988187,364.172458059,0.448900022364,0.0,0.0,0.0,0.448900022364,0.0,0.0,0.0,1.79560008945,1,196.8844243241654,261.6086773269786,364.1640457272574,-10.967349872676738,12.719847877141001,-0.8256587655536527,0,Fixed-Wing
1970-01-01 00:00:10.398991840,1829,1536691605758655768,base_link,0,1,40.5925997,-79.8988679,363.71238818,0.448900022364,0.0,0.0,0.0,0.448900022364,0.0,0.0,0.0,1.79560008945,1,192.7191987495337,266.91685377062305,363.703882413716,-10.416892144442345,13.27531978913368,-1.1508312143248722,0,Fixed-Wing
1970-01-01 00:00:10.773677824,1831,1536691606133591576,base_link,0,1,40.592651,-79.8989119,363.172322183,0.448900022364,0.0,0.0,0.0,0.448900022364,0.0,0.0,0.0,1.79560008945,1,188.99417791450637,272.61372287534454,363.1636861867048,-9.315975708641233,14.247408684495268,-1.3509870552707253,0,Fixed-Wing
1970-01-01 00:00:11.171106752,1833,1536691606530906424,base_link,0,1,40.5927067,-79.8989475,362.612262963,0.448900022364,0.0,0.0,0.0,0.448900022364,0.0,0.0,0.0,1.79560008945,1,185.9802591395093,278.7992401949104,362.6034474070159,-7.537566993362761,15.469478332201735,-1.4011118578300428,0,Fixed-Wing
1970-01-01 00:00:11.579914784,1835,1536691606939835128,base_link,0,1,40.5927671,-79.8989723,362.032212843,0.448900022364,0.0,0.0,0.0,0.448900022364,0.0,0.0,0.0,1.79560008945,1,183.88061391039523,285.506725412898,362.02316063832325,-5.2510428310255515,16.77487781256511,-1.4512502562007656,0,Fixed-Wing
1970-01-01 00:00:12.001722016,1837,1536691607361548760,base_link,0,1,40.5928314,-79.898982,361.582176538,0.448900022364,0.0,0.0,0.0,0.448900022364,0.0,0.0,0.0,1.79560008945,1,183.05926551163665,292.6473515101757,361.5728235099451,-2.054125888160332,17.858128105273018,-1.1262567202900151,0,Fixed-Wing
1970-01-01 00:00:12.347206016,1839,1536691607706883896,base_link,0,1,40.5928974,-79.8989738,361.432157804,0.448900022364,0.0,0.0,0.0,0.448900022364,0.0,0.0,0.0,1.79560008945,1,183.75325642669546,299.97681710476536,361.4224435225687,1.7356151262058932,18.330400408624257,-0.3760881808475242,0,Fixed-Wing
1970-01-01 00:00:12.784444832,1841,1536691608142008728,base_link,0,1,40.5929624,-79.898947,361.602158459,0.448900022364,0.0,0.0,0.0,0.448900022364,0.0,0.0,0.0,1.79560008945,1,186.02184898859323,307.19528472480016,361.5920341014632,5.6735664404112915,18.052803455356845,0.42413231586229333,0,Fixed-Wing
1970-01-01 00:00:13.203269440,1843,1536691608562736984,base_link,0,1,40.5930222,-79.8989014,362.132180426,0.448900022364,0.0,0.0,0.0,0.448900022364,0.0,0.0,0.0,1.79560008945,1,189.88198333633565,313.8363393341268,362.12161839369355,9.653883671605357,16.60874023535314,1.3244474650193139,0,Fixed-Wing
1970-01-01 00:00:13.583657344,1845,1536691608943295672,base_link,0,1,40.5930753,-79.8988405,362.882220748,0.448900022364,0.0,0.0,0.0,0.448900022364,0.0,0.0,0.0,1.79560008945,1,195.03736366527363,319.73339100010594,362.8712097872281,12.893189069327928,14.74804907298212,1.874667424114758,0,Fixed-Wing
1970-01-01 00:00:13.979240096,1847,1536691609338756760,base_link,0,1,40.5931205,-79.8987669,363.602277264,0.448900022364,0.0,0.0,0.0,0.448900022364,0.0,0.0,0.0,1.79560008945,1,201.26788147650504,324.753161147773,363.590818798478,15.582020920766901,12.554038978492317,1.799683911962327,0,Fixed-Wing
1970-01-01 00:00:14.397732256,1849,1536691609757211480,base_link,0,1,40.5931559,-79.8986829,364.192348407,0.448900022364,0.0,0.0,0.0,0.448900022364,0.0,0.0,0.0,1.79560008945,1,208.37883269617802,328.684641895901,364.1804600498631,17.78391363744422,9.832315246172886,1.4746450605225,0,Fixed-Wing
1970-01-01 00:00:14.821769024,1851,1536691610181653240,base_link,0,1,40.5931795,-79.8985908,364.75243265,0.448900022364,0.0,0.0,0.0,0.448900022364,0.0,0.0,0.0,1.79560008945,1,216.17552172817483,331.3057299206926,364.74014924986443,19.49888842148691,6.5551290719129724,1.3997374034991459,0,Fixed-Wing
1970-01-01 00:00:15.193689856,1853,1536691610553294456,base_link,0,1,40.5931908,-79.8984939,365.272526836,0.448900022364,0.0,0.0,0.0,0.448900022364,0.0,0.0,0.0,1.79560008945,1,224.37859121236207,332.5608918284973,365.25989507263176,20.515213051264436,3.13905837346394,1.2998422489448216,0,Fixed-Wing
1970-01-01 00:00:15.564728640,1855,1536691610924580344,base_link,0,1,40.5931901,-79.8983955,365.77262748,0.448900022364,0.0,0.0,0.0,0.448900022364,0.0,0.0,0.0,1.79560008945,1,232.70868292377608,332.48343664051407,365.7597017188793,20.832885363906268,-0.19370915807363911,1.2499759817921106,0,Fixed-Wing
1970-01-01 00:00:15.974393728,1857,1536691611334254040,base_link,0,1,40.5931792,-79.898298,366.342731401,0.448900022364,0.0,0.0,0.0,0.448900022364,0.0,0.0,0.0,1.79560008945,1,240.9626256830798,331.27325698582433,366.32956272763886,20.642442996060367,-3.0265613980381265,1.4251762741796958,0,Fixed-Wing
1970-01-01 00:00:16.415024512,1859,1536691611770392312,base_link,0,1,40.5931621,-79.8982032,366.902835128,0.448900022364,0.0,0.0,0.0,0.448900022364,0.0,0.0,0.0,1.79560008945,1,248.98802604410187,329.3745528720897,366.8894572358108,20.070876949834226,-4.748505360056451,1.4002508626219257,0,Fixed-Wing
1970-01-01 00:00:16.814142272,1861,1536691612173120088,base_link,0,1,40.5931422,-79.8981111,367.302937269,0.448900022364,0.0,0.0,0.0,0.448900022364,0.0,0.0,0.0,1.79560008945,1,256.78486692193735,327.16489406360773,367.2893646967651,19.499268175643245,-5.526177891580024,1.0001362024401363,0,Fixed-Wing
1970-01-01 00:00:17.158523392,1863,1536691612518355576,base_link,0,1,40.5931218,-79.8980213,367.523037287,0.448900022364,0.0,0.0,0.0,0.448900022364,0.0,0.0,0.0,1.79560008945,1,264.38700070066693,324.8997008048459,367.5092706493946,19.012321474966,-5.665065058313496,0.5499669944441093,0,Fixed-Wing
1970-01-01 00:00:17.606670048,1865,1536691612964416696,base_link,0,1,40.5931027,-79.8979332,367.543135056,0.448900022364,0.0,0.0,0.0,0.448900022364,0.0,0.0,0.0,1.79560008945,1,271.8452117697329,322.77886796537007,367.52916330250866,18.65238242320541,-5.304031330203445,0.049749915879296065,0,Fixed-Wing
1970-01-01 00:00:17.978086592,1867,1536691613337767800,base_link,0,1,40.5930855,-79.897846,367.293231145,0.448900022364,0.0,0.0,0.0,0.448900022364,0.0,0.0,0.0,1.79560008945,1,279.2272175989894,320.86902579555704,367.27903755509953,18.46179928437829,-4.776360737103467,-0.625544256036916,0,Fixed-Wing
1970-01-01 00:00:18.365894336,1869,1536691613725446584,base_link,0,1,40.593071,-79.8977594,366.80332553,0.448900022364,0.0,0.0,0.0,0.448900022364,0.0,0.0,0.0,1.79560008945,1,286.5584111165258,319.25901872943285,366.78888824108765,18.33472180410402,-4.026497403106099,-1.225823775267129,0,Fixed-Wing
1970-01-01 00:00:18.745759008,1871,1536691614105580408,base_link,0,1,40.5930594,-79.8976726,366.163418944,0.448900022364,0.0,0.0,0.0,0.448900022364,0.0,0.0,0.0,1.79560008945,1,293.9065181516927,317.971064383741,366.1487122717238,18.377021143187346,-3.2210696073102967,-1.601028301310327,0,Fixed-Wing
1970-01-01 00:00:19.203736480,1873,1536691614563584472,base_link,0,1,40.5930511,-79.8975856,365.51351122,0.448900022364,0.0,0.0,0.0,0.448900022364,0.0,0.0,0.0,1.79560008945,1,301.27154204785927,317.0495907460078,365.49850739820687,18.419328843766525,-2.3045310094789486,-1.626109779136185,0,Fixed-Wing
1970-01-01 00:00:19.606477376,1875,1536691614965888376,base_link,0,1,40.5930461,-79.8974982,364.953602563,0.448900022364,0.0,0.0,0.0,0.448900022364,0.0,0.0,0.0,1.79560008945,1,308.67041758804936,316.4946034334618,364.93827311620015,18.503989066457148,-1.3879783634135996,-1.4011006094907825,0,Fixed-Wing
1970-01-01 00:00:19.990286784,1877,1536691615348529880,base_link,0,1,40.5930439,-79.8974109,364.513692666,0.448900022364,0.0,0.0,0.0,0.448900022364,0.0,0.0,0.0,1.79560008945,1,316.0608201507454,316.25057591506044,364.4980139443933,18.482798835312146,-0.6102930787098437,-1.1010525663353081,0,Fixed-Wing
1970-01-01 00:00:20.386808352,1879,1536691615746686136,base_link,0,1,40.5930432,-79.8973236,364.243782165,0.448900022364,0.0,0.0,0.0,0.448900022364,0.0,0.0,0.0,1.79560008945,1,323.45122355813805,316.17314281075403,364.22773733352375,18.48280094782989,-0.193653928584775,-0.6759399350999743,0,Fixed-Wing
1970-01-01 00:00:20.774199360,1881,1536691616134016280,base_link,0,1,40.5930437,-79.8972365,364.013870978,0.448900022364,0.0,0.0,0.0,0.448900022364,0.0,0.0,0.0,1.79560008945,1,330.8246915796472,316.2289811603606,363.99744573897254,18.440446918015255,0.13964719436036346,-0.5759406445648878,0,Fixed-Wing
1970-01-01 00:00:21.212256672,1883,1536691616571998072,base_link,0,1,40.5930442,-79.8971495,363.753959703,0.448900022364,0.0,0.0,0.0,0.448900022364,0.0,0.0,0.0,1.79560008945,1,338.18969183666957,316.28482492244257,363.7371459924956,18.419269724179532,0.13966073052337527,-0.6509886045045556,0,Fixed-Wing
1970-01-01 00:00:21.627187808,1885,1536691616986887224,base_link,0,1,40.5930448,-79.8970624,363.4740485,0.448900022364,0.0,0.0,0.0,0.448900022364,0.0,0.0,0.0,1.79560008945,1,345.5631553212241,316.35178059348453,363.45683681717264,18.44043557145881,0.16745071574295298,-0.7010305670407398,0,Fixed-Wing
1970-01-01 00:00:22.010139616,1887,1536691617367616056,base_link,0,1,40.5930455,-79.8969751,363.214137474,0.448900022364,0.0,0.0,0.0,0.448900022364,0.0,0.0,0.0,1.79560008945,1,352.95354967472025,316.4298505872955,363.1965178170279,18.482778304767407,0.19524673770353249,-0.6510367563698697,0,Fixed-Wing
1970-01-01 00:00:22.438989600,1889,1536691617797803160,base_link,0,1,40.5930468,-79.8968876,362.984226418,0.448900022364,0.0,0.0,0.0,0.448900022364,0.0,0.0,0.0,1.79560008945,1,360.36087281503586,316.5745616440365,362.96618596419415,18.52511583085687,0.36191064401421613,-0.5760413272720939,0,Fixed-Wing
1970-01-01 00:00:22.797320512,1891,1536691618156762552,base_link,0,1,40.5930484,-79.8968001,362.844315252,0.448900022364,0.0,0.0,0.0,0.448900022364,0.0,0.0,0.0,1.79560008945,1,367.7681986714169,316.75260024422687,362.8258437509485,18.525122623516694,0.4452601335749588,-0.3509845199252575,0,Fixed-Wing
1970-01-01 00:00:23.196496544,1893,1536691618556473464,base_link,0,1,40.59305,-79.8967123,362.714404404,0.448900022364,0.0,0.0,0.0,0.448900022364,0.0,0.0,0.0,1.79560008945,1,375.2009210363885,316.93064797329777,362.6954917672381,18.588637236613444,0.44528296416657437,-0.3259997641893338,0,Fixed-Wing
1970-01-01 00:00:23.543596288,1895,1536691618903356568,base_link,0,1,40.5930514,-79.8966245,362.664493652,0.448900022364,0.0,0.0,0.0,0.448900022364,0.0,0.0,0.0,1.79560008945,1,382.63364867815307,317.0864966172037,362.6451323336765,18.588650433445757,0.38976484834658376,-0.12594486864321583,0,Fixed-Wing
1970-01-01 00:00:23.972642336,1897,1536691619332402776,base_link,0,1,40.5930522,-79.8965364,362.594583467,0.448900022364,0.0,0.0,0.0,0.448900022364,0.0,0.0,0.0,1.79560008945,1,390.0917747573664,317.1757215738356,362.5747665827717,18.652169870460753,0.22314439714565357,-0.17597904956267518,0,Fixed-Wing
1970-01-01 00:00:24.346620864,1899,1536691619706600312,base_link,0,1,40.5930516,-79.8964479,362.434674283,0.448900022364,0.0,0.0,0.0,0.448900022364,0.0,0.0,0.0,1.79560008945,1,397.5837653181732,317.1094779831577,362.41439876498146,18.736862198875116,-0.1656698603683276,-0.4010669365748043,0,Fixed-Wing
1970-01-01 00:00:24.803302400,1901,1536691620163172088,base_link,0,1,40.5930469,-79.8963583,362.364767929,0.448900022364,0.0,0.0,0.0,0.448900022364,0.0,0.0,0.0,1.79560008945,1,405.16890695582106,316.58793673389897,362.34404175316405,18.969825504992677,-1.3043324653278732,-0.17595719381224365,0,Fixed-Wing
1970-01-01 00:00:25.203347424,1903,1536691620563105112,base_link,0,1,40.5930365,-79.8962684,362.20486425,0.448900022364,0.0,0.0,0.0,0.448900022364,0.0,0.0,0.0,1.79560008945,1,412.779475327629,315.43340163257767,362.18370813521113,19.033415709793136,-2.8873988723888546,-0.400981405548827,0,Fixed-Wing
1970-01-01 00:00:25.626546720,1905,1536691620986436408,base_link,0,1,40.5930179,-79.8961789,362.024963563,0.448900022364,0.0,0.0,0.0,0.448900022364,0.0,0.0,0.0,1.79560008945,1,420.3562335673746,313.36824204711496,362.0034153691966,18.94885930515872,-5.164797026564035,-0.45089761991164623,0,Fixed-Wing
1970-01-01 00:00:25.960673536,1907,1536691621320619320,base_link,0,1,40.5929913,-79.896091,361.805064564,0.448900022364,0.0,0.0,0.0,0.448900022364,0.0,0.0,0.0,1.79560008945,1,427.7975952609528,310.41466164463213,361.7831671057372,18.610243498431142,-7.386665605817208,-0.5508230861326089,0,Fixed-Wing
1970-01-01 00:00:26.355437024,1909,1536691621714714328,base_link,0,1,40.5929543,-79.8960071,361.675165789,0.448900022364,0.0,0.0,0.0,0.448900022364,0.0,0.0,0.0,1.79560008945,1,434.90041412997317,306.30612892365025,361.652987792481,17.763575286468733,-10.275107904609655,-0.32556792935462586,0,Fixed-Wing
1970-01-01 00:00:26.788639392,1911,1536691622139428728,base_link,0,1,40.5929054,-79.8959303,361.775264691,0.448900022364,0.0,0.0,0.0,0.448900022364,0.0,0.0,0.0,1.79560008945,1,441.40228071324935,300.8760553723872,361.7528997889022,16.260642244215205,-13.580174592320265,0.24987181894649466,0,Fixed-Wing
1970-01-01 00:00:27.204939776,1913,1536691622563106360,base_link,0,1,40.5928474,-79.895862,361.915358682,0.448900022364,0.0,0.0,0.0,0.448900022364,0.0,0.0,0.0,1.79560008945,1,447.184648050664,294.43536952188066,361.89289287860163,14.461232846607766,-16.107634181828207,0.35011139018446924,0,Fixed-Wing
1970-01-01 00:00:27.545560128,1915,1536691622905529784,base_link,0,1,40.5927807,-79.8958064,362.195443299,0.448900022364,0.0,0.0,0.0,0.448900022364,0.0,0.0,0.0,1.79560008945,1,451.8919672588117,287.02847343729843,362.17298464542205,11.772624459858198,-18.524047799021712,0.700486845966941,0,Fixed-Wing
1970-01-01 00:00:28.016052416,1917,1536691623375812728,base_link,0,1,40.5927077,-79.8957654,362.545515602,0.448900022364,0.0,0.0,0.0,0.448900022364,0.0,0.0,0.0,1.79560008945,1,455.36336989803465,278.92187729732785,362.5231709459149,8.68169712174964,-20.273941023252487,0.8757876031762946,0,Fixed-Wing
1970-01-01 00:00:28.385263072,1919,1536691623745081016,base_link,0,1,40.5926307,-79.8957397,362.885573918,0.448900022364,0.0,0.0,0.0,0.448900022364,0.0,0.0,0.0,1.79560008945,1,457.53957230615964,270.37099244787026,362.8634428454327,5.442506141319418,-21.385071137286925,0.8509924885340413,0,Fixed-Wing
1970-01-01 00:00:28.813713888,1921,1536691624167285048,base_link,0,1,40.5925518,-79.8957303,363.355616349,0.448900022364,0.0,0.0,0.0,0.448900022364,0.0,0.0,0.0,1.79560008945,1,458.3359099278854,261.60902829060063,363.33379446813217,1.9915759584790922,-21.912963407226233,1.176311351170225,0,Fixed-Wing
1970-01-01 00:00:29.180201056,1923,1536691624539812088,base_link,0,1,40.5924738,-79.8957341,363.865644903,0.462400009727,0.0,0.0,0.0,0.462400009727,0.0,0.0,0.0,1.84960003891,1,458.01478601022205,252.94694304248088,363.84419630540924,-0.8031049352220153,-21.663174336868178,1.2764736972764301,0,Fixed-Wing
1970-01-01 00:00:29.557048928,1925,1536691624916935288,base_link,0,1,40.5923977,-79.8957471,364.505663262,0.462400009727,0.0,0.0,0.0,0.462400009727,0.0,0.0,0.0,1.84960003891,1,456.9148207649715,244.49581330824466,364.48462379548516,-2.750924077724889,-21.135591665527627,1.6016573342601454,0,Fixed-Wing
1970-01-01 00:00:29.964867200,1927,1536691625324087640,base_link,0,1,40.5923239,-79.8957658,365.275674845,0.462400009727,0.0,0.0,0.0,0.462400009727,0.0,0.0,0.0,1.84960003891,1,455.33230562422466,236.3000780293604,365.2550580353788,-3.957742322170557,-20.496870797228624,1.9267936964175132,0,Fixed-Wing
1970-01-01 00:00:30.433564960,1929,1536691625793452504,base_link,0,1,40.5922525,-79.8957868,366.055683091,0.462400009727,0.0,0.0,0.0,0.462400009727,0.0,0.0,0.0,1.84960003891,1,453.55506141870126,228.37085553277325,366.0354822561844,-4.444743957212782,-19.830343892848518,1.9517778303667297,0,Fixed-Wing
1970-01-01 00:00:30.751772672,1931,1536691626111551384,base_link,0,1,40.5921828,-79.8958076,366.605690856,0.462400009727,0.0,0.0,0.0,0.462400009727,0.0,0.0,0.0,1.84960003891,1,451.7947165837563,220.63041380617554,366.5858878821756,-4.402479998761872,-19.358218461778975,1.3765199360544373,0,Fixed-Wing
1970-01-01 00:00:31.222270016,1933,1536691626581996984,base_link,0,1,40.5921142,-79.8958268,366.795699824,0.462400009727,0.0,0.0,0.0,0.462400009727,0.0,0.0,0.0,1.84960003891,1,450.1697855641296,213.0121250591401,366.7762711791723,-4.063821003285529,-19.052723743564385,0.4761332214505972,0,Fixed-Wing
1970-01-01 00:00:31.580332320,1935,1536691626939811160,base_link,0,1,40.592046,-79.8958438,366.555710902,0.462400009727,0.0,0.0,0.0,0.462400009727,0.0,0.0,0.0,1.84960003891,1,448.731062895994,205.43825460266953,366.536632535924,-3.5981289827401493,-18.941637192844766,-0.5993168570656466,0,Fixed-Wing
1970-01-01 00:00:32.010626432,1937,1536691627370033912,base_link,0,1,40.5919774,-79.8958575,366.035725553,0.448900022364,0.0,0.0,0.0,0.448900022364,0.0,0.0,0.0,1.79560008945,1,447.5716876903312,197.81997217628435,366.0169699387842,-2.8995035817232777,-19.052707936129472,-1.2996341083843648,0,Fixed-Wing
1970-01-01 00:00:32.375734752,1939,1536691627735366712,base_link,0,1,40.5919084,-79.8958679,365.255743779,0.448900022364,0.0,0.0,0.0,0.448900022364,0.0,0.0,0.0,1.79560008945,1,446.6916622682761,190.15727926818647,365.2372833846272,-2.2008723757358286,-19.163774957541598,-1.9499329857648289,0,Fixed-Wing
1970-01-01 00:00:32.777407776,1941,1536691628137237400,base_link,0,1,40.5918385,-79.8958741,364.425766713,0.448900022364,0.0,0.0,0.0,0.448900022364,0.0,0.0,0.0,1.79560008945,1,446.1671966665277,182.3946611215784,364.4075702272234,-1.3116460342886802,-19.41367989388119,-2.0750454727206584,0,Fixed-Wing
1970-01-01 00:00:33.163905024,1943,1536691628523801944,base_link,0,1,40.5917676,-79.8958765,363.675793988,0.448900022364,0.0,0.0,0.0,0.448900022364,0.0,0.0,0.0,1.79560008945,1,445.9644388030239,174.52101419232469,363.65783248936725,-0.5070810110310319,-19.691353895690938,-1.8750334194220148,0,Fixed-Wing
1970-01-01 00:00:33.638536160,1945,1536691628998170360,base_link,0,1,40.5916956,-79.8958751,363.255825649,0.448900022364,0.0,0.0,0.0,0.448900022364,0.0,0.0,0.0,1.79560008945,1,446.0834076901554,166.52523950763393,363.23807012796397,0.2975315606773733,-19.99678553040932,-1.0497917019586858,0,Fixed-Wing
1970-01-01 00:00:33.990320544,1947,1536691629342810616,base_link,0,1,40.5916232,-79.8958696,363.165861711,0.448900022364,0.0,0.0,0.0,0.448900022364,0.0,0.0,0.0,1.79560008945,1,446.5494968120299,158.4850740394749,363.1482789662051,1.1656511814953519,-20.10780328810592,-0.224560430355289,0,Fixed-Wing
1970-01-01 00:00:34.450756640,1949,1536691629810181592,base_link,0,1,40.5915508,-79.8958619,363.225900057,0.448900022364,0.0,0.0,0.0,0.448900022364,0.0,0.0,0.0,1.79560008945,1,447.20184333623286,150.44492364508648,363.2084668584775,1.6314658742162316,-20.107765589825345,0.1505250486363271,0,Fixed-Wing
1970-01-01 00:00:34.752697600,1951,1536691630111031416,base_link,0,1,40.5914789,-79.8958539,363.505938529,0.448900022364,0.0,0.0,0.0,0.448900022364,0.0,0.0,0.0,1.79560008945,1,447.8796005663131,142.46030588812263,363.48864162631526,1.695015993578291,-19.968882956896266,0.7006944247955217,0,Fixed-Wing
1970-01-01 00:00:35.208166816,1953,1536691630567931672,base_link,0,1,40.5914073,-79.8958482,363.675974541,0.448900022364,0.0,0.0,0.0,0.448900022364,0.0,0.0,0.0,1.79560008945,1,448.36263750828164,134.5089892622861,363.65881680838567,1.2080363082645902,-19.885599522415838,0.42559436110372795,0,Fixed-Wing
1970-01-01 00:00:35.570157696,1955,1536691630929677080,base_link,0,1,40.591336,-79.8958453,363.656007579,0.448900022364,0.0,0.0,0.0,0.448900022364,0.0,0.0,0.0,1.79560008945,1,448.60861911549205,126.59097000342402,363.6389950329224,0.6151800967115675,-19.802325501777087,-0.04957265660940989,0,Fixed-Wing
1970-01-01 00:00:36.014146400,1957,1536691631373908568,base_link,0,1,40.5912648,-79.8958457,363.526037213,0.448900022364,0.0,0.0,0.0,0.448900022364,0.0,0.0,0.0,1.79560008945,1,448.57522276625673,118.68403726900573,363.5091794118813,-0.083521567264264,-19.77459900117866,-0.324658364551803,0,Fixed-Wing
1970-01-01 00:00:36.389695136,1959,1536691631748694552,base_link,0,1,40.5911939,-79.8958512,363.21606151,0.448900022364,0.0,0.0,0.0,0.448900022364,0.0,0.0,0.0,1.79560008945,1,448.11005750910994,110.81039156357318,363.19937835027804,-1.1633406705634157,-19.691350835013246,-0.7747873883733584,0,Fixed-Wing
1970-01-01 00:00:36.764970432,1961,1536691632124652120,base_link,0,1,40.5911235,-79.8958648,362.936077305,0.448900022364,0.0,0.0,0.0,0.448900022364,0.0,0.0,0.0,1.79560008945,1,446.9591621455793,102.99223226513124,362.9196061329813,-2.8782961826737603,-19.552583820658946,-0.6996876784636811,0,Fixed-Wing
1970-01-01 00:00:37.206443712,1963,1536691632565853848,base_link,0,1,40.5910536,-79.8958882,362.856082848,0.448900022364,0.0,0.0,0.0,0.448900022364,0.0,0.0,0.0,1.79560008945,1,444.97862810785887,95.22955352531508,362.8398708701068,-4.953155378902791,-19.41383143259186,-0.19941144089083135,0,Fixed-Wing
1970-01-01 00:00:37.644518720,1965,1536691633004022488,base_link,0,1,40.5909853,-79.8959211,362.516077982,0.448900022364,0.0,0.0,0.0,0.448900022364,0.0,0.0,0.0,1.79560008945,1,442.1938109882267,87.64450801837259,362.5001683956615,-6.96460229042218,-18.96958508987676,-0.8495684025011422,0,Fixed-Wing
1970-01-01 00:00:37.987780608,1967,1536691633347708984,base_link,0,1,40.5909194,-79.8959634,361.726062468,0.448900022364,0.0,0.0,0.0,0.448900022364,0.0,0.0,0.0,1.79560008945,1,438.6131565248671,80.32593750110925,361.7104963548186,-8.954927094105996,-18.30315270177625,-1.9749058800181614,0,Fixed-Wing
1970-01-01 00:00:38.395239584,1969,1536691633755038872,base_link,0,1,40.5908583,-79.8960191,360.916031178,0.448900022364,0.0,0.0,0.0,0.448900022364,0.0,0.0,0.0,1.79560008945,1,433.8980452097747,73.54035533682375,360.90086913845414,-11.792111888850224,-16.970191956257676,-2.0248121593796897,0,Fixed-Wing
1970-01-01 00:00:38.776183136,1971,1536691634135752760,base_link,0,1,40.5908052,-79.8960899,360.435981009,0.448900022364,0.0,0.0,0.0,0.448900022364,0.0,0.0,0.0,1.79560008945,1,427.90455964612335,67.64312631224698,360.4212887135242,-14.989222448378147,-14.748492632484371,-1.1993918388256772,0,Fixed-Wing
1970-01-01 00:00:39.198717536,1973,1536691634558432216,base_link,0,1,40.5907625,-79.8961736,360.335913197,0.448900022364,0.0,0.0,0.0,0.448900022364,0.0,0.0,0.0,1.79560008945,1,420.8189345777506,62.9007888809538,360.32174028750865,-17.72057498223781,-11.860202202542384,-0.2489625587791784,0,Fixed-Wing
1970-01-01 00:00:39.634098784,1975,1536691634993979512,base_link,0,1,40.5907325,-79.8962669,360.575830155,0.448900022364,0.0,0.0,0.0,0.448900022364,0.0,0.0,0.0,1.79560008945,1,412.9205254410671,59.56878060611038,360.56220478579667,-19.75328217290725,-8.333083095146009,0.601382253698284,0,Fixed-Wing
1970-01-01 00:00:39.962947712,1977,1536691635322346488,base_link,0,1,40.5907161,-79.8963658,361.135735608,0.448900022364,0.0,0.0,0.0,0.448900022364,0.0,0.0,0.0,1.79560008945,1,404.5479606320103,57.747068943661816,361.12266278726634,-20.939107144517674,-4.555953469021276,1.4016601137659825,0,Fixed-Wing
1970-01-01 00:00:40.396745088,1979,1536691635756638296,base_link,0,1,40.5907118,-79.8964658,361.915634812,0.448900022364,0.0,0.0,0.0,0.448900022364,0.0,0.0,0.0,1.79560008945,1,396.08220839484494,57.26909644623356,361.9030968702808,-21.172161362214016,-1.195370542244911,1.9518024949531048,0,Fixed-Wing
1970-01-01 00:00:40.756152096,1981,1536691636114963000,base_link,0,1,40.5907175,-79.8965632,362.915532459,0.448900022364,0.0,0.0,0.0,0.448900022364,0.0,0.0,0.0,1.79560008945,1,387.8365201452848,57.90167024608601,362.9034947742024,-20.621799135082508,1.5820158904708772,2.5019142132772956,0,Fixed-Wing
1970-01-01 00:00:41.195683040,1983,1536691636555413112,base_link,0,1,40.590729,-79.8966564,364.045431973,0.448900022364,0.0,0.0,0.0,0.448900022364,0.0,0.0,0.0,1.79560008945,1,379.9463704275373,59.178376359650514,364.0338567417889,-19.732626034436347,3.192938688879415,2.8269438208204245,0,Fixed-Wing
1970-01-01 00:00:41.576420224,1985,1536691636936120152,base_link,0,1,40.5907423,-79.8967456,365.155334845,0.448900022364,0.0,0.0,0.0,0.448900022364,0.0,0.0,0.0,1.79560008945,1,372.39484259901536,60.6550022798896,365.1441904275654,-18.88576008813728,3.692921949414127,2.776854708546595,0,Fixed-Wing
1970-01-01 00:00:41.993890624,1987,1536691637351860792,base_link,0,1,40.5907555,-79.8968317,366.045240955,0.448900022364,0.0,0.0,0.0,0.448900022364,0.0,0.0,0.0,1.79560008945,1,365.10574376869374,62.12054182784385,366.03450319706445,-18.22944639735508,3.6651958293529137,2.2266001993209397,0,Fixed-Wing
1970-01-01 00:00:42.376342880,1989,1536691637735921496,base_link,0,1,40.5907673,-79.8969153,366.655150237,0.448900022364,0.0,0.0,0.0,0.448900022364,0.0,0.0,0.0,1.79560008945,1,358.0282832212873,63.4306229128959,366.64480017172457,-17.70015617591069,3.2764067921262248,1.5263033531325665,0,Fixed-Wing
1970-01-01 00:00:42.759876832,1991,1536691638119833400,base_link,0,1,40.5907773,-79.8969973,366.895061936,0.448900022364,0.0,0.0,0.0,0.448900022364,0.0,0.0,0.0,1.79560008945,1,351.0862661057163,64.54081924443656,366.8850860416251,-17.36142311192125,2.776511196716452,0.600935518554328,0,Fixed-Wing
1970-01-01 00:00:43.236084288,1993,1536691638595557592,base_link,0,1,40.5907854,-79.8970781,366.754975682,0.448900022364,0.0,0.0,0.0,0.448900022364,0.0,0.0,0.0,1.79560008945,1,344.2458296984038,65.44002332214001,366.74536291820255,-17.107377979688774,2.2488366417244454,-0.34943622636950916,0,Fixed-Wing
1970-01-01 00:00:43.605754688,1995,1536691638965584984,base_link,0,1,40.5907917,-79.8971586,366.224890511,0.448900022364,0.0,0.0,0.0,0.448900022364,0.0,0.0,0.0,1.79560008945,1,337.43078115806276,66.13933640218644,366.2156341644807,-17.043884978582188,1.7489254302116954,-1.3248087515207505,0,Fixed-Wing
1970-01-01 00:00:43.988642656,1997,1536691639348308824,base_link,0,1,40.5907967,-79.8972392,365.414805799,0.448900022364,0.0,0.0,0.0,0.448900022364,0.0,0.0,0.0,1.79560008945,1,330.60726111577503,66.69428418248026,365.40590047372905,-17.06507151950273,1.3878794964494843,-2.0250784432070548,0,Fixed-Wing
1970-01-01 00:00:44.374645216,1999,1536691639734528216,base_link,0,1,40.5908002,-79.8973207,364.544720811,0.448900022364,0.0,0.0,0.0,0.448900022364,0.0,0.0,0.0,1.79560008945,1,323.70755563490695,67.08265556867113,364.53616479143795,-17.255605137058065,0.9712854128664006,-2.1751385691518967,0,Fixed-Wing
1970-01-01 00:00:44.837466368,2001,1536691640190158808,base_link,0,1,40.5908022,-79.8974036,363.674635034,0.448900022364,0.0,0.0,0.0,0.448900022364,0.0,0.0,0.0,1.79560008945,1,316.68933837123484,67.30444966801392,363.6664284834794,-17.551993516797705,0.5546890965999689,-2.175140133895539,0,Fixed-Wing
1970-01-01 00:00:45.171558688,2003,1536691640531453080,base_link,0,1,40.5908025,-79.8974879,362.764548555,0.448900022364,0.0,0.0,0.0,0.448900022364,0.0,0.0,0.0,1.79560008945,1,309.5526079000767,67.3374559931911,362.75669150025,-17.848385459551785,0.082546148652588,-2.2751785862040204,0,Fixed-Wing
1970-01-01 00:00:45.564418496,2005,1536691640924240440,base_link,0,1,40.5908011,-79.8975737,361.914461269,0.448900022364,0.0,0.0,0.0,0.448900022364,0.0,0.0,0.0,1.79560008945,1,302.2889027794296,67.18167567372194,361.90695374133895,-18.16593878412092,-0.3895939744585103,-2.1251253808550463,0,Fixed-Wing
1970-01-01 00:00:45.947720288,2007,1536691641305210456,base_link,0,1,40.5907983,-79.8976608,361.184373255,0.448900022364,0.0,0.0,0.0,0.448900022364,0.0,0.0,0.0,1.79560008945,1,294.91515538037214,66.87042614790585,361.1772137096782,-18.441145618658446,-0.7784098801711998,-1.8250207742864342,0,Fixed-Wing
1970-01-01 00:00:46.346146400,2009,1536691641705745816,base_link,0,1,40.5907947,-79.8977487,360.744284773,0.448900022364,0.0,0.0,0.0,0.448900022364,0.0,0.0,0.0,1.79560008945,1,287.47369900839755,66.4703425674704,360.73746865924045,-18.61048028143992,-1.0005766630122805,-1.0997667903898438,0,Fixed-Wing
1970-01-01 00:00:46.758387168,2011,1536691642118295992,base_link,0,1,40.5907912,-79.8978371,360.614195749,0.448900022364,0.0,0.0,0.0,0.448900022364,0.0,0.0,0.0,1.79560008945,1,279.9899269558995,66.08137332948596,360.60771611189244,-18.716308374572826,-0.9727805918285982,-0.3245006223487257,0,Fixed-Wing
1970-01-01 00:00:47.210778336,2013,1536691642570682424,base_link,0,1,40.5907883,-79.8979252,360.724106791,0.448900022364,0.0,0.0,0.0,0.448900022364,0.0,0.0,0.0,1.79560008945,1,272.5315596799233,65.75904640723903,360.717953066193,-18.652773084048818,-0.8061135523478123,0.2756937031872878,0,Fixed-Wing
1970-01-01 00:00:47.577678784,2015,1536691642937624920,base_link,0,1,40.5907862,-79.8980123,360.954018532,0.448900022364,0.0,0.0,0.0,0.448900022364,0.0,0.0,0.0,1.79560008945,1,265.15785149142863,65.52557302643473,360.9481775667904,-18.441047556213594,-0.5838980345384388,0.5757728480151137,0,Fixed-Wing
1970-01-01 00:00:47.976001984,2017,1536691643335935576,base_link,0,1,40.5907845,-79.8980987,361.193930832,0.448900022364,0.0,0.0,0.0,0.448900022364,0.0,0.0,0.0,1.79560008945,1,257.8434019005348,65.33652999717171,361.18839125773945,-18.292846598359507,-0.4727813202927539,0.6007550048369685,0,Fixed-Wing
1970-01-01 00:00:48.437922976,2019,1536691643797287352,base_link,0,1,40.5907837,-79.8981843,361.393843583,0.448900022364,0.0,0.0,0.0,0.448900022364,0.0,0.0,0.0,1.79560008945,1,250.59667300588086,65.24744308044325,361.38859333782324,-18.12348261649638,-0.2227991705163198,0.5006892034917433,0,Fixed-Wing
1970-01-01 00:00:48.829902240,2021,1536691644187324056,base_link,0,1,40.5907836,-79.8982691,361.60375687,0.448900022364,0.0,0.0,0.0,0.448900022364,0.0,0.0,0.0,1.79560008945,1,243.4176678712468,65.23610214034233,361.5987843538562,-17.954110972367477,-0.028362773571592875,0.5256707240735455,0,Fixed-Wing
1970-01-01 00:00:49.172121888,2023,1536691644532042936,base_link,0,1,40.5907833,-79.8983534,361.783670765,0.448900022364,0.0,0.0,0.0,0.448900022364,0.0,0.0,0.0,1.79560008945,1,236.2809909268435,65.20255867917035,361.77896657109966,-17.8482515934689,-0.08388948231468409,0.45062114637989786,0,Fixed-Wing
1970-01-01 00:00:49.603782976,2025,1536691644963645048,base_link,0,1,40.5907828,-79.8984372,361.813585267,0.448900022364,0.0,0.0,0.0,0.448900022364,0.0,0.0,0.0,1.79560008945,1,229.18663791246135,65.14681135012455,361.80914013061715,-17.7424028690097,-0.13941955930254518,0.07546163094310467,0,Fixed-Wing
1970-01-01 00:00:49.985448608,2027,1536691645345377944,base_link,0,1,40.5907819,-79.8985209,361.803500052,0.448900022364,0.0,0.0,0.0,0.448900022364,0.0,0.0,0.0,1.79560008945,1,222.10075047643218,65.04664968703256,361.79930625282657,-17.721231142517794,-0.2504962150890339,-0.024593732673216795,0,Fixed-Wing
1970-01-01 00:00:50.359955776,2029,1536691645719918936,base_link,0,1,40.590781,-79.8986046,361.803414849,0.448900022364,0.0,0.0,0.0,0.448900022364,0.0,0.0,0.0,1.79560008945,1,215.01486320776607,64.9464948602758,361.79946452448485,-17.721230723956335,-0.2504791179677282,0.00039582461124179,0,Fixed-Wing
1970-01-01 00:00:50.754457664,2031,1536691646111330456,base_link,0,1,40.5907808,-79.8986884,361.71332926,0.448900022364,0.0,0.0,0.0,0.448900022364,0.0,0.0,0.0,1.79560008945,1,207.9205048338818,64.92408223867145,361.7096140313977,-17.742416272690868,-0.05605215317719282,-0.2247088132067773,0,Fixed-Wing
1970-01-01 00:00:51.166852640,2033,1536691646526840312,base_link,0,1,40.5907807,-79.8987724,361.683243436,0.448900022364,0.0,0.0,0.0,0.448900022364,0.0,0.0,0.0,1.79560008945,1,200.80921656650045,64.91278175860896,361.6797558420536,-17.78475656649157,-0.028261586289180896,-0.0746729156566392,0,Fixed-Wing
1970-01-01 00:00:51.612177856,2035,1536691646971754360,base_link,0,1,40.5907809,-79.8988565,361.763157396,0.448900022364,0.0,0.0,0.0,0.448900022364,0.0,0.0,0.0,1.79560008945,1,193.68946499614896,64.93480465848538,361.7598894381082,-17.805922602435135,0.055077490668867,0.20040763994409375,0,Fixed-Wing
1970-01-01 00:00:51.964932896,2037,1536691647324825528,base_link,0,1,40.590781,-79.8989411,361.843070899,0.448900022364,0.0,0.0,0.0,0.448900022364,0.0,0.0,0.0,1.79560008945,1,186.52738447378476,64.94572806770546,361.84001599003363,-17.911783886488767,0.027318562621972606,0.20039002314712084,0,Fixed-Wing
1970-01-01 00:00:52.393367456,2039,1536691647753355832,base_link,0,1,40.5907805,-79.8990258,361.922984564,0.448900022364,0.0,0.0,0.0,0.448900022364,0.0,0.0,0.0,1.79560008945,1,179.3568395775408,64.89002675979538,361.920135590502,-17.932952600690673,-0.13930446416579118,0.20037263811545455,0,Fixed-Wing
1970-01-01 00:00:52.757987456,2041,1536691648117676184,base_link,0,1,40.5907792,-79.8991105,362.082898578,0.448900022364,0.0,0.0,0.0,0.448900022364,0.0,0.0,0.0,1.79560008945,1,172.18629860211666,64.74549130198841,362.08024839423484,-17.932942795037505,-0.36147148528826056,0.4004291670509648,0,Fixed-Wing
1970-01-01 00:00:53.200976256,2043,1536691648560798520,base_link,0,1,40.5907774,-79.8991949,362.232813121,0.448900022364,0.0,0.0,0.0,0.448900022364,0.0,0.0,0.0,1.79560008945,1,165.04115542087126,64.54543702995136,362.2303535811205,-17.8694249667888,-0.5003195475263419,0.375400927054791,0,Fixed-Wing
1970-01-01 00:00:53.611669856,2045,1536691648971200248,base_link,0,1,40.5907755,-79.8992793,362.332727717,0.448900022364,0.0,0.0,0.0,0.448900022364,0.0,0.0,0.0,1.79560008945,1,157.89601051903338,64.33428385880703,362.3304509351733,-17.869429269851373,-0.5280769961569176,0.2503353833854459,0,Fixed-Wing
1970-01-01 00:00:54.003717216,2047,1536691649363579352,base_link,0,1,40.5907733,-79.8993631,362.322643064,0.448900022364,0.0,0.0,0.0,0.448900022364,0.0,0.0,0.0,1.79560008945,1,150.8016579896289,64.08982174892387,362.3205401773356,-17.742401656119846,-0.6113799568420368,-0.024786003450521985,0,Fixed-Wing
1970-01-01 00:00:54.442176416,2049,1536691649801583960,base_link,0,1,40.5907715,-79.8994468,362.212558356,0.448900022364,0.0,0.0,0.0,0.448900022364,0.0,0.0,0.0,1.79560008945,1,143.71576773056182,63.88978648184823,362.2106208392056,-17.721238202707173,-0.500272017655574,-0.2748993708437809,0,Fixed-Wing
1970-01-01 00:00:54.810846880,2051,1536691650170292056,base_link,0,1,40.5907703,-79.8995308,362.032473101,0.448900022364,0.0,0.0,0.0,0.448900022364,0.0,0.0,0.0,1.79560008945,1,136.60447715709387,63.75638818520852,362.0306929641596,-17.784762333827565,-0.33361834634155946,-0.4499850571235402,0,Fixed-Wing
1970-01-01 00:00:55.149363712,2053,1536691650507850328,base_link,0,1,40.5907699,-79.8996153,361.832387011,0.448900022364,0.0,0.0,0.0,0.448900022364,0.0,0.0,0.0,1.79560008945,1,129.45085568091608,63.711837602138075,361.83075630127666,-17.89062849641691,-0.11141740357192827,-0.5000254165478797,0,Fixed-Wing
1970-01-01 00:00:55.594800576,2055,1536691650954730392,base_link,0,1,40.5907703,-79.8997003,361.612300087,0.448900022364,0.0,0.0,0.0,0.448900022364,0.0,0.0,0.0,1.79560008945,1,122.25490362561877,63.75613484601274,361.6108107146547,-17.996493849733056,0.11078382274152374,-0.5500661158525134,0,Fixed-Wing
1970-01-01 00:00:55.975777824,2057,1536691651335600280,base_link,0,1,40.5907714,-79.8997857,361.452212472,0.448900022364,0.0,0.0,0.0,0.448900022364,0.0,0.0,0.0,1.79560008945,1,115.02508875790755,63.87817573138204,361.45085615908937,-18.081182003664377,0.3052143797077965,-0.40003340118823866,0,Fixed-Wing
1970-01-01 00:00:56.385373952,2059,1536691651745220184,base_link,0,1,40.5907727,-79.8998714,361.412124481,0.448900022364,0.0,0.0,0.0,0.448900022364,0.0,0.0,0.0,1.79560008945,1,107.76987873367676,64.02243492647028,361.4108932477966,-18.144693235340966,0.36078057458175583,-0.0999440076547519,0,Fixed-Wing
1970-01-01 00:00:56.783620928,2061,1536691652143597080,base_link,0,1,40.5907747,-79.8999569,361.472036411,0.448900022364,0.0,0.0,0.0,0.448900022364,0.0,0.0,0.0,1.79560008945,1,100.53160124475755,64.24443903678744,361.4709209609856,-18.10234633457598,0.5552143170544129,0.15012445370927624,0,Fixed-Wing
1970-01-01 00:00:57.182358176,2063,1536691652541354680,base_link,0,1,40.5907787,-79.9000419,361.521948026,0.448900022364,0.0,0.0,0.0,0.448900022364,0.0,0.0,0.0,1.79560008945,1,93.33565021862127,64.68855524019125,361.5209372783051,-17.9964912758846,1.1106986902781988,0.12508676268400934,0,Fixed-Wing
1970-01-01 00:00:57.594447328,2065,1536691652951917880,base_link,0,1,40.5907864,-79.9001261,361.601858916,0.448900022364,0.0,0.0,0.0,0.448900022364,0.0,0.0,0.0,1.79560008945,1,86.20742213802018,65.54357306289603,361.60093959917646,-17.82712166871598,2.1383303931814464,0.20007933133266045,0,Fixed-Wing
1970-01-01 00:00:58.054044928,2067,1536691653413686104,base_link,0,1,40.5907985,-79.9002089,361.541769403,0.448900022364,0.0,0.0,0.0,0.448900022364,0.0,0.0,0.0,1.79560008945,1,79.19771002207074,66.88722771484467,361.5409268621239,-17.530722830513813,3.3603715664222595,-0.1500869996037184,0,Fixed-Wing
1970-01-01 00:00:58.384943328,2069,1536691653744546904,base_link,0,1,40.5908166,-79.9002895,361.361679631,0.448900022364,0.0,0.0,0.0,0.448900022364,0.0,0.0,0.0,1.79560008945,1,72.37424065569857,68.89720334045685,361.36089660119967,-17.064944783138216,5.026786408035416,-0.4502411159207028,0,Fixed-Wing
1970-01-01 00:00:58.797357088,2071,1536691654157193176,base_link,0,1,40.5908429,-79.9003658,361.221590823,0.448900022364,0.0,0.0,0.0,0.448900022364,0.0,0.0,0.0,1.79560008945,1,65.91479759251885,71.8178177189715,361.2208454193624,-16.15454445303579,7.3042202472274615,-0.3502566739208993,0,Fixed-Wing
1970-01-01 00:00:59.195138272,2073,1536691654554891416,base_link,0,1,40.590878,-79.900436,361.121504564,0.448900022364,0.0,0.0,0.0,0.448900022364,0.0,0.0,0.0,1.79560008945,1,59.97176659228063,75.71570252354408,361.1207725338511,-14.863039667673423,9.748294509663761,-0.2502741895428598,0,Fixed-Wing
1970-01-01 00:00:59.538828480,2075,1536691654898411960,base_link,0,1,40.590921,-79.9004984,361.071422969,0.448900022364,0.0,0.0,0.0,0.448900022364,0.0,0.0,0.0,1.79560008945,1,54.68906846188153,80.49091066517204,361.0706797376354,-13.21160058921428,11.942409189447012,-0.1252780302154093,0,Fixed-Wing
1970-01-01 00:00:59.977355904,2077,1536691655337234648,base_link,0,1,40.590972,-79.9005507,361.201348341,0.448900022364,0.0,0.0,0.0,0.448900022364,0.0,0.0,0.0,1.79560008945,1,50.26141786243147,86.15454915284599,361.20056731718137,-11.07319589811771,14.164301600022883,0.3248383269501379,0,Fixed-Wing
1970-01-01 00:01:00.434359360,2079,1536691655794189912,base_link,0,1,40.5910286,-79.9005908,361.551283827,0.448900022364,0.0,0.0,0.0,0.448900022364,0.0,0.0,0.0,1.79560008945,1,46.86659759550668,92.44009314906299,361.55044040089774,-8.49017080508284,15.719636957124244,0.8750042733613973,0,Fixed-Wing
1970-01-01 00:01:00.826556992,2081,1536691656186284856,base_link,0,1,40.5910889,-79.9006188,362.071230118,0.448900022364,0.0,0.0,0.0,0.448900022364,0.0,0.0,0.0,1.79560008945,1,44.496140849805656,99.13654175271017,362.07030283390145,-5.928320522044419,16.74727613309687,1.3001338817108015,0,Fixed-Wing
1970-01-01 00:01:01.207365984,2083,1536691656567319704,base_link,0,1,40.5911508,-79.9006348,362.801187987,0.448900022364,0.0,0.0,0.0,0.448900022364,0.0,0.0,0.0,1.79560008945,1,43.14158116225258,106.01068533040907,362.8001591799378,-3.3876441781181525,17.191676885502677,1.8253116671285259,0,Fixed-Wing
1970-01-01 00:01:01.616725632,2085,1536691656976512664,base_link,0,1,40.5912124,-79.9006425,363.541154457,0.448900022364,0.0,0.0,0.0,0.448900022364,0.0,0.0,0.0,1.79560008945,1,42.4896825449351,112.85151924794252,363.5400123671691,-1.6303456953367315,17.108372120587926,1.8503129580903235,0,Fixed-Wing
1970-01-01 00:01:01.990036256,2087,1536691657349781848,base_link,0,1,40.5912731,-79.9006444,364.201127228,0.448900022364,0.0,0.0,0.0,0.448900022364,0.0,0.0,0.0,1.79560008945,1,42.32879907688952,119.59240901601845,364.19986307818624,-0.40235653614098893,16.858419889499217,1.6502332382579517,0,Fixed-Wing
1970-01-01 00:01:02.395559520,2089,1536691657754592920,base_link,0,1,40.5913327,-79.9006427,364.771104143,0.448900022364,0.0,0.0,0.0,0.448900022364,0.0,0.0,0.0,1.79560008945,1,42.47268307446784,126.21114257974244,364.7697111947857,0.3598422359675207,16.552917106346563,1.4251440319304183,0,Fixed-Wing
1970-01-01 00:01:02.758447104,2091,1536691658118401624,base_link,0,1,40.5913911,-79.9006391,365.121083509,0.448900022364,0.0,0.0,0.0,0.448900022364,0.0,0.0,0.0,1.79560008945,1,42.777415312969914,132.6966108597806,365.11955657810336,0.762110671927124,16.219631414640286,0.8749349969054695,0,Fixed-Wing
1970-01-01 00:01:03.150926720,2093,1536691658510653592,base_link,0,1,40.5914484,-79.9006349,365.251063959,0.448900022364,0.0,0.0,0.0,0.448900022364,0.0,0.0,0.0,1.79560008945,1,43.13294071224665,139.05991777798158,365.24939874946676,0.8891402572363749,15.91411573303433,0.3247247647595667,0,Fixed-Wing
1970-01-01 00:01:03.624311872,2095,1536691658984218232,base_link,0,1,40.5915052,-79.9006308,365.131044531,0.448900022364,0.0,0.0,0.0,0.448900022364,0.0,0.0,0.0,1.79560008945,1,43.47999840809889,145.36769307800998,365.1292359840751,0.8679632161125286,15.77523564917206,-0.300517353606658,0,Fixed-Wing
1970-01-01 00:01:04.000705056,2097,1536691659360557528,base_link,0,1,40.5915618,-79.9006273,364.711024592,0.448900022364,0.0,0.0,0.0,0.448900022364,0.0,0.0,0.0,1.79560008945,1,43.77625923130456,151.6532502905929,364.7090673147403,0.7409243477119437,15.719670010186032,-1.050807845220046,0,Fixed-Wing
1970-01-01 00:01:04.409788032,2099,1536691659769618456,base_link,0,1,40.5916187,-79.9006238,364.031004543,0.448900022364,0.0,0.0,0.0,0.448900022364,0.0,0.0,0.0,1.79560008945,1,44.072517523696774,157.97211600565421,364.02889148551026,0.740918018352287,15.802971879819136,-1.7010647143576563,0,Fixed-Wing
1970-01-01 00:01:04.776886880,2101,1536691660136748824,base_link,0,1,40.591676,-79.9006205,363.230984141,0.448900022364,0.0,0.0,0.0,0.448900022364,0.0,0.0,0.0,1.79560008945,1,44.35184273870861,164.3353981899445,363.2287079844167,0.6985697619170987,15.914053875524965,-2.001194191599304,0,Fixed-Wing
1970-01-01 00:01:05.166426080,2103,1536691660526064024,base_link,0,1,40.591734,-79.9006181,362.400962548,0.448900022364,0.0,0.0,0.0,0.448900022364,0.0,0.0,0.0,1.79560008945,1,44.55497543753364,170.7764142339584,362.3985153628879,0.5080184438406863,16.1084599690734,-2.076244573702823,0,Fixed-Wing
1970-01-01 00:01:05.606046208,2105,1536691660965718296,base_link,0,1,40.5917927,-79.9006175,361.55093885,0.448900022364,0.0,0.0,0.0,0.448900022364,0.0,0.0,0.0,1.79560008945,1,44.60572469165457,177.2951638304491,361.54831300994744,0.1269197783208585,16.302865294222357,-2.1262872929313295,0,Fixed-Wing
1970-01-01 00:01:05.963759040,2107,1536691661323672344,base_link,0,1,40.5918521,-79.9006184,361.060913354,0.547600014114,0.0,0.0,0.0,0.547600014114,0.0,0.0,0.0,2.19040005646,1,44.529490655656524,183.89165802286703,361.05810082034486,-0.19065515576486472,16.49729823814736,-1.22598102203203,0,Fixed-Wing
1970-01-01 00:01:06.418525312,2109,1536691661773785496,base_link,0,1,40.591912,-79.9006211,361.030885836,0.448900022364,0.0,0.0,0.0,0.448900022364,0.0,0.0,0.0,1.79560008945,1,44.30087748455417,190.54369029723802,361.02787916399654,-0.5717430433243039,16.63619448740157,-0.07558191722537302,0,Fixed-Wing
1970-01-01 00:01:06.747982848,2111,1536691662107819960,base_link,0,1,40.5919716,-79.9006242,361.220858054,0.448900022364,0.0,0.0,0.0,0.448900022364,0.0,0.0,0.0,1.79560008945,1,44.03840376787671,197.16241350286168,361.21765154916955,-0.6564255280752231,16.552891201575743,0.4746053804098022,0,Fixed-Wing
1970-01-01 00:01:07.246189408,2113,1536691662605942200,base_link,0,1,40.5920309,-79.900627,361.510830719,0.448900022364,0.0,0.0,0.0,0.448900022364,0.0,0.0,0.0,1.79560008945,1,43.80132836410374,203.74782483114382,361.5074183758893,-0.5929064025353559,16.46958089168303,0.7246833879444594,0,Fixed-Wing
1970-01-01 00:01:07.600160128,2115,1536691662957693688,base_link,0,1,40.5920896,-79.9006295,361.810803954,0.462400009727,0.0,0.0,0.0,0.462400009727,0.0,0.0,0.0,1.84960003891,1,43.589650776760486,210.26660590629453,361.8071809773446,-0.5293885186387323,16.30294401980406,0.7496820117776117,0,Fixed-Wing
1970-01-01 00:01:07.993861504,2117,1536691663353443544,base_link,0,1,40.5921479,-79.9006317,362.100777678,0.462400009727,0.0,0.0,0.0,0.462400009727,0.0,0.0,0.0,1.84960003891,1,43.403370669796274,216.74096653323684,362.09693872481694,-0.46587147517765704,16.19185207299261,0.7246606814812495,0,Fixed-Wing
1970-01-01 00:01:08.375592576,2119,1536691663735389048,base_link,0,1,40.5922059,-79.9006333,362.370752153,0.462400009727,0.0,0.0,0.0,0.462400009727,0.0,0.0,0.0,1.84960003891,1,43.26788476681911,223.18201170592158,362.3666914541012,-0.3388392808786379,16.108532817522285,0.6746297496436886,0,Fixed-Wing
1970-01-01 00:01:08.805632096,2121,1536691664165501592,base_link,0,1,40.5922639,-79.9006345,362.570727051,0.462400009727,0.0,0.0,0.0,0.462400009727,0.0,0.0,0.0,1.84960003891,1,43.1662611436762,229.6230551620448,362.56643785482254,-0.25415245888590604,16.10852852454083,0.4995495862762662,0,Fixed-Wing
1970-01-01 00:01:09.156962560,2123,1536691664516663064,base_link,0,1,40.5923218,-79.9006357,362.690702008,0.462400009727,0.0,0.0,0.0,0.462400009727,0.0,0.0,0.0,1.84960003891,1,43.06463721457716,236.05299088482678,362.68617820387533,-0.2541532240574443,16.080748982205904,0.2994609245217377,0,Fixed-Wing
1970-01-01 00:01:09.612877888,2125,1536691664972690392,base_link,0,1,40.5923798,-79.9006368,362.880677043,0.462400009727,0.0,0.0,0.0,0.462400009727,0.0,0.0,0.0,1.84960003891,1,42.97147948087662,242.49403487001126,362.87591165124763,-0.2329799543845953,16.108529847680217,0.47450800012080663,0,Fixed-Wing
1970-01-01 00:01:09.970512768,2127,1536691665330302840,base_link,0,1,40.592438,-79.900637,362.960652928,0.462400009727,0.0,0.0,0.0,0.462400009727,0.0,0.0,0.0,1.84960003891,1,42.954511539169346,248.95728591501597,362.9556380467025,-0.042435449295794826,16.16406790746777,0.19938926419180025,0,Fixed-Wing
1970-01-01 00:01:10.396671552,2129,1536691665753439832,base_link,0,1,40.5924964,-79.9006363,362.990629663,0.462400009727,0.0,0.0,0.0,0.462400009727,0.0,0.0,0.0,1.84960003891,1,43.01373359759407,255.4427460946439,362.9853573216032,0.14810957633110905,16.219611156169695,0.07432550187365201,0,Fixed-Wing
1970-01-01 00:01:10.808604352,2131,1536691666167313432,base_link,0,1,40.5925549,-79.9006337,363.110608306,0.462400009727,0.0,0.0,0.0,0.462400009727,0.0,0.0,0.0,1.84960003891,1,43.23380243409933,261.9393162747073,363.10507035198503,0.5503743538381924,16.247396368323933,0.2993926027360836,0,Fixed-Wing
1970-01-01 00:01:11.204584672,2133,1536691666564276024,base_link,0,1,40.5926135,-79.9006282,363.250589874,0.462400009727,0.0,0.0,0.0,0.462400009727,0.0,0.0,0.0,1.84960003891,1,43.69937306175463,268.44699428849265,363.2447775211152,1.164354469405747,16.275176161702735,0.3493963259752717,0,Fixed-Wing
1970-01-01 00:01:11.572616544,2135,1536691666932304760,base_link,0,1,40.592672,-79.9006187,363.300575567,0.462400009727,0.0,0.0,0.0,0.462400009727,0.0,0.0,0.0,1.84960003891,1,44.5035656285917,274.9435655713287,363.29448025680756,2.01122054064137,16.247399126269013,0.12430252040708813,0,Fixed-Wing
1970-01-01 00:01:11.997460032,2137,1536691667357363416,base_link,0,1,40.5927301,-79.9006036,363.260567133,0.462400009727,0.0,0.0,0.0,0.462400009727,0.0,0.0,0.0,1.84960003891,1,45.78182862813549,281.39571507072964,363.25418071378937,3.1968323347424965,16.136303840163624,-0.10078589636239609,0,Fixed-Wing
1970-01-01 00:01:12.357364192,2139,1536691667716875192,base_link,0,1,40.5927878,-79.9005818,363.16056569,0.462400009727,0.0,0.0,0.0,0.462400009727,0.0,0.0,0.0,1.84960003891,1,47.62728225348114,287.8034447084344,363.1538791696813,4.615330197211596,16.025213360171836,-0.2508460461920987,0,Fixed-Wing
1970-01-01 00:01:12.746554272,2141,1536691668106315800,base_link,0,1,40.5928447,-79.9005532,362.900571503,0.462400009727,0.0,0.0,0.0,0.462400009727,0.0,0.0,0.0,1.84960003891,1,50.048390069795346,294.12232920418006,362.8935775169907,6.054994751356635,15.803018848791018,-0.6509933717906339,0,Fixed-Wing
1970-01-01 00:01:13.180936448,2143,1536691668536418936,base_link,0,1,40.5928995,-79.9005149,362.56058805,0.462400009727,0.0,0.0,0.0,0.462400009727,0.0,0.0,0.0,1.84960003891,1,53.29065316543575,300.2080060935394,362.55328361591535,8.108637663442323,15.219785494567553,-0.8510475126493232,0,Fixed-Wing
1970-01-01 00:01:13.595837120,2145,1536691668954542488,base_link,0,1,40.5929503,-79.9004655,362.310617528,0.462400009727,0.0,0.0,0.0,0.462400009727,0.0,0.0,0.0,1.84960003891,1,57.472590370324376,305.8494858290598,362.3030081613056,10.458686579539547,14.108884353801072,-0.6259186616324519,0,Fixed-Wing
1970-01-01 00:01:13.999160640,2147,1536691669358648312,base_link,0,1,40.5929958,-79.900406,362.060659451,0.462400009727,0.0,0.0,0.0,0.462400009727,0.0,0.0,0.0,1.84960003891,1,62.50954529683095,310.9023970871814,362.05275788656047,12.597016719911002,12.636922214217682,-0.625855688828534,0,Fixed-Wing
1970-01-01 00:01:14.352545600,2149,1536691669712370360,base_link,0,1,40.5930349,-79.9003374,361.810713249,0.462400009727,0.0,0.0,0.0,0.462400009727,0.0,0.0,0.0,1.84960003891,1,68.31686307702168,315.2445832771638,361.80253856336316,14.523631885194632,10.8594563251556,-0.62577828151174,0,Fixed-Wing
1970-01-01 00:01:14.794228992,2151,1536691670153997272,base_link,0,1,40.593066,-79.9002606,361.630778658,0.462400009727,0.0,0.0,0.0,0.462400009727,0.0,0.0,0.0,1.84960003891,1,74.81835676846694,318.6983652328951,361.62235907311276,16.259709671917584,8.637629218065893,-0.4506143263909379,0,Fixed-Wing
1970-01-01 00:01:15.170794400,2153,1536691670529731224,base_link,0,1,40.5930881,-79.9001773,361.48085436,0.462400009727,0.0,0.0,0.0,0.462400009727,0.0,0.0,0.0,1.84960003891,1,81.87011462929067,321.152688983681,361.47222488048504,17.635875836429204,6.138065115894778,-0.3754734680688097,0,Fixed-Wing
1970-01-01 00:01:15.553925312,2155,1536691670913714232,base_link,0,1,40.593101,-79.9000891,361.450938809,0.462400009727,0.0,0.0,0.0,0.462400009727,0.0,0.0,0.0,1.84960003891,1,89.33669212999439,322.5853486507614,361.4421367940078,18.673306191784782,3.5829659076720004,-0.07524786978523423,0,Fixed-Wing
1970-01-01 00:01:15.991137152,2157,1536691671350873336,base_link,0,1,40.593104,-79.8999986,361.76102965,0.462400009727,0.0,0.0,0.0,0.462400009727,0.0,0.0,0.0,1.84960003891,1,96.99799321038599,322.9186172162375,361.7520989841728,19.16029410906407,0.8334777167512717,0.7751903578689697,0,Fixed-Wing
1970-01-01 00:01:16.399154912,2159,1536691671757914712,base_link,0,1,40.5931,-79.8999083,362.351123158,0.462400009727,0.0,0.0,0.0,0.462400009727,0.0,0.0,0.0,1.84960003891,1,104.64237879913613,322.4745410475506,362.34209435558137,19.117989833139028,-1.1105985666905929,1.4755306860485649,0,Fixed-Wing
1970-01-01 00:01:16.787444640,2161,1536691672147278072,base_link,0,1,40.5930919,-79.8998195,363.051216828,0.462400009727,0.0,0.0,0.0,0.462400009727,0.0,0.0,0.0,1.84960003891,1,112.15979256940983,321.57516150115663,363.0421059686968,18.80044358870311,-2.249275474721858,1.750672404897318,0,Fixed-Wing
1970-01-01 00:01:17.168556512,2163,1536691672528144888,base_link,0,1,40.5930825,-79.8997326,363.671309111,0.462400009727,0.0,0.0,0.0,0.462400009727,0.0,0.0,0.0,1.84960003891,1,119.51636553283633,320.53141461088165,363.66211750565355,18.398193744767454,-2.610326520683787,1.5505986874095758,0,Fixed-Wing
1970-01-01 00:01:17.612926432,2165,1536691672972710104,base_link,0,1,40.5930733,-79.8996473,364.101399699,0.462400009727,0.0,0.0,0.0,0.462400009727,0.0,0.0,0.0,1.84960003891,1,126.73748931011177,319.5098734140334,364.0921202795578,18.05944628970006,-2.554791878135868,1.0754021450488571,0,Fixed-Wing
1970-01-01 00:01:18.033754080,2167,1536691673390635288,base_link,0,1,40.5930646,-79.8995635,364.401488569,0.462400009727,0.0,0.0,0.0,0.462400009727,0.0,0.0,0.0,1.84960003891,1,133.83162930346754,318.54385649274957,364.39211288829404,17.74187012065876,-2.415930157542457,0.7502572413768585,0,Fixed-Wing
1970-01-01 00:01:18.357799552,2169,1536691673715962040,base_link,0,1,40.5930573,-79.8994807,364.681575863,0.462400009727,0.0,0.0,0.0,0.462400009727,0.0,0.0,0.0,1.84960003891,1,140.8411130666006,317.7333170165916,364.672090002849,17.53015173859659,-2.027093647310241,0.7002001099278514,0,Fixed-Wing
