time,field.header.seq,field.header.stamp,field.header.frame_id,field.status.status,field.status.service,lat,lon,alt,field.position_covariance0,field.position_covariance1,field.position_covariance2,field.position_covariance3,field.position_covariance4,field.position_covariance5,field.position_covariance6,field.position_covariance7,field.position_covariance8,field.position_covariance_type,x,y,z,vel_x,vel_y,vel_z,track_id,uav_category
1970-01-01 00:00:00.000000000,754,1532987297177724387,base_link,0,1,40.5916432,-79.8971287,389.754562751,0.50409996953,0.0,0.0,0.0,0.50409996953,0.0,0.0,0.0,2.01639987812,1,355.7137574759245,159.83569324644165,389.7426506568437,-18.521600178390347,5.1082267167885895,-0.7244495880991645,0,Fixed-Wing
1970-01-01 00:00:00.388033298,756,1532987297565448566,base_link,0,1,40.5916616,-79.8972162,389.464465462,0.50409996953,0.0,0.0,0.0,0.50409996953,0.0,0.0,0.0,2.01639987812,1,348.306117570978,161.87870808891438,389.4529099418818,-18.521600178390347,5.1082267167885895,-0.7244495880991645,0,Fixed-Wing
1970-01-01 00:00:00.794104974,758,1532987297971872305,base_link,0,1,40.5916814,-79.8973039,389.364367401,0.50409996953,0.0,0.0,0.0,0.50409996953,0.0,0.0,0.0,2.01639987812,1,340.8815539485539,164.07720817970693,389.3531561037357,-18.563915184610178,5.496992320944702,-0.24941826683116522,0,Fixed-Wing
1970-01-01 00:00:01.205680793,760,1532987298382917054,base_link,0,1,40.5917056,-79.8973903,389.404268849,0.50409996953,0.0,0.0,0.0,0.50409996953,0.0,0.0,0.0,2.01639987812,1,333.567034990611,166.76435659603334,389.39337385188463,-18.288766378318414,6.718778075856261,0.10055794569493075,0,Fixed-Wing
1970-01-01 00:00:01.602874768,762,1532987298778656857,base_link,0,1,40.5917343,-79.8974745,388.964170689,0.50409996953,0.0,0.0,0.0,0.50409996953,0.0,0.0,0.0,2.01639987812,1,326.43872098365813,169.95124526275097,388.95355964047315,-17.823191148187124,7.968297386941325,-1.0996839858668108,0,Fixed-Wing
1970-01-01 00:00:01.995523636,764,1532987299173174552,base_link,0,1,40.5917685,-79.8975551,388.044073936,0.50409996953,0.0,0.0,0.0,0.50409996953,0.0,0.0,0.0,2.01639987812,1,319.6151301389254,173.74893071163314,388.0337053929379,-17.06128038468377,9.49549551409981,-2.2999461115631283,0,Fixed-Wing
1970-01-01 00:00:02.406532545,766,1532987299577773048,base_link,0,1,40.5918084,-79.8976313,386.863979327,0.50409996953,0.0,0.0,0.0,0.50409996953,0.0,0.0,0.0,2.01639987812,1,313.16400070190394,178.17963054755276,386.85380778809076,-16.13000114270789,11.078245152894704,-2.9501422813258684,0,Fixed-Wing
1970-01-01 00:00:02.791563549,768,1532987299969087392,base_link,0,1,40.5918534,-79.897703,385.453887219,0.50409996953,0.0,0.0,0.0,0.50409996953,0.0,0.0,0.0,2.01639987812,1,307.09380413563747,183.17671248481568,385.4438685014284,-15.177540383617975,12.494391586021411,-3.525324135414121,0,Fixed-Wing
1970-01-01 00:00:03.208878967,770,1532987300386479226,base_link,0,1,40.5919022,-79.8977714,383.863796928,0.50409996953,0.0,0.0,0.0,0.50409996953,0.0,0.0,0.0,2.01639987812,1,301.30296117917715,188.59580351552395,383.8538956726426,-14.47906206452952,13.549556766934218,-3.9754687602472494,0,Fixed-Wing
1970-01-01 00:00:03.581141528,772,1532987300758959803,base_link,0,1,40.5919538,-79.8978375,382.17370785,0.50409996953,0.0,0.0,0.0,0.50409996953,0.0,0.0,0.0,2.01639987812,1,295.7068236206573,194.32584861313933,382.1638956926278,-13.99223284773405,14.327046895369309,-4.225570402041178,0,Fixed-Wing
1970-01-01 00:00:03.995517083,774,1532987301173275006,base_link,0,1,40.5920069,-79.8979032,380.753618585,0.50409996953,0.0,0.0,0.0,0.50409996953,0.0,0.0,0.0,2.01639987812,1,290.14456616074466,200.22248373682106,380.74387868311135,-13.907521165138903,14.743578192260287,-3.550521844240149,0,Fixed-Wing
1970-01-01 00:00:04.381098517,776,1532987301558835352,base_link,0,1,40.5920604,-79.8979689,379.473529183,0.50409996953,0.0,0.0,0.0,0.50409996953,0.0,0.0,0.0,2.01639987812,1,284.58232451666817,206.16354603049294,379.4638497898395,-13.907481620209962,14.854661113430003,-3.2005043012602528,0,Fixed-Wing
1970-01-01 00:00:04.784158170,778,1532987301961913245,base_link,0,1,40.5921131,-79.8980351,378.183439633,0.448900022364,0.0,0.0,0.0,0.448900022364,0.0,0.0,0.0,1.79560008945,1,278.9777684912206,212.01576611471478,378.1738151655868,-14.013281856669526,14.632525601510805,-3.225522006102604,0,Fixed-Wing
1970-01-01 00:00:05.179805653,780,1532987302357626744,base_link,0,1,40.5921645,-79.898102,376.913349937,0.448900022364,0.0,0.0,0.0,0.448900022364,0.0,0.0,0.0,1.79560008945,1,273.3139700316491,217.72361821101157,376.90377757167346,-14.161407939000574,14.2715569009236,-3.1755226803452055,0,Fixed-Wing
1970-01-01 00:00:05.590694659,782,1532987302768576709,base_link,0,1,40.592215,-79.8981694,375.733260132,0.448900022364,0.0,0.0,0.0,0.448900022364,0.0,0.0,0.0,1.79560008945,1,267.60786157281444,223.33152668934025,375.7237350093827,-14.267197218711148,14.021664120477968,-2.950504723864564,0,Fixed-Wing
1970-01-01 00:00:05.993311017,784,1532987303171153836,base_link,0,1,40.5922648,-79.8982375,374.66316993,0.448900022364,0.0,0.0,0.0,0.448900022364,0.0,0.0,0.0,1.79560008945,1,261.84251151057225,228.86170257688096,374.6536872362167,-14.415321223970714,13.827306405216472,-2.675480622799174,0,Fixed-Wing
1970-01-01 00:00:06.366426696,786,1532987303543426957,base_link,0,1,40.5923141,-79.8983054,373.823080168,0.448900022364,0.0,0.0,0.0,0.448900022364,0.0,0.0,0.0,1.79560008945,1,256.094114342849,234.33636388580436,373.8136312568539,-14.37293326529888,13.6885012199732,-2.100423505580187,0,Fixed-Wing
1970-01-01 00:00:06.767356947,788,1532987303944701912,base_link,0,1,40.5923637,-79.8983717,373.072991943,0.448900022364,0.0,0.0,0.0,0.448900022364,0.0,0.0,0.0,1.79560008945,1,250.48117968304737,239.84435193505726,373.06356036460113,-14.034231270725678,13.771829320090465,-1.8754304137378026,0,Fixed-Wing
1970-01-01 00:00:07.188624994,790,1532987304366366181,base_link,0,1,40.5924143,-79.8984354,372.472905986,0.448900022364,0.0,0.0,0.0,0.448900022364,0.0,0.0,0.0,1.79560008945,1,245.08836303579844,245.4634085157678,372.46346931424597,-13.483861939484168,14.049538139425193,-1.500430183962737,0,Fixed-Wing
1970-01-01 00:00:07.583150592,792,1532987304761029539,base_link,0,1,40.5924659,-79.8984957,371.832823113,0.448900022364,0.0,0.0,0.0,0.448900022364,0.0,0.0,0.0,1.79560008945,1,239.98338152227257,251.19352819575528,371.8233566405403,-12.764176947702618,14.327233376474492,-1.6004977514606646,0,Fixed-Wing
1970-01-01 00:00:07.979388090,794,1532987305155753633,base_link,0,1,40.5925196,-79.8985512,371.012744299,0.448900022364,0.0,0.0,0.0,0.448900022364,0.0,0.0,0.0,1.79560008945,1,235.28474427207476,257.1568660986661,371.0032144111604,-11.74817912967702,14.910357655560592,-2.050632408824898,0,Fixed-Wing
1970-01-01 00:00:08.362661274,796,1532987305540515709,base_link,0,1,40.5925768,-79.8985997,370.06267121,0.448900022364,0.0,0.0,0.0,0.448900022364,0.0,0.0,0.0,1.79560008945,1,231.17869124898883,263.50890220807776,370.0530313550422,-10.266518537717428,15.882234375169753,-2.37577837037548,0,Fixed-Wing
1970-01-01 00:00:08.818095234,798,1532987305995613638,base_link,0,1,40.5926381,-79.8986391,368.962605743,0.448900022364,0.0,0.0,0.0,0.448900022364,0.0,0.0,0.0,1.79560008945,1,227.8429962956349,270.31627106354165,368.9528001824709,-8.34036333243472,17.02071993585107,-2.7509493095850046,0,Fixed-Wing
1970-01-01 00:00:09.188333898,800,1532987306365823886,base_link,0,1,40.592704,-79.8986678,367.752549324,0.448900022364,0.0,0.0,0.0,0.448900022364,0.0,0.0,0.0,1.79560008945,1,225.4131068257046,277.63450299935994,367.742514859169,-6.075543873248607,18.298050076306023,-3.0261218347025496,0,Fixed-Wing
1970-01-01 00:00:09.590294002,802,1532987306767812758,base_link,0,1,40.5927735,-79.8986827,366.542505527,0.448900022364,0.0,0.0,0.0,0.448900022364,0.0,0.0,0.0,1.79560008945,1,224.15146025669034,285.35255685446975,366.5321740099507,-3.1545422857442262,19.297739832651946,-3.02626066823585,0,Fixed-Wing
1970-01-01 00:00:09.974123057,804,1532987307151718708,base_link,0,1,40.5928446,-79.898682,365.49247701,0.448900022364,0.0,0.0,0.0,0.448900022364,0.0,0.0,0.0,1.79560008945,1,224.21044492704257,293.24833893365417,365.4817844221302,0.14748158589467378,19.742120384212903,-2.6263285239020226,0,Fixed-Wing
1970-01-01 00:00:10.370208747,806,1532987307547787214,base_link,0,1,40.5929145,-79.8986657,364.61246492,0.448900022364,0.0,0.0,0.0,0.448900022364,0.0,0.0,0.0,1.79560008945,1,225.59006575377083,301.0109035046995,364.60136126028414,3.449517751717123,19.40903164688569,-2.2013550875519883,0,Fixed-Wing
1970-01-01 00:00:10.811645789,808,1532987307989176544,base_link,0,1,40.5929798,-79.8986332,364.01247126,0.448900022364,0.0,0.0,0.0,0.448900022364,0.0,0.0,0.0,1.79560008945,1,228.3411270075664,308.26268069743105,364.0009226515328,6.878581743024231,18.1318907870851,-1.501299197269998,0,Fixed-Wing
1970-01-01 00:00:11.210535374,810,1532987308388335441,base_link,0,1,40.5930372,-79.8985865,363.74249534,0.448900022364,0.0,0.0,0.0,0.448900022364,0.0,0.0,0.0,1.79560008945,1,232.29432774378785,314.63719739653646,363.73049216773217,9.88433622594412,15.938443437627612,-0.6761674921129945,0,Fixed-Wing
1970-01-01 00:00:11.582665808,812,1532987308760456147,base_link,0,1,40.5930846,-79.8985281,363.692535465,0.448900022364,0.0,0.0,0.0,0.448900022364,0.0,0.0,0.0,1.79560008945,1,237.238031806091,319.9012342848001,363.680088113259,12.360928881156807,13.161869072984004,-0.12602714984817082,0,Fixed-Wing
1970-01-01 00:00:11.989454378,814,1532987309166288144,base_link,0,1,40.5931207,-79.8984617,363.792588391,0.448900022364,0.0,0.0,0.0,0.448900022364,0.0,0.0,0.0,1.79560008945,1,242.85901736581687,323.91041197907384,363.77972696772633,14.054361238081842,10.024297515848932,0.24913076882215013,0,Fixed-Wing
1970-01-01 00:00:12.384205224,816,1532987309561530156,base_link,0,1,40.5931443,-79.8983899,363.972651955,0.448900022364,0.0,0.0,0.0,0.448900022364,0.0,0.0,0.0,1.79560008945,1,248.9371847096251,326.5314583786063,363.9594225763086,15.19747001797297,6.553500721428579,0.4492996769120794,0,Fixed-Wing
1970-01-01 00:00:12.788529897,818,1532987309965443951,base_link,0,1,40.5931539,-79.8983165,364.242722896,0.448900022364,0.0,0.0,0.0,0.448900022364,0.0,0.0,0.0,1.79560008945,1,255.150853265346,327.59778545240647,364.2291935228808,15.53626878558834,2.666177618478877,0.6745184264180165,0,Fixed-Wing
1970-01-01 00:00:13.216312740,820,1532987310392138989,base_link,0,1,40.5931514,-79.8982444,364.472797478,0.448900022364,0.0,0.0,0.0,0.448900022364,0.0,0.0,0.0,1.79560008945,1,261.2545142463017,327.3203776708332,364.45903565588026,15.261212716105947,-0.6936130917005997,0.5746829146921467,0,Fixed-Wing
1970-01-01 00:00:13.618433260,822,1532987310796133391,base_link,0,1,40.5931386,-79.8981769,364.852871599,0.448900022364,0.0,0.0,0.0,0.448900022364,0.0,0.0,0.0,1.79560008945,1,266.96880925497,325.8991286962875,364.8389464573916,14.287666356628828,-3.5536021726574996,0.9499052409859268,0,Fixed-Wing
1970-01-01 00:00:14.019385431,824,1532987311196960667,base_link,0,1,40.5931189,-79.8981156,365.422942233,0.448900022364,0.0,0.0,0.0,0.448900022364,0.0,0.0,0.0,1.79560008945,1,272.15828048886726,323.7116126809748,365.4089097582469,12.975429767761845,-5.469528424619133,1.425100640724764,0,Fixed-Wing
1970-01-01 00:00:14.395093262,826,1532987311572823569,base_link,0,1,40.5930963,-79.898061,366.403007231,0.448900022364,0.0,0.0,0.0,0.448900022364,0.0,0.0,0.0,1.79560008945,1,276.7805947815266,321.2020474375681,366.38890331904236,11.557345973354716,-6.274760201143792,2.450314694472342,0,Fixed-Wing
1970-01-01 00:00:14.768637132,828,1532987311946470863,base_link,0,1,40.5930746,-79.8980098,367.463068399,0.448900022364,0.0,0.0,0.0,0.448900022364,0.0,0.0,0.0,1.79560008945,1,281.11508509998737,318.79242466359943,367.44889638375344,10.83768888415131,-6.024870292411206,2.650340457739494,0,Fixed-Wing
1970-01-01 00:00:15.210072574,830,1532987312387846977,base_link,0,1,40.5930543,-79.8979596,368.31312798,0.448900022364,0.0,0.0,0.0,0.448900022364,0.0,0.0,0.0,1.79560008945,1,285.3649089160104,316.53826340132645,368.2988800582361,10.62599404925421,-5.636164037827574,2.1252460944293574,0,Fixed-Wing
1970-01-01 00:00:15.577413166,832,1532987312755157809,base_link,0,1,40.5930353,-79.8979078,368.73318867,0.448900022364,0.0,0.0,0.0,0.448900022364,0.0,0.0,0.0,1.79560008945,1,289.7501600241092,314.4284562230259,368.7188479427019,10.964607992326034,-5.275230101815172,1.050061469462997,0,Fixed-Wing
1970-01-01 00:00:15.997890143,834,1532987313170563473,base_link,0,1,40.5930179,-79.8978521,368.913252692,0.448900022364,0.0,0.0,0.0,0.448900022364,0.0,0.0,0.0,1.79560008945,1,294.4655524242427,312.4963365878607,368.898791511574,11.790072660142751,-4.830951266333903,0.4499196613345064,0,Fixed-Wing
1970-01-01 00:00:16.397749261,836,1532987313575201393,base_link,0,1,40.5930033,-79.8977912,368.933320883,0.448900022364,0.0,0.0,0.0,0.448900022364,0.0,0.0,0.0,1.79560008945,1,299.62113604803875,310.875176668951,368.91869936307495,12.890699303896216,-4.053447012620982,0.049776348559385224,0,Fixed-Wing
1970-01-01 00:00:16.814783336,838,1532987313990871888,base_link,0,1,40.5929923,-79.8977252,369.033392811,0.448900022364,0.0,0.0,0.0,0.448900022364,0.0,0.0,0.0,1.79560008945,1,305.20845243817536,309.65383082415053,369.0185663195634,13.970176949229662,-3.0537768718788363,0.24970110086968414,0,Fixed-Wing
1970-01-01 00:00:17.248100755,840,1532987314425603830,base_link,0,1,40.592986,-79.8976554,369.443466697,0.448900022364,0.0,0.0,0.0,0.448900022364,0.0,0.0,0.0,1.79560008945,1,311.11745508239727,308.95446431336313,369.4283891285915,14.774501168212494,-1.7486523450350782,1.0246953564434402,0,Fixed-Wing
1970-01-01 00:00:17.601604972,842,1532987314778099219,base_link,0,1,40.592984,-79.897584,369.963540457,0.448900022364,0.0,0.0,0.0,0.448900022364,0.0,0.0,0.0,1.79560008945,1,317.16189357376106,308.73263926194466,369.9481763913567,15.113136501837227,-0.5546375046093157,1.2996436088001675,0,Fixed-Wing
1970-01-01 00:00:18.028913801,844,1532987315206590988,base_link,0,1,40.5929851,-79.8975115,370.503614074,0.448900022364,0.0,0.0,0.0,0.448900022364,0.0,0.0,0.0,1.79560008945,1,323.29944056708746,308.85508688055137,370.4879363711962,15.345939185105978,0.30616037816783664,1.349582143188121,0,Fixed-Wing
1970-01-01 00:00:18.394022656,846,1532987315571445604,base_link,0,1,40.5929872,-79.8974385,370.903687799,0.448900022364,0.0,0.0,0.0,0.448900022364,0.0,0.0,0.0,1.79560008945,1,329.47930403100617,309.0885871674999,370.8876829824042,15.451744645323886,0.5838295343584547,0.9995014607172016,0,Fixed-Wing
1970-01-01 00:00:18.823662613,848,1532987316001301816,base_link,0,1,40.5929893,-79.8973648,371.133762248,0.448900022364,0.0,0.0,0.0,0.448900022364,0.0,0.0,0.0,1.79560008945,1,335.71841781616564,309.3220870102875,371.1174212153646,15.59989044810918,0.5838284238061645,0.5744231295233804,0,Fixed-Wing
1970-01-01 00:00:19.195586455,850,1532987316373348442,base_link,0,1,40.5929921,-79.8972897,371.133837848,0.448900022364,0.0,0.0,0.0,0.448900022364,0.0,0.0,0.0,1.79560008945,1,342.07603351227783,309.63332310829276,371.1171443690441,15.89618522528589,0.7781953013788894,-0.0006922092493639424,0,Fixed-Wing
1970-01-01 00:00:19.592603823,852,1532987316770010227,base_link,0,1,40.5929938,-79.8972127,370.843915853,0.448900022364,0.0,0.0,0.0,0.448900022364,0.0,0.0,0.0,1.79560008945,1,348.594484049603,309.82240024932884,370.8268607591484,16.298326617406296,0.4727566747412897,-0.7258070086854463,0,Fixed-Wing
1970-01-01 00:00:19.999499464,854,1532987317175862127,base_link,0,1,40.5929949,-79.8971342,370.333995648,0.448900022364,0.0,0.0,0.0,0.448900022364,0.0,0.0,0.0,1.79560008945,1,355.23990786798726,309.9448468964905,370.31656846422436,16.61580267932232,0.306157949227312,-1.2759029842130098,0,Fixed-Wing
1970-01-01 00:00:20.381209613,856,1532987317558866961,base_link,0,1,40.5929955,-79.8970543,369.884077091,0.448900022364,0.0,0.0,0.0,0.448900022364,0.0,0.0,0.0,1.79560008945,1,362.00385420497577,310.0117818726283,369.8662668928546,16.912148982583926,0.16736003394912247,-1.1259059257244173,0,Fixed-Wing
1970-01-01 00:00:20.780165919,858,1532987317957848578,base_link,0,1,40.5929957,-79.8969745,369.464158608,0.448900022364,0.0,0.0,0.0,0.448900022364,0.0,0.0,0.0,1.79560008945,1,368.75933784537636,310.03430302135973,369.4459608840439,16.89098938456841,0.05631047374249045,-1.05090689445739,0,Fixed-Wing
1970-01-01 00:00:21.216069281,860,1532987318393402757,base_link,0,1,40.5929947,-79.8968957,369.264239607,0.448900022364,0.0,0.0,0.0,0.448900022364,0.0,0.0,0.0,1.79560008945,1,375.4301847102212,309.9235737524671,369.2456586795092,16.679368876910537,-0.27686054840556534,-0.5008231224584085,0,Fixed-Wing
1970-01-01 00:00:21.588933665,862,1532987318765040777,base_link,0,1,40.5929941,-79.8968182,369.224319122,0.448900022364,0.0,0.0,0.0,0.448900022364,0.0,0.0,0.0,1.79560008945,1,381.99098650773993,309.8572736085437,369.2053524416432,16.40421906337032,-0.16577273912828092,-0.10077919985695838,0,Fixed-Wing
1970-01-01 00:00:21.985019451,864,1532987319162740062,base_link,0,1,40.5929936,-79.8967424,369.314396867,0.448900022364,0.0,0.0,0.0,0.448900022364,0.0,0.0,0.0,1.79560008945,1,388.4078813254887,309.8020833195569,369.2950459056601,16.04440303878212,-0.13799435170449872,0.22426393567364597,0,Fixed-Wing
1970-01-01 00:00:22.399120959,866,1532987319576791426,base_link,0,1,40.5929926,-79.8966682,369.474473192,0.448900022364,0.0,0.0,0.0,0.448900022364,0.0,0.0,0.0,1.79560008945,1,394.6893348886371,309.6913685374012,369.45474257770616,15.705754184686011,-0.2768243266733419,0.3992955850190742,0,Fixed-Wing
1970-01-01 00:00:22.775297620,868,1532987319953102135,base_link,0,1,40.5929904,-79.8965954,369.564548588,0.448900022364,0.0,0.0,0.0,0.448900022364,0.0,0.0,0.0,1.79560008945,1,400.85227402230913,309.4473862628731,369.54444606098104,15.40942810697447,-0.6100380414558303,0.22428898720049364,0,Fixed-Wing
1970-01-01 00:00:23.188691642,870,1532987320366473629,base_link,0,1,40.5929851,-79.8965236,369.48462425,0.448900022364,0.0,0.0,0.0,0.448900022364,0.0,0.0,0.0,1.79560008945,1,406.9305661885962,308.8591334536777,369.46416596942845,15.197782116303305,-1.4708305851175159,-0.20072732707064195,0,Fixed-Wing
1970-01-01 00:00:23.607351984,872,1532987320785028148,base_link,0,1,40.5929753,-79.8964529,369.204700653,0.448900022364,0.0,0.0,0.0,0.448900022364,0.0,0.0,0.0,1.79560008945,1,412.91575284911795,307.7711345504105,369.18391099141024,14.964986924539254,-2.7203645073764746,-0.7007320438714381,0,Fixed-Wing
1970-01-01 00:00:24.003807273,874,1532987321181405517,base_link,0,1,40.5929609,-79.8963834,368.724777739,0.448900022364,0.0,0.0,0.0,0.448900022364,0.0,0.0,0.0,1.79560008945,1,418.7993696877575,306.1722837764622,368.70368216137723,14.711028085390447,-3.997666619864431,-1.2007341741960498,0,Fixed-Wing
1970-01-01 00:00:24.370987194,876,1532987321548736381,base_link,0,1,40.59294,-79.8963167,368.194854656,0.448900022364,0.0,0.0,0.0,0.448900022364,0.0,0.0,0.0,1.79560008945,1,424.4459904306318,303.85158091627653,368.173497608909,14.11845784899534,-5.802540493430839,-1.325640342616894,0,Fixed-Wing
1970-01-01 00:00:24.798617173,878,1532987321974827933,base_link,0,1,40.5929121,-79.8962551,367.774929257,0.448900022364,0.0,0.0,0.0,0.448900022364,0.0,0.0,0.0,1.79560008945,1,429.6609225612867,300.75349578038026,367.75337074476334,13.03909060386881,-7.746258584649601,-1.0504589723253377,0,Fixed-Wing
1970-01-01 00:00:25.179987228,880,1532987322357615871,base_link,0,1,40.592878,-79.8962006,367.514999166,0.448900022364,0.0,0.0,0.0,0.448900022364,0.0,0.0,0.0,1.79560008945,1,434.2748545145997,296.9668619039337,367.4933064861001,11.5363872955674,-9.467862852601495,-0.6502484301961987,0,Fixed-Wing
1970-01-01 00:00:25.586307479,882,1532987322764018106,base_link,0,1,40.5928385,-79.896155,367.465062211,0.448900022364,0.0,0.0,0.0,0.448900022364,0.0,0.0,0.0,1.79560008945,1,438.13540508170934,292.5805132902174,367.4433091042433,9.652679529510515,-10.96735212682782,-0.12501033103661396,0,Fixed-Wing
1970-01-01 00:00:25.984716682,884,1532987323162312941,base_link,0,1,40.5927956,-79.8961195,367.595116333,0.448900022364,0.0,0.0,0.0,0.448900022364,0.0,0.0,0.0,1.79560008945,1,441.14097217246376,287.816545914151,367.57337363901974,7.5149322427388325,-11.911526496243074,0.3252052396483747,0,Fixed-Wing
1970-01-01 00:00:26.418430995,886,1532987323596131958,base_link,0,1,40.5927508,-79.8960932,367.865161834,0.448900022364,0.0,0.0,0.0,0.448900022364,0.0,0.0,0.0,1.79560008945,1,443.367732332564,282.84153977415946,367.84348806019113,5.5676520332750945,-12.439194641255407,0.675377228854394,0,Fixed-Wing
1970-01-01 00:00:26.800773046,888,1532987323978277242,base_link,0,1,40.5927055,-79.8960743,368.205199974,0.448900022364,0.0,0.0,0.0,0.448900022364,0.0,0.0,0.0,1.79560008945,1,444.9680506050178,277.8109733171367,368.1836365523266,4.001335861475847,-12.57811418797227,0.8504860459549128,0,Fixed-Wing
1970-01-01 00:00:27.179162021,890,1532987324356786569,base_link,0,1,40.59266,-79.8960615,368.615231961,0.448900022364,0.0,0.0,0.0,0.448900022364,0.0,0.0,0.0,1.79560008945,1,446.0519763964968,272.758168297249,368.5938115468389,2.7101803530450996,-12.633718101663044,1.0255759390324208,0,Fixed-Wing
1970-01-01 00:00:27.589104629,892,1532987324766946968,base_link,0,1,40.592615,-79.8960531,368.985259244,0.448900022364,0.0,0.0,0.0,0.448900022364,0.0,0.0,0.0,1.79560008945,1,446.7634114022611,267.7608650483573,368.96400136919516,1.778827656144367,-12.49494493979608,0.9255995118247982,0,Fixed-Wing
1970-01-01 00:00:28.038407280,894,1532987325215797428,base_link,0,1,40.59257,-79.8960473,369.245283874,0.448900022364,0.0,0.0,0.0,0.448900022364,0.0,0.0,0.0,1.79560008945,1,447.2547340619075,262.76354357172465,369.2241999527545,1.2284724929025772,-12.494990515301152,0.6505842877771385,0,Fixed-Wing
1970-01-01 00:00:28.362082595,896,1532987325539856678,base_link,0,1,40.5925253,-79.8960426,369.325307263,0.448900022364,0.0,0.0,0.0,0.448900022364,0.0,0.0,0.0,1.79560008945,1,447.6529211061944,257.7995246194505,369.3043985085295,0.9956020169895069,-12.411722963285442,0.20052346010471742,0,Fixed-Wing
1970-01-01 00:00:28.782094485,898,1532987325959509401,base_link,0,1,40.5924804,-79.8960381,369.18533054,0.448900022364,0.0,0.0,0.0,0.448900022364,0.0,0.0,0.0,1.79560008945,1,448.0341633651732,252.81328534701578,369.164595126575,0.9532343340820334,-12.467281264057437,-0.349555644898295,0,Fixed-Wing
1970-01-01 00:00:29.184986651,900,1532987326362807358,base_link,0,1,40.5924348,-79.8960341,368.905353607,0.448900022364,0.0,0.0,0.0,0.448900022364,0.0,0.0,0.0,1.79560008945,1,448.37307286713326,247.74930161996707,368.88479360255246,0.8473881523007468,-12.661668642888559,-0.6995982558209346,0,Fixed-Wing
1970-01-01 00:00:29.608538562,902,1532987326783203534,base_link,0,1,40.5923887,-79.8960308,368.425376176,0.448900022364,0.0,0.0,0.0,0.448900022364,0.0,0.0,0.0,1.79560008945,1,448.65271271817863,242.6297809640384,368.40499381465946,0.6991940188059741,-12.800529711332734,-1.1996614240247445,0,Fixed-Wing
1970-01-01 00:00:29.997085235,904,1532987327174861398,base_link,0,1,40.5923417,-79.8960276,368.015399028,0.448900022364,0.0,0.0,0.0,0.448900022364,0.0,0.0,0.0,1.79560008945,1,448.9238982207598,237.41031602186507,367.9951945010186,0.6780552939175473,-13.050424162695256,-1.024636610044507,0,Fixed-Wing
1970-01-01 00:00:30.382258798,906,1532987327559993169,base_link,0,1,40.5922944,-79.8960249,367.885421504,0.448900022364,0.0,0.0,0.0,0.448900022364,0.0,0.0,0.0,1.79560008945,1,449.15277758507574,232.15754373561464,367.8653947108063,0.5722756680050755,-13.133703765634444,-0.32454328887475536,0,Fixed-Wing
1970-01-01 00:00:30.785473682,908,1532987327963212885,base_link,0,1,40.5922472,-79.8960228,368.225443335,0.448900022364,0.0,0.0,0.0,0.448900022364,0.0,0.0,0.0,1.79560008945,1,449.33089580557726,226.91589065834972,368.2055931047794,0.44535567426981904,-13.105901989930924,0.8506108173930546,0,Fixed-Wing
1970-01-01 00:00:31.188641879,910,1532987328366463002,base_link,0,1,40.5922008,-79.8960205,368.655465048,0.448900022364,0.0,0.0,0.0,0.448900022364,0.0,0.0,0.0,1.79560008945,1,449.5259465670232,221.76308319905587,368.6357827726717,0.48769274213504105,-12.883757955558634,1.0756193783468446,0,Fixed-Wing
1970-01-01 00:00:31.633888541,912,1532987328811726368,base_link,0,1,40.5921548,-79.8960186,368.935486195,0.448900022364,0.0,0.0,0.0,0.448900022364,0.0,0.0,0.0,1.79560008945,1,449.6871217642094,216.65468892984833,368.9159685657694,0.40299239693907757,-12.772709988867339,0.7005590582171112,0,Fixed-Wing
1970-01-01 00:00:31.992163689,914,1532987329168749935,base_link,0,1,40.5921085,-79.8960172,368.935506966,0.448900022364,0.0,0.0,0.0,0.448900022364,0.0,0.0,0.0,1.79560008945,1,449.80595118435235,211.51296665031725,368.9161539689284,0.29711366070159095,-12.856041264398394,0.00046357047960705487,0,Fixed-Wing
1970-01-01 00:00:32.403707092,916,1532987329581444375,base_link,0,1,40.5920611,-79.8960159,368.785528105,0.448900022364,0.0,0.0,0.0,0.448900022364,0.0,0.0,0.0,1.79560008945,1,449.9163119085296,206.24908132324836,368.7663401386067,0.2759390622165724,-13.16149011883827,-0.37458514479880956,0,Fixed-Wing
1970-01-01 00:00:32.785756472,918,1532987329963517083,base_link,0,1,40.5920126,-79.8960151,368.475549203,0.448900022364,0.0,0.0,0.0,0.448900022364,0.0,0.0,0.0,1.79560008945,1,449.9843405225675,200.86303097128476,368.45652875206554,0.170094497851888,-13.46694391733785,-0.7746330418136065,0,Fixed-Wing
1970-01-01 00:00:33.171838000,920,1532987330349412020,base_link,0,1,40.5919631,-79.896015,368.235570013,0.448900022364,0.0,0.0,0.0,0.448900022364,0.0,0.0,0.0,1.79560008945,1,449.9931211162972,195.3659273084409,368.21672010146574,0.021954448174708825,-13.744614680091486,-0.5996025728468294,0,Fixed-Wing
1970-01-01 00:00:33.605209114,922,1532987330782657566,base_link,0,1,40.5919128,-79.8960157,368.20559035,0.448900022364,0.0,0.0,0.0,0.448900022364,0.0,0.0,0.0,1.79560008945,1,449.93419640508677,189.7799843231677,368.18691364904754,-0.14733166780117563,-13.9667429734844,-0.07452619208142991,0,Fixed-Wing
1970-01-01 00:00:33.971348174,924,1532987331148469043,base_link,0,1,40.5918628,-79.8960163,368.465610677,0.448900022364,0.0,0.0,0.0,0.448900022364,0.0,0.0,0.0,1.79560008945,1,449.88375571143877,184.22736608170314,368.4471007223295,-0.1261187601526194,-13.883419865343214,0.6505555081984584,0,Fixed-Wing
1970-01-01 00:00:34.381640830,926,1532987331559484832,base_link,0,1,40.5918133,-79.896016,369.045631729,0.448900022364,0.0,0.0,0.0,0.448900022364,0.0,0.0,0.0,1.79560008945,1,449.909525403552,178.73028725318665,369.0272767452098,0.06443292872841612,-13.744552585890327,1.4506358930463692,0,Fixed-Wing
1970-01-01 00:00:34.788860406,928,1532987331966437498,base_link,0,1,40.5917647,-79.8960157,369.585652417,0.448900022364,0.0,0.0,0.0,0.448900022364,0.0,0.0,0.0,1.79560008945,1,449.93528628726676,173.3331536079911,369.5674449359652,0.06441090475909587,-13.494655891534201,1.3506028082676746,0,Fixed-Wing
1970-01-01 00:00:35.220528901,930,1532987332398358984,base_link,0,1,40.5917166,-79.8960163,369.915671983,0.448900022364,0.0,0.0,0.0,0.448900022364,0.0,0.0,0.0,1.79560008945,1,449.8848376661667,167.99153519151704,369.897611327487,-0.12613858145871712,-13.355849080811065,0.825527425006876,0,Fixed-Wing
1970-01-01 00:00:35.586373050,932,1532987332764162813,base_link,0,1,40.5916682,-79.896018,369.985690558,0.448900022364,0.0,0.0,0.0,0.448900022364,0.0,0.0,0.0,1.79560008945,1,449.7412497719327,162.61658825744058,369.9677796546028,-0.359018203042346,-13.43918162471049,0.17544450279729326,0,Fixed-Wing
1970-01-01 00:00:35.982590740,934,1532987333158860891,base_link,0,1,40.591619,-79.8960205,369.74570866,0.448900022364,0.0,0.0,0.0,0.448900022364,0.0,0.0,0.0,1.79560008945,1,449.52991941620155,157.1527875283373,369.7279499243074,-0.5283972229529728,-13.661346104482277,-0.5996552792012221,0,Fixed-Wing
1970-01-01 00:00:36.380735271,936,1532987333558487082,base_link,0,1,40.5915685,-79.8960234,369.365726911,0.448900022364,0.0,0.0,0.0,0.448900022364,0.0,0.0,0.0,1.79560008945,1,449.28472470229036,151.54461367413148,369.34812146822713,-0.6130695491671111,-14.022327649747291,-0.9496993496128157,0,Fixed-Wing
1970-01-01 00:00:36.811531609,938,1532987333989247068,base_link,0,1,40.5915168,-79.8960261,368.965745884,0.448900022364,0.0,0.0,0.0,0.448900022364,0.0,0.0,0.0,1.79560008945,1,449.0564677408147,145.8031781571804,368.948290643551,-0.5707194508150233,-14.355526788494124,-0.9997120228134396,0,Fixed-Wing
1970-01-01 00:00:37.183575195,940,1532987334361325182,base_link,0,1,40.5914645,-79.8960281,368.73576584,0.448900022364,0.0,0.0,0.0,0.448900022364,0.0,0.0,0.0,1.79560008945,1,448.88748660355486,139.99511925766046,368.71845291664954,-0.4225098819836533,-14.522107733343873,-0.5746718979598517,0,Fixed-Wing
1970-01-01 00:00:37.594935847,942,1532987334772705514,base_link,0,1,40.5914121,-79.8960296,368.695786366,0.448900022364,0.0,0.0,0.0,0.448900022364,0.0,0.0,0.0,1.79560008945,1,448.7608479703756,134.17596214376067,368.67860771297933,-0.3166393292575863,-14.549857015446563,-0.09962645874745853,0,Fixed-Wing
1970-01-01 00:00:38.008649676,944,1532987335186469135,base_link,0,1,40.5913601,-79.8960307,368.865807147,0.448900022364,0.0,0.0,0.0,0.448900022364,0.0,0.0,0.0,1.79560008945,1,448.6680842365376,128.40123241471105,368.8487541639006,-0.2319406465823193,-14.438773557054263,0.4254235594836942,0,Fixed-Wing
1970-01-01 00:00:38.382140842,946,1532987335559987341,base_link,0,1,40.5913087,-79.8960316,369.185827893,0.448900022364,0.0,0.0,0.0,0.448900022364,0.0,0.0,0.0,1.79560008945,1,448.5922584021238,122.6931378151989,369.16889286469166,-0.18959018070894532,-14.272163240817887,0.8004548133774623,0,Fixed-Wing
1970-01-01 00:00:38.787886375,948,1532987335963988751,base_link,0,1,40.591258,-79.8960327,369.435848152,0.448900022364,0.0,0.0,0.0,0.448900022364,0.0,0.0,0.0,1.79560008945,1,448.49949131170536,117.06277711230592,369.4190257172575,-0.23194903916633666,-14.0778022605376,0.6254165626505954,0,Fixed-Wing
1970-01-01 00:00:39.231366259,950,1532987336407335483,base_link,0,1,40.5912076,-79.8960345,369.505867578,0.448900022364,0.0,0.0,0.0,0.448900022364,0.0,0.0,0.0,1.79560008945,1,448.3474490099792,111.46572503886932,369.4891563298627,-0.38015707552061817,-13.994519443716403,0.17535020379043437,0,Fixed-Wing
1970-01-01 00:00:39.593679538,952,1532987336771406517,base_link,0,1,40.5911572,-79.8960377,369.335885581,0.448900022364,0.0,0.0,0.0,0.448900022364,0.0,0.0,0.0,1.79560008945,1,448.07686869816035,105.86866177868018,369.3192889068867,-0.6765421127323008,-13.994547414373804,-0.4247258954358416,0,Fixed-Wing
1970-01-01 00:00:40.010783597,954,1532987337187819730,base_link,0,1,40.5911066,-79.8960446,369.035899882,0.448900022364,0.0,0.0,0.0,0.448900022364,0.0,0.0,0.0,1.79560008945,1,447.4930460870501,100.24936752766033,369.0194351502445,-1.4597535945108484,-14.050132395423011,-0.7497356059123518,0,Fixed-Wing
1970-01-01 00:00:40.388456990,956,1532987337560700338,base_link,0,1,40.5910559,-79.896057,368.695908593,0.448900022364,0.0,0.0,0.0,0.448900022364,0.0,0.0,0.0,1.79560008945,1,446.4436018946993,94.6189401623881,368.6796035152074,-2.623964716113652,-14.077968938987327,-0.849693796255139,0,Fixed-Wing
1970-01-01 00:00:40.784254233,958,1532987337960193346,base_link,0,1,40.5910061,-79.8960758,368.335910365,0.448900022364,0.0,0.0,0.0,0.448900022364,0.0,0.0,0.0,1.79560008945,1,444.852337729771,89.08842816208482,368.3197961430734,-3.978697536488187,-13.828146800576265,-0.8996398817190676,0,Fixed-Wing
1970-01-01 00:00:41.211807413,960,1532987338389673879,base_link,0,1,40.5909578,-79.8961023,367.99590361,0.448900022364,0.0,0.0,0.0,0.448900022364,0.0,0.0,0.0,1.79560008945,1,442.60919591404956,83.72445735583838,367.98001805545243,-5.608611701883399,-13.411737600192131,-0.8495599096402284,0,Fixed-Wing
1970-01-01 00:00:41.614637882,962,1532987338792383997,base_link,0,1,40.5909118,-79.8961362,367.755888294,0.448900022364,0.0,0.0,0.0,0.448900022364,0.0,0.0,0.0,1.79560008945,1,439.73957296815666,78.61587267780666,367.74026610658115,-7.175025993241336,-12.773186075199447,-0.5994607993861355,0,Fixed-Wing
1970-01-01 00:00:41.971359275,964,1532987339149158126,base_link,0,1,40.5908693,-79.8961769,367.595864524,0.448900022364,0.0,0.0,0.0,0.448900022364,0.0,0.0,0.0,1.79560008945,1,436.2942535645507,73.89594022426704,367.580535160859,-8.614461461312258,-11.801424326133095,-0.3993812807783402,0,Fixed-Wing
1970-01-01 00:00:42.398274504,966,1532987339575840780,base_link,0,1,40.5908312,-79.8962247,367.58583161,0.448900022364,0.0,0.0,0.0,0.448900022364,0.0,0.0,0.0,1.79560008945,1,432.2478385433246,69.66460705235895,367.57082508327153,-10.11740340252458,-10.579761197531893,-0.024278471562266795,0,Fixed-Wing
1970-01-01 00:00:42.813620488,968,1532987339991480107,base_link,0,1,40.590798,-79.8962787,367.665790261,0.448900022364,0.0,0.0,0.0,0.448900022364,0.0,0.0,0.0,1.79560008945,1,427.6765126136242,65.97740379053133,367.65113074406156,-11.42985785506138,-9.219252753690796,0.20079125879501644,0,Fixed-Wing
1970-01-01 00:00:43.198840131,970,1532987340376710885,base_link,0,1,40.59077,-79.8963384,367.735740864,0.448900022364,0.0,0.0,0.0,0.448900022364,0.0,0.0,0.0,1.79560008945,1,422.62259641580914,62.86764839591535,367.721449215608,-12.636496421554549,-7.7754381706929765,0.17581991455457263,0,Fixed-Wing
1970-01-01 00:00:43.587458803,972,1532987340765078807,base_link,0,1,40.5907482,-79.8964028,367.78568402,0.448900022364,0.0,0.0,0.0,0.448900022364,0.0,0.0,0.0,1.79560008945,1,417.1707419733272,60.44639894570966,367.7717742204063,-13.63147635551282,-6.053940907536749,0.12582949897813742,0,Fixed-Wing
1970-01-01 00:00:44.012615958,974,1532987341185350056,base_link,0,1,40.5907325,-79.8964705,367.865621209,0.448900022364,0.0,0.0,0.0,0.448900022364,0.0,0.0,0.0,1.79560008945,1,411.4394759427991,58.702558099345225,367.8520994750006,-14.330099639771628,-4.360190741661212,0.20084024991948818,0,Fixed-Wing
1970-01-01 00:00:44.413203842,976,1532987341590793414,base_link,0,1,40.5907223,-79.8965404,368.025553816,0.448900022364,0.0,0.0,0.0,0.448900022364,0.0,0.0,0.0,1.79560008945,1,405.5219305729631,57.5695005618432,368.0124208584265,-14.795860865806969,-2.833026302305876,0.4008575743372024,0,Fixed-Wing
1970-01-01 00:00:44.791378770,978,1532987341968984917,base_link,0,1,40.5907165,-79.8966113,368.225483537,0.448900022364,0.0,0.0,0.0,0.448900022364,0.0,0.0,0.0,1.79560008945,1,399.51970106476875,56.925074181696175,368.2127346152413,-15.007599796458317,-1.6112834736365014,0.500852007057972,0,Fixed-Wing
1970-01-01 00:00:45.192209438,980,1532987342369478018,base_link,0,1,40.5907141,-79.8966822,368.525411825,0.448900022364,0.0,0.0,0.0,0.448900022364,0.0,0.0,0.0,1.79560008945,1,393.5174563738138,56.65823176566454,368.5130378850571,-15.007637758484812,-0.6671961115541505,0.7508595405774766,0,Fixed-Wing
1970-01-01 00:00:45.594681253,982,1532987342772285000,base_link,0,1,40.5907137,-79.8967527,368.815339684,0.448900022364,0.0,0.0,0.0,0.448900022364,0.0,0.0,0.0,1.79560008945,1,387.5490618824012,56.613500714788955,368.8033310483612,-14.92300083364403,-0.11184272595696262,0.7258308954311669,0,Fixed-Wing
1970-01-01 00:00:45.994848562,984,1532987343172658709,base_link,0,1,40.5907146,-79.8968231,369.035267102,0.448900022364,0.0,0.0,0.0,0.448900022364,0.0,0.0,0.0,1.79560008945,1,381.5891210420333,56.713142426786334,369.02361640225286,-14.901863852539822,0.24913791361178378,0.5507877410741806,0,Fixed-Wing
1970-01-01 00:00:46.386502202,986,1532987343563969949,base_link,0,1,40.5907157,-79.8968938,369.225194137,0.448900022364,0.0,0.0,0.0,0.448900022364,0.0,0.0,0.0,1.79560008945,1,375.6037795581526,56.83499785262234,369.21389710745825,-14.965374035196472,0.3046796963490145,0.4757659914223316,0,Fixed-Wing
1970-01-01 00:00:46.796581290,988,1532987343974338924,base_link,0,1,40.5907164,-79.8969648,369.255121042,0.448900022364,0.0,0.0,0.0,0.448900022364,0.0,0.0,0.0,1.79560008945,1,369.59303334750075,56.912434421149186,369.2441739382331,-15.028894427377343,0.19361755968768085,0.07570229674712034,0,Fixed-Wing
1970-01-01 00:00:47.160182181,990,1532987344338070568,base_link,0,1,40.5907166,-79.8970365,369.08504745,0.448900022364,0.0,0.0,0.0,0.448900022364,0.0,0.0,0.0,1.79560008945,1,363.5230176743129,56.93434493237396,369.07444848512716,-15.1770880898618,0.05478367385790734,-0.42437092283936223,0,Fixed-Wing
1970-01-01 00:00:47.595594313,992,1532987344773440748,base_link,0,1,40.5907163,-79.8971091,368.794973156,0.448900022364,0.0,0.0,0.0,0.448900022364,0.0,0.0,0.0,1.79560008945,1,357.3768057825588,56.900729434448806,368.7847213227394,-15.367604355973285,-0.08405009157524919,-0.7244157020891536,0,Fixed-Wing
1970-01-01 00:00:48.033550693,994,1532987345209813869,base_link,0,1,40.5907156,-79.8971824,368.514898323,0.448900022364,0.0,0.0,0.0,0.448900022364,0.0,0.0,0.0,1.79560008945,1,351.17133618365125,56.82269533217294,368.50499136110363,-15.515768626033367,-0.195111595755089,-0.6994193256984204,0,Fixed-Wing
1970-01-01 00:00:48.396132452,996,1532987345573978982,base_link,0,1,40.5907146,-79.8972559,368.354823421,0.448900022364,0.0,0.0,0.0,0.448900022364,0.0,0.0,0.0,1.79560008945,1,344.94894335114793,56.71135095671431,368.3452565113031,-15.558082422385313,-0.2783985224471016,-0.3993910422920671,0,Fixed-Wing
1970-01-01 00:00:48.808631404,998,1532987345986310960,base_link,0,1,40.5907135,-79.8973293,368.494748672,0.448900022364,0.0,0.0,0.0,0.448900022364,0.0,0.0,0.0,1.79560008945,1,338.73503289483887,56.588909590926534,368.48551540169024,-15.536873618711189,-0.3061447440098888,0.35069456973477586,0,Fixed-Wing
1970-01-01 00:00:49.188851478,1000,1532987346366367130,base_link,0,1,40.5907128,-79.8974016,368.96467489,0.448900022364,0.0,0.0,0.0,0.448900022364,0.0,0.0,0.0,1.79560008945,1,332.6142613634225,56.51090146020411,368.9557639686858,-15.303994867848111,-0.19504665810490324,1.1757801478088665,0,Fixed-Wing
1970-01-01 00:00:49.585467790,1002,1532987346763305777,base_link,0,1,40.5907127,-79.8974717,369.604603117,0.448900022364,0.0,0.0,0.0,0.448900022364,0.0,0.0,0.0,1.79560008945,1,326.6797430014853,56.49953948243149,369.59599856370556,-14.838299075218139,-0.028408779616805324,1.6008025958998533,0,Fixed-Wing
1970-01-01 00:00:49.981574568,1004,1532987347158266735,base_link,0,1,40.5907128,-79.8975397,370.304533418,0.448900022364,0.0,0.0,0.0,0.448900022364,0.0,0.0,0.0,1.79560008945,1,320.9230081008053,56.5104009051617,370.2962205928984,-14.393780412055595,0.027157223050650606,1.750791429825136,0,Fixed-Wing
1970-01-01 00:00:50.382890099,1006,1532987347560424886,base_link,0,1,40.5907127,-79.8976063,370.794465246,0.448900022364,0.0,0.0,0.0,0.448900022364,0.0,0.0,0.0,1.79560008945,1,315.28478427918833,56.49905942531743,370.7864333078031,-14.097462711508491,-0.02835752787695373,1.2256972563913993,0,Fixed-Wing
1970-01-01 00:00:50.808296756,1008,1532987347986041496,base_link,0,1,40.5907128,-79.8976725,370.934397406,0.448900022364,0.0,0.0,0.0,0.448900022364,0.0,0.0,0.0,1.79560008945,1,309.6804050460377,56.509931005464296,370.92663954023215,-14.012839816251718,0.027182620020875476,0.35056290706501064,0,Fixed-Wing
1970-01-01 00:00:51.194919563,1010,1532987348372732174,base_link,0,1,40.5907131,-79.8977394,370.754328773,0.448900022364,0.0,0.0,0.0,0.448900022364,0.0,0.0,0.0,1.79560008945,1,304.0167485686436,56.543012033114934,370.74684268704027,-14.161052935631592,0.08271373548088581,-0.4495528226107377,0,Fixed-Wing
1970-01-01 00:00:51.575755923,1012,1532987348753573717,base_link,0,1,40.5907137,-79.8978079,370.444258382,0.448900022364,0.0,0.0,0.0,0.448900022364,0.0,0.0,0.0,1.79560008945,1,298.2176316391574,56.60940652826406,370.43704508148704,-14.499749789937184,0.1660086490404354,-0.7745985846920047,0,Fixed-Wing
1970-01-01 00:00:51.997078529,1014,1532987349174869124,base_link,0,1,40.5907142,-79.8978786,370.094185789,0.448900022364,0.0,0.0,0.0,0.448900022364,0.0,0.0,0.0,1.79560008945,1,292.2322655417073,56.66469262099878,370.08724863196005,-14.965435577428158,0.1382338934124064,-0.8746091960589458,0,Fixed-Wing
1970-01-01 00:00:52.386676878,1016,1532987349564483089,base_link,0,1,40.5907137,-79.8979505,369.644112398,0.448900022364,0.0,0.0,0.0,0.448900022364,0.0,0.0,0.0,1.79560008945,1,286.1453099211237,56.60892626495803,369.63745131650955,-15.219443676355258,-0.13943471378823413,-1.1246451157168622,0,Fixed-Wing
1970-01-01 00:00:52.807213759,1018,1532987349985040450,base_link,0,1,40.5907121,-79.8980241,369.404037741,0.448900022364,0.0,0.0,0.0,0.448900022364,0.0,0.0,0.0,1.79560008945,1,279.91444962589475,56.43100364952517,369.39765432590434,-15.57925393735399,-0.44486659557255875,-0.5995734189245897,0,Fixed-Wing
1970-01-01 00:00:53.184897008,1020,1532987350362440116,base_link,0,1,40.5907098,-79.8980986,369.293962468,0.448900022364,0.0,0.0,0.0,0.448900022364,0.0,0.0,0.0,1.79560008945,1,273.60740538747643,56.17534789494772,369.2878545866451,-15.769739510879752,-0.6392256819106746,-0.2745364105635378,0,Fixed-Wing
1970-01-01 00:00:53.589017938,1022,1532987350765533849,base_link,0,1,40.5907073,-79.8981736,369.203886776,0.448900022364,0.0,0.0,0.0,0.448900022364,0.0,0.0,0.0,1.79560008945,1,267.2580333779918,55.89748565161656,369.1980501574027,-15.875573226097085,-0.6947493994968241,-0.2245413861931512,0,Fixed-Wing
1970-01-01 00:00:53.973303535,1024,1532987351149378775,base_link,0,1,40.5907053,-79.8982489,369.263810576,0.448900022364,0.0,0.0,0.0,0.448900022364,0.0,0.0,0.0,1.79560008945,1,260.8832677439395,55.67515547118714,369.2582394495391,-15.939065859021776,-0.5559004976407409,0.15049354696980485,0,Fixed-Wing
1970-01-01 00:00:54.386072471,1026,1532987351563481467,base_link,0,1,40.590704,-79.8983243,369.503733987,0.448900022364,0.0,0.0,0.0,0.448900022364,0.0,0.0,0.0,1.79560008945,1,254.50004028985288,55.5305687377915,369.49842164008976,-15.960223265357342,-0.3615156381002471,0.6005365488107983,0,Fixed-Wing
1970-01-01 00:00:54.804087151,1028,1532987351981803762,base_link,0,1,40.5907042,-79.8983991,369.773657388,0.448900022364,0.0,0.0,0.0,0.448900022364,0.0,0.0,0.0,1.79560008945,1,248.16760276227842,55.55256809613013,369.7685940137525,-15.833231305162336,0.055005821632502,0.6755221296442951,0,Fixed-Wing
1970-01-01 00:00:55.165946384,1030,1532987352343709939,base_link,0,1,40.5907058,-79.8984737,370.063580412,0.448900022364,0.0,0.0,0.0,0.448900022364,0.0,0.0,0.0,1.79560008945,1,241.85209213044175,55.73004701019829,370.0587577311869,-15.790908352219232,0.4437571923913741,0.7255072370631002,0,Fixed-Wing
1970-01-01 00:00:55.598184989,1032,1532987352775938592,base_link,0,1,40.5907085,-79.8985483,370.253502982,0.448900022364,0.0,0.0,0.0,0.448900022364,0.0,0.0,0.0,1.79560008945,1,235.53657367674117,56.029688124801595,370.24891367337267,-15.790927909519226,0.7492039290386802,0.475454041760023,0,Fixed-Wing
1970-01-01 00:00:55.940069562,1034,1532987353117613374,base_link,0,1,40.590712,-79.8986233,370.223424816,0.448900022364,0.0,0.0,0.0,0.448900022364,0.0,0.0,0.0,1.79560008945,1,229.18718137618998,56.418173593500995,370.2190630470029,-15.87562396061265,0.971344803296946,-0.0746366418710287,0,Fixed-Wing
1970-01-01 00:00:56.417145025,1036,1532987353593899431,base_link,0,1,40.5907158,-79.8986986,369.933346226,0.448900022364,0.0,0.0,0.0,0.448900022364,0.0,0.0,0.0,1.79560008945,1,222.81238221641345,56.83997712433276,369.92920625092825,-15.939149684648749,1.0546512049920906,-0.7247398300637415,0,Fixed-Wing
1970-01-01 00:00:56.820407621,1038,1532987353998176680,base_link,0,1,40.5907192,-79.8987744,369.543267305,0.448900022364,0.0,0.0,0.0,0.448900022364,0.0,0.0,0.0,1.79560008945,1,216.39525307639167,57.217362956881544,369.5393445685706,-16.044988923559142,0.9435919662874043,-0.9747858019774212,0,Fixed-Wing
1970-01-01 00:00:57.206725885,1040,1532987354382373094,base_link,0,1,40.5907216,-79.8988509,369.303188099,0.448900022364,0.0,0.0,0.0,0.448900022364,0.0,0.0,0.0,1.79560008945,1,209.91887257379707,57.483701505133666,369.29947908177076,-16.193137330026037,0.6659362720270289,-0.599744682531714,0,Fixed-Wing
1970-01-01 00:00:57.601912121,1042,1532987354779588061,base_link,0,1,40.5907223,-79.8989274,369.31310962,0.448900022364,0.0,0.0,0.0,0.448900022364,0.0,0.0,0.0,1.79560008945,1,203.44250613614378,57.56125876191692,369.3096094561936,-16.193102162925236,0.19391932106647197,0.02532935552006755,0,Fixed-Wing
1970-01-01 00:00:57.996009689,1044,1532987355173883708,base_link,0,1,40.5907215,-79.8990033,369.323032396,0.448900022364,0.0,0.0,0.0,0.448900022364,0.0,0.0,0.0,1.79560008945,1,197.01693923136784,57.47224431059999,369.3197344575508,-16.066086183574615,-0.2225661747259068,0.025315921042365318,0,Fixed-Wing
1970-01-01 00:00:58.383387245,1046,1532987355561254352,base_link,0,1,40.5907194,-79.8990788,369.252956138,0.448900022364,0.0,0.0,0.0,0.448900022364,0.0,0.0,0.0,1.79560008945,1,190.62523680170796,57.238867354753864,369.24985425085526,-15.981413564980988,-0.5835211649725853,-0.17472410449293035,0,Fixed-Wing
1970-01-01 00:00:58.746174859,1048,1532987355923746031,base_link,0,1,40.5907172,-79.8991551,369.262879114,0.448900022364,0.0,0.0,0.0,0.448900022364,0.0,0.0,0.0,1.79560008945,1,184.1658100011863,56.9943896845335,369.25996892443084,-16.150747352196717,-0.6112766979051236,0.02529009810217365,0,Fixed-Wing
1970-01-01 00:00:59.201490420,1050,1532987356379257142,base_link,0,1,40.5907147,-79.8992323,369.322801306,0.448900022364,0.0,0.0,0.0,0.448900022364,0.0,0.0,0.0,1.79560008945,1,177.63019240942288,56.71660050437089,369.3200786894625,-16.34125004816503,-0.6945667169133183,0.15029470236395578,0,Fixed-Wing
1970-01-01 00:00:59.580916576,1052,1532987356758606787,base_link,0,1,40.5907125,-79.8993106,369.172722258,0.448900022364,0.0,0.0,0.0,0.448900022364,0.0,0.0,0.0,1.79560008945,1,171.00144360899867,56.47212878494483,369.17018271346893,-16.5741095058438,-0.6112618189107005,-0.3747905367063522,0,Fixed-Wing
1970-01-01 00:00:59.974671681,1054,1532987357152562051,base_link,0,1,40.5907112,-79.8993904,368.91264131,0.448900022364,0.0,0.0,0.0,0.448900022364,0.0,0.0,0.0,1.79560008945,1,164.24570209881352,56.327606399204456,368.91028033201906,-16.891634146072583,-0.3613547472418107,-0.6498436825218314,0,Fixed-Wing
1970-01-01 00:01:00.395585936,1056,1532987357573191987,base_link,0,1,40.5907104,-79.8994718,368.702558528,0.448900022364,0.0,0.0,0.0,0.448900022364,0.0,0.0,0.0,1.79560008945,1,157.35450754720725,56.238613948310956,368.7003718149955,-17.2303124711993,-0.22251116624119158,-0.5248421462486534,0,Fixed-Wing
1970-01-01 00:01:00.780232652,1058,1532987357958033775,base_link,0,1,40.5907101,-79.8995543,368.672474424,0.448900022364,0.0,0.0,0.0,0.448900022364,0.0,0.0,0.0,1.79560008945,1,150.37019220042976,56.205153803240165,368.67045624353807,-17.4631458916391,-0.08366165700067198,-0.07479902651213571,0,Fixed-Wing
1970-01-01 00:01:01.195522445,1060,1532987358373317039,base_link,0,1,40.5907098,-79.8996365,368.932390637,0.448900022364,0.0,0.0,0.0,0.448900022364,0.0,0.0,0.0,1.79560008945,1,143.41128087734097,56.17170325019589,368.93053278162574,-17.39962725740171,-0.0836376736966377,0.650279132902126,0,Fixed-Wing
1970-01-01 00:01:01.603693890,1062,1532987358781400997,base_link,0,1,40.590709,-79.8997176,369.462308195,0.448900022364,0.0,0.0,0.0,0.448900022364,0.0,0.0,0.0,1.79560008945,1,136.54549992701274,56.08273705075476,369.4606015833581,-17.166769889755688,-0.2224455287492093,1.3253509267059576,0,Fixed-Wing
1970-01-01 00:01:02.006476104,1064,1532987359184372907,base_link,0,1,40.5907072,-79.8997969,369.942228021,0.448900022364,0.0,0.0,0.0,0.448900022364,0.0,0.0,0.0,1.79560008945,1,129.83210368817134,55.8827269095876,369.94066315255924,-16.785756674254518,-0.5000928654547241,1.2003159656582507,0,Fixed-Wing
1970-01-01 00:01:02.377122222,1066,1532987359554959281,base_link,0,1,40.5907056,-79.899875,370.342148997,0.448900022364,0.0,0.0,0.0,0.448900022364,0.0,0.0,0.0,1.79560008945,1,123.22029424706872,55.70493425691126,370.3407166550724,-16.53175538973417,-0.4445416448129126,1.0002687925699318,0,Fixed-Wing
1970-01-01 00:01:02.809500699,1068,1532987359987101471,base_link,0,1,40.5907046,-79.8999525,370.702070343,0.448900022364,0.0,0.0,0.0,0.448900022364,0.0,0.0,0.0,1.79560008945,1,116.659276929734,55.593779376021445,370.70076217071437,-16.404757935658104,-0.27792472206201213,0.9002353208732106,0,Fixed-Wing
1970-01-01 00:01:03.185776561,1070,1532987360363249237,base_link,0,1,40.5907046,-79.9000296,370.891991688,0.448900022364,0.0,0.0,0.0,0.448900022364,0.0,0.0,0.0,1.79560008945,1,110.13211746900215,55.59368175351946,370.8907993895408,-16.32010186558148,-0.0002440892069995488,0.47515719328717565,0,Fixed-Wing
1970-01-01 00:01:03.612439887,1072,1532987360787679386,base_link,0,1,40.5907059,-79.9001072,370.691911986,0.448900022364,0.0,0.0,0.0,0.448900022364,0.0,0.0,0.0,1.79560008945,1,103.56262008798066,55.73795406683695,370.69082831637905,-16.42596095728296,0.36072948177375586,-0.4999951822539751,0,Fixed-Wing
1970-01-01 00:01:03.984664785,1074,1532987361162417620,base_link,0,1,40.5907095,-79.9001859,370.221830207,0.448900022364,0.0,0.0,0.0,0.448900022364,0.0,0.0,0.0,1.79560008945,1,96.89999172071907,56.13764925070268,370.2208475710389,-16.658819858834917,0.9993728750024528,-1.1751105032682854,0,Fixed-Wing
1970-01-01 00:01:04.375916441,1076,1532987361553826428,base_link,0,1,40.5907166,-79.9002659,369.571745645,0.448900022364,0.0,0.0,0.0,0.448900022364,0.0,0.0,0.0,1.79560008945,1,90.12730192072738,56.926030994876186,369.57085515693404,-16.934010591409077,1.971220475197917,-1.625200437321219,0,Fixed-Wing
1970-01-01 00:01:04.796946472,1078,1532987361974826123,base_link,0,1,40.5907288,-79.900347,369.051657833,0.448900022364,0.0,0.0,0.0,0.448900022364,0.0,0.0,0.0,1.79560008945,1,83.26148610964023,58.28078634820281,369.05084826552735,-17.166857053420074,3.387345674982682,-1.3001927545385992,0,Fixed-Wing
1970-01-01 00:01:05.183567359,1080,1532987362361258658,base_link,0,1,40.5907473,-79.9004276,368.591567902,0.448900022364,0.0,0.0,0.0,0.448900022364,0.0,0.0,0.0,1.79560008945,1,76.43799662079277,60.335179168029384,368.5908244843729,-17.061026960758344,5.136675500759039,-1.1502147318749572,0,Fixed-Wing
1970-01-01 00:01:05.586261477,1082,1532987362763657513,base_link,0,1,40.5907738,-79.900506,368.191476876,0.448900022364,0.0,0.0,0.0,0.448900022364,0.0,0.0,0.0,1.79560008945,1,69.80075245139533,63.27799973240215,368.1907808498794,-16.595350795851058,7.358044746972757,-1.0002441191898397,0,Fixed-Wing
1970-01-01 00:01:06.004628540,1084,1532987363180143206,base_link,0,1,40.5908081,-79.9005801,367.831386983,0.448900022364,0.0,0.0,0.0,0.448900022364,0.0,0.0,0.0,1.79560008945,1,63.52753780896041,67.08703828935279,367.8307174073242,-15.685154101891042,9.523882116462321,-0.900280144207472,0,Fixed-Wing
1970-01-01 00:01:06.388789722,1086,1532987363566246013,base_link,0,1,40.5908507,-79.9006475,367.661300463,0.448900022364,0.0,0.0,0.0,0.448900022364,0.0,0.0,0.0,1.79560008945,1,57.82153469312074,71.81782333674826,367.66063344812153,-14.266933825665642,11.82855947401767,-0.4252673090933697,0,Fixed-Wing
1970-01-01 00:01:06.780300257,1088,1532987363957839749,base_link,0,1,40.5909018,-79.9007047,367.741220801,0.448900022364,0.0,0.0,0.0,0.448900022364,0.0,0.0,0.0,1.79560008945,1,52.97904731941571,77.4925672573687,367.7405292053728,-12.107852994416811,14.188775286214746,0.1997663615870119,0,Fixed-Wing
1970-01-01 00:01:07.204896870,1090,1532987364380966766,base_link,0,1,40.5909591,-79.9007507,368.011149982,0.448900022364,0.0,0.0,0.0,0.448900022364,0.0,0.0,0.0,1.79560008945,1,49.084734283987196,83.85584826681415,368.0104088197948,-9.737097096679344,15.910350420920434,0.6747901327229062,0,Fixed-Wing
1970-01-01 00:01:07.613359066,1092,1532987364791120445,base_link,0,1,40.5910206,-79.9007841,368.371090267,0.448900022364,0.0,0.0,0.0,0.448900022364,0.0,0.0,0.0,1.79560008945,1,46.25711582189217,90.68555998344576,368.3702765317585,-7.070000605319279,17.076584630504133,0.8997907516607639,0,Fixed-Wing
1970-01-01 00:01:08.038379805,1094,1532987365216177248,base_link,0,1,40.5910853,-79.9008008,368.971046249,0.448900022364,0.0,0.0,0.0,0.448900022364,0.0,0.0,0.0,1.79560008945,1,44.84328868346538,97.87065351309585,368.9701361355548,-3.535045077152389,17.965159120606504,1.499851489441799,0,Fixed-Wing
1970-01-01 00:01:08.432971388,1096,1532987365610384928,base_link,0,1,40.59115,-79.9008029,369.751017122,0.448900022364,0.0,0.0,0.0,0.448900022364,0.0,0.0,0.0,1.79560008945,1,44.66546950138943,105.05575902119793,369.7499936780564,-0.4446079772668067,17.96518907077976,1.9499070937116219,0,Fixed-Wing
1970-01-01 00:01:08.795665530,1098,1532987365973462685,base_link,0,1,40.5912131,-79.900797,370.530996829,0.448900022364,0.0,0.0,0.0,0.448900022364,0.0,0.0,0.0,1.79560008945,1,45.16491374117235,112.06318647647464,370.52985031759727,1.2487791846472212,17.520933964276956,1.9499048360050282,0,Fixed-Wing
1970-01-01 00:01:09.182069457,1100,1532987366359558549,base_link,0,1,40.5912744,-79.9007876,371.140980867,0.448900022364,0.0,0.0,0.0,0.448900022364,0.0,0.0,0.0,1.79560008945,1,45.96065908304955,118.8707199130009,371.139705140975,1.989631955006927,17.02113144406059,1.52484291223755,0,Fixed-Wing
1970-01-01 00:01:09.592861919,1102,1532987366766517486,base_link,0,1,40.5913348,-79.9007774,371.510966113,0.448900022364,0.0,0.0,0.0,0.448900022364,0.0,0.0,0.0,1.79560008945,1,46.82412808665722,125.57830324232606,371.5095552692385,2.1589639691550087,16.771222438342075,0.9247501619305235,0,Fixed-Wing
1970-01-01 00:01:09.969269428,1104,1532987367146903832,base_link,0,1,40.5913951,-79.9007688,371.650949788,0.448900022364,0.0,0.0,0.0,0.448900022364,0.0,0.0,0.0,1.79560008945,1,47.55214192222885,132.27477662674352,371.6493978804316,1.8202803267731902,16.74344382596015,0.3496537312364745,0,Fixed-Wing
1970-01-01 00:01:10.406820114,1106,1532987367584394933,base_link,0,1,40.5914555,-79.900762,371.480931606,0.448900022364,0.0,0.0,0.0,0.448900022364,0.0,0.0,0.0,1.79560008945,1,48.127768629423,138.98234794122362,371.4792324100129,1.439261068229595,16.77119239717388,-0.42547111464717935,0,Fixed-Wing
1970-01-01 00:01:10.801185905,1108,1532987367978257494,base_link,0,1,40.5915165,-79.9007583,371.280910037,0.448900022364,0.0,0.0,0.0,0.448900022364,0.0,0.0,0.0,1.79560008945,1,48.440955712420894,145.7565481139993,371.27905689999307,0.7830734224067554,16.93778703318864,-0.5005063434059762,0,Fixed-Wing
1970-01-01 00:01:11.204083990,1110,1532987368369219935,base_link,0,1,40.5915785,-79.9007592,371.130883389,0.448900022364,0.0,0.0,0.0,0.448900022364,0.0,0.0,0.0,1.79560008945,1,48.36471826032114,152.64179910715563,371.1288693807933,-0.19061936386350647,17.215451568852664,-0.3755194931310469,0,Fixed-Wing
1970-01-01 00:01:11.596491259,1112,1532987368774000383,base_link,0,1,40.591641,-79.9007652,371.060851362,0.448900022364,0.0,0.0,0.0,0.448900022364,0.0,0.0,0.0,1.79560008945,1,47.85672934919473,159.58257532307746,371.058670887527,-1.2701437472219022,17.35428336805926,-0.17551992835601646,0,Fixed-Wing
1970-01-01 00:01:11.997952357,1114,1532987369175689064,base_link,0,1,40.5917033,-79.9007756,370.940814961,0.448900022364,0.0,0.0,0.0,0.448900022364,0.0,0.0,0.0,1.79560008945,1,46.97624972723909,166.5011373289935,370.93846374090685,-2.2014962568837704,17.29874034473665,-0.30055844194002684,0,Fixed-Wing
1970-01-01 00:01:12.395822682,1116,1532987369573402077,base_link,0,1,40.5917653,-79.9007896,371.160775042,0.448900022364,0.0,0.0,0.0,0.448900022364,0.0,0.0,0.0,1.79560008945,1,45.79100898227658,173.38639089114542,371.1582485332459,-2.963501935167531,17.215457992208737,0.5495361682303497,0,Fixed-Wing
1970-01-01 00:01:12.778695355,1118,1532987369956443422,base_link,0,1,40.5918266,-79.9008039,371.470735129,0.448900022364,0.0,0.0,0.0,0.448900022364,0.0,0.0,0.0,1.79560008945,1,44.580374337995764,180.19391083226714,371.46802803740326,-3.026995255061473,17.021097700993913,0.7745533250922566,0,Fixed-Wing
1970-01-01 00:01:13.234055843,1120,1532987370411635559,base_link,0,1,40.5918873,-79.9008161,371.530697621,0.448900022364,0.0,0.0,0.0,0.448900022364,0.0,0.0,0.0,1.79560008945,1,43.54752001263185,186.93479388864665,371.52780318349346,-2.582484448810374,16.85448299615327,0.1494580420611862,0,Fixed-Wing
1970-01-01 00:01:13.640141311,1122,1532987370817560515,base_link,0,1,40.5919477,-79.9008244,371.460664225,0.448900022364,0.0,0.0,0.0,0.448900022364,0.0,0.0,0.0,1.79560008945,1,42.844828548708,193.6423594633128,371.4575739411161,-1.7569658501993979,16.77117804570154,-0.17559681151296827,0,Fixed-Wing
1970-01-01 00:01:13.996202321,1124,1532987371172539801,base_link,0,1,40.5920083,-79.9008291,371.230634429,0.448900022364,0.0,0.0,0.0,0.448900022364,0.0,0.0,0.0,1.79560008945,1,42.44690153646002,200.37213221992712,371.22733843354337,-0.9949518491195891,16.826703496507836,-0.5756664839071503,0,Fixed-Wing
1970-01-01 00:01:14.380364047,1126,1532987371558156018,base_link,0,1,40.5920691,-79.9008305,370.730607925,0.448900022364,0.0,0.0,0.0,0.448900022364,0.0,0.0,0.0,1.79560008945,1,42.32834041482745,207.12410787700477,370.7270965080148,-0.2964428238626385,16.882218242156817,-1.2507736682665702,0,Fixed-Wing
1970-01-01 00:01:14.824558841,1128,1532987372002257180,base_link,0,1,40.5921306,-79.9008277,370.330585424,0.448900022364,0.0,0.0,0.0,0.448900022364,0.0,0.0,0.0,1.79560008945,1,42.56533745820745,213.9538246732365,370.3268464447351,0.592572605751778,17.076597331219055,-1.0007602608344968,0,Fixed-Wing
1970-01-01 00:01:15.194081219,1130,1532987372371713638,base_link,0,1,40.5921927,-79.900822,369.820565644,0.448900022364,0.0,0.0,0.0,0.448900022364,0.0,0.0,0.0,1.79560008945,1,43.04783680338896,220.85016978399406,369.8165877992737,1.2064112284696158,17.243190607625905,-1.275818849198191,0,Fixed-Wing
1970-01-01 00:01:15.587700676,1132,1532987372765490279,base_link,0,1,40.5922546,-79.9008141,369.550548202,0.448900022364,0.0,0.0,0.0,0.448900022364,0.0,0.0,0.0,1.79560008945,1,43.71658109497915,227.7243130751371,369.54632350680345,1.6720864606476546,17.187678564463805,-0.6757519576898994,0,Fixed-Wing
1970-01-01 00:01:16.007684726,1134,1532987373185196762,base_link,0,1,40.592316,-79.9008051,369.680532103,0.448900022364,0.0,0.0,0.0,0.448900022364,0.0,0.0,0.0,1.79560008945,1,44.47844919689447,234.54294497811054,369.67605445630863,1.9049274199900128,17.048881356416707,0.32437116387009174,0,Fixed-Wing
1970-01-01 00:01:16.384389738,1136,1532987373561906798,base_link,0,1,40.5923766,-79.9007964,369.850516044,0.448900022364,0.0,0.0,0.0,0.448900022364,0.0,0.0,0.0,1.79560008945,1,45.21491987431011,241.27273667791786,369.8457815975178,1.8414252859527007,16.826750860884523,0.42437514366737916,0,Fixed-Wing
1970-01-01 00:01:16.763676919,1138,1532987373941514041,base_link,0,1,40.592436,-79.900789,370.020499174,0.448900022364,0.0,0.0,0.0,0.448900022364,0.0,0.0,0.0,1.79560008945,1,45.84133701068304,247.8692652070849,370.01550670945005,1.5662542852608325,16.493547951891117,0.42437006978997954,0,Fixed-Wing
1970-01-01 00:01:17.178142329,1140,1532987374355727837,base_link,0,1,40.5924948,-79.9007828,370.260481347,0.448900022364,0.0,0.0,0.0,0.448900022364,0.0,0.0,0.0,1.79560008945,1,46.366166631672556,254.39916487391258,370.2552273666262,1.3122512063866483,16.326953305765464,0.5993825595858483,0,Fixed-Wing
1970-01-01 00:01:17.586626862,1142,1532987374764188850,base_link,0,1,40.5925532,-79.9007769,370.370463395,0.448900022364,0.0,0.0,0.0,0.448900022364,0.0,0.0,0.0,1.79560008945,1,46.865597877687094,260.88463864450375,370.3649431624004,1.2487466958402835,16.215873569409794,0.27432652351619213,0,Fixed-Wing
1970-01-01 00:01:17.994209478,1144,1532987375171981289,base_link,0,1,40.5926113,-79.9007692,370.260447412,0.448900022364,0.0,0.0,0.0,0.448900022364,0.0,0.0,0.0,1.79560008945,1,47.51740763548813,267.3367887141137,370.25465454588414,1.6297444099979312,16.132553068689163,-0.27575876872438554,0,Fixed-Wing
1970-01-01 00:01:18.399403300,1146,1532987375577277479,base_link,0,1,40.5926695,-79.9007586,369.840434353,0.448900022364,0.0,0.0,0.0,0.448900022364,0.0,0.0,0.0,1.79560008945,1,48.41471597722041,273.800032183384,369.83435991038607,2.243573736785176,16.160290312367945,-1.0508784573369074,0,Fixed-Wing
