time,field.header.seq,field.header.stamp,field.header.frame_id,field.status.status,field.status.service,lat,lon,alt,field.position_covariance0,field.position_covariance1,field.position_covariance2,field.position_covariance3,field.position_covariance4,field.position_covariance5,field.position_covariance6,field.position_covariance7,field.position_covariance8,field.position_covariance_type,x,y,z,vel_x,vel_y,vel_z,track_id,uav_category
1970-01-01 00:00:00.000000000,6765,1531930511290389064,base_link,0,1,40.5918832,-79.897359,400.52422669,0.348099969053,0.0,0.0,0.0,0.348099969053,0.0,0.0,0.0,1.39239987621,1,333.3212269641331,192.91762062045427,400.51260534504706,-19.95662276688638,-0.6670374434908839,4.150582203673703,0,Fixed-Wing
1970-01-01 00:00:00.371351424,6767,1531930511663062440,base_link,0,1,40.5918808,-79.8974533,402.184131207,0.348099969053,0.0,0.0,0.0,0.348099969053,0.0,0.0,0.0,1.39239987621,1,325.33813881167765,192.65079096823416,402.172929539325,-19.95662276688638,-0.6670374434908839,4.150582203673703,0,Fixed-Wing
1970-01-01 00:00:00.777081792,6769,1531930512067860872,base_link,0,1,40.5918794,-79.8975435,403.854039515,0.348099969053,0.0,0.0,0.0,0.348099969053,0.0,0.0,0.0,1.39239987621,1,317.70213687846706,192.4950378894937,403.8432269233593,-19.088954940504756,-0.38936128198067704,4.175513806826266,0,Fixed-Wing
1970-01-01 00:00:01.187628160,6771,1531930512479040520,base_link,0,1,40.5918802,-79.8976306,405.093950089,0.348099969053,0.0,0.0,0.0,0.348099969053,0.0,0.0,0.0,1.39239987621,1,310.32853745927656,192.58360728638206,405.0834973066695,-18.432984733815886,0.2214113145986328,3.10050543047694,0,Fixed-Wing
1970-01-01 00:00:01.572034560,6773,1531930512863818120,base_link,0,1,40.5918845,-79.8977138,405.733863206,0.348099969053,0.0,0.0,0.0,0.348099969053,0.0,0.0,0.0,1.39239987621,1,303.2850548707697,193.06086514937527,405.723734271637,-17.607738045674573,1.1930790381359344,1.6005043846775204,0,Fixed-Wing
1970-01-01 00:00:02.046006496,6775,1531930513337662280,base_link,0,1,40.5918919,-79.8977937,405.473778418,0.348099969053,0.0,0.0,0.0,0.348099969053,0.0,0.0,0.0,1.39239987621,1,296.5208856570768,193.88237812113115,405.46394208754333,-16.909493012116645,2.0536694775684325,-0.6494447407734305,0,Fixed-Wing
1970-01-01 00:00:02.370831584,6777,1531930513662154280,base_link,0,1,40.5919022,-79.8978706,404.273695501,0.348099969053,0.0,0.0,0.0,0.348099969053,0.0,0.0,0.0,1.39239987621,1,290.0106353315871,195.02593221765653,404.2641231154889,-16.27473070353561,2.8587280112728246,-2.999382464100479,0,Fixed-Wing
1970-01-01 00:00:02.887558688,6779,1531930514178982248,base_link,0,1,40.5919178,-79.8979448,402.41361315,0.348099969053,0.0,0.0,0.0,0.348099969053,0.0,0.0,0.0,1.39239987621,1,283.72891246116063,196.7580610925648,402.40426955123905,-15.703443486674356,4.330084032648843,-4.649378194823972,0,Fixed-Wing
1970-01-01 00:00:03.236869056,6781,1531930514528609896,base_link,0,1,40.5919384,-79.898016,400.033531796,0.348099969053,0.0,0.0,0.0,0.348099969053,0.0,0.0,0.0,1.39239987621,1,277.7011246181622,199.04545254137955,400.0243819518507,-15.068640832250244,5.7181641230101325,-5.949391781922809,0,Fixed-Wing
1970-01-01 00:00:03.616451392,6783,1531930514908259528,base_link,0,1,40.5919658,-79.8980843,397.403450591,0.348099969053,0.0,0.0,0.0,0.348099969053,0.0,0.0,0.0,1.39239987621,1,271.9188125895092,202.08800836468026,397.3944536059039,-14.454985047455022,7.605971229834151,-6.574459269607265,0,Fixed-Wing
1970-01-01 00:00:04.014226464,6785,1531930515304281800,base_link,0,1,40.591998,-79.8981497,394.613370369,0.348099969053,0.0,0.0,0.0,0.348099969053,0.0,0.0,0.0,1.39239987621,1,266.38198989545185,205.6636237837708,394.60449211596915,-13.841295463892788,8.938546927645293,-6.9745201262299075,0,Fixed-Wing
1970-01-01 00:00:04.423880928,6787,1531930515715193928,base_link,0,1,40.5920354,-79.8982127,391.923290455,0.36000002861,0.0,0.0,0.0,0.36000002861,0.0,0.0,0.0,1.44000011444,1,261.0483380386166,209.81672552890345,391.91449680561936,-13.333396305291396,10.382183342747798,-6.724618421861264,0,Fixed-Wing
1970-01-01 00:00:04.794666912,6789,1531930516086495144,base_link,0,1,40.5920775,-79.898274,389.223210345,0.348099969053,0.0,0.0,0.0,0.348099969053,0.0,0.0,0.0,1.39239987621,1,255.85859506795927,214.49178048174534,389.21447080120043,-12.973643876230074,11.686994597401869,-6.749693777889542,0,Fixed-Wing
1970-01-01 00:00:05.168230880,6791,1531930516459672840,base_link,0,1,40.5921235,-79.8983349,386.723129046,0.435600034618,0.0,0.0,0.0,0.435600034618,0.0,0.0,0.0,1.74240013847,1,250.70271900755583,219.5999489908637,386.7144196925942,-12.888981257039472,12.769718938254325,-6.2497840333937,0,Fixed-Wing
1970-01-01 00:00:05.652380224,6793,1531930516944148488,base_link,0,1,40.5921715,-79.8983959,384.20304684,0.448900022364,0.0,0.0,0.0,0.448900022364,0.0,0.0,0.0,1.79560008945,1,245.53838029087456,224.93022158431955,384.1943518921312,-12.9101367341828,13.324948611465983,-6.299823010891998,0,Fixed-Wing
1970-01-01 00:00:05.993618208,6795,1531930517285269608,base_link,0,1,40.5922208,-79.8984579,381.762963098,0.422499969006,0.0,0.0,0.0,0.422499969006,0.0,0.0,0.0,1.68999987602,1,240.2893947533047,230.40486224975854,381.75427187459974,-13.121742148106518,13.685848941905652,-6.099864551278287,0,Fixed-Wing
1970-01-01 00:00:06.410023360,6797,1531930517701285640,base_link,0,1,40.5922713,-79.8985215,379.372877252,0.422499969006,0.0,0.0,0.0,0.422499969006,0.0,0.0,0.0,1.68999987602,1,234.9049681094271,236.0127632307849,379.3641807701128,-13.460326291747927,14.018981408588466,-5.974899141764557,0,Fixed-Wing
1970-01-01 00:00:06.812326720,6799,1531930518103570248,base_link,0,1,40.5923214,-79.8985869,377.072789762,0.435600034618,0.0,0.0,0.0,0.435600034618,0.0,0.0,0.0,1.74240013847,1,229.36817659222996,241.5762416179184,377.06408570009125,-13.841217526028931,13.907931031627012,-5.749921429375237,0,Fixed-Wing
1970-01-01 00:00:07.198734336,6801,1531930518490070920,base_link,0,1,40.5923727,-79.898656,374.832698027,0.422499969006,0.0,0.0,0.0,0.422499969006,0.0,0.0,0.0,1.68999987602,1,223.51816692471013,247.27297616894802,374.82398251106,-14.624219836708551,14.241053119652436,-5.599949975329435,0,Fixed-Wing
1970-01-01 00:00:07.628648256,6803,1531930518919912936,base_link,0,1,40.592423,-79.8987266,372.322605204,0.422499969006,0.0,0.0,0.0,0.422499969006,0.0,0.0,0.0,1.68999987602,1,217.54117995982736,252.858644371853,372.3138765169963,-14.941645621697731,13.963402520123816,-6.274919864566788,0,Fixed-Wing
1970-01-01 00:00:08.043042496,6805,1531930519334378888,base_link,0,1,40.5924749,-79.8987989,369.672510016,0.435600034618,0.0,0.0,0.0,0.435600034618,0.0,0.0,0.0,1.74240013847,1,211.4202815058976,258.62198722608133,369.663755206697,-15.30140455757372,14.40756471951128,-6.6249389041085545,0,Fixed-Wing
1970-01-01 00:00:08.389472256,6807,1531930519679600104,base_link,0,1,40.5925283,-79.8988707,367.57241475,0.5625,0.0,0.0,0.0,0.5625,0.0,0.0,0.0,2.25,1,205.34173871444145,264.55193305828607,367.5636144485457,-15.195521224973023,14.824049257802663,-5.250063141905369,0,Fixed-Wing
1970-01-01 00:00:08.785644160,6809,1531930520077233512,base_link,0,1,40.5925838,-79.8989422,365.852318958,0.50409996953,0.0,0.0,0.0,0.50409996953,0.0,0.0,0.0,2.01639987812,1,199.2886120012823,270.715106916051,365.8434511419106,-15.131984523749056,15.40708725461336,-4.300171757141181,0,Fixed-Wing
1970-01-01 00:00:09.185415456,6811,1531930520477149064,base_link,0,1,40.5926447,-79.89901,365.042224748,0.462400009727,0.0,0.0,0.0,0.462400009727,0.0,0.0,0.0,1.84960003891,1,193.5487372925292,277.47801317206097,365.03324210092904,-14.348897582515692,16.906335791556355,-2.025411204837567,0,Fixed-Wing
1970-01-01 00:00:09.570038464,6813,1531930520861022024,base_link,0,1,40.5927119,-79.8990709,365.382135018,0.448900022364,0.0,0.0,0.0,0.448900022364,0.0,0.0,0.0,1.79560008945,1,188.39301565702655,284.94061855887077,365.3729767001395,-12.888595216019764,18.65548741521666,0.8492897870877867,0,Fixed-Wing
1970-01-01 00:00:09.990637664,6815,1531930521281062120,base_link,0,1,40.5927828,-79.8991205,366.202055324,0.448900022364,0.0,0.0,0.0,0.448900022364,0.0,0.0,0.0,1.79560008945,1,184.19391710698036,292.8141680456423,366.19266200889564,-10.497169030818775,19.682791163414855,2.0491005713589843,0,Fixed-Wing
1970-01-01 00:00:10.397781088,6817,1531930521687597768,base_link,0,1,40.5928591,-79.8991603,366.811983438,0.435600034618,0.0,0.0,0.0,0.435600034618,0.0,0.0,0.0,1.74240013847,1,180.8244311493546,301.2874153965423,366.80229082278316,-8.423251615225553,21.181953369814686,1.523988215366968,0,Fixed-Wing
1970-01-01 00:00:10.768331744,6819,1531930522059970696,base_link,0,1,40.5929396,-79.8991847,367.511925561,0.422499969006,0.0,0.0,0.0,0.422499969006,0.0,0.0,0.0,1.68999987602,1,178.75863892605437,310.2271218797957,367.5018615090081,-5.164196527441579,22.348037066094765,1.7488305298832187,0,Fixed-Wing
1970-01-01 00:00:11.180266688,6821,1531930522471176136,base_link,0,1,40.5930231,-79.8991954,368.141880452,0.435600034618,0.0,0.0,0.0,0.435600034618,0.0,0.0,0.0,1.74240013847,1,177.85262094530802,319.50001251942786,368.13138282338167,-2.2649203812449206,23.18095164673988,1.5737167315136724,0,Fixed-Wing
1970-01-01 00:00:11.602778560,6823,1531930522894375272,base_link,0,1,40.5931077,-79.899188,368.841853368,0.422499969006,0.0,0.0,0.0,0.422499969006,0.0,0.0,0.0,1.68999987602,1,178.47886583810885,328.8951031206319,368.83085957756117,1.5655261280650237,23.48643474909895,1.7485957126845522,0,Fixed-Wing
1970-01-01 00:00:11.999444480,6825,1531930523290922760,base_link,0,1,40.5931923,-79.8991624,369.571844859,0.422499969006,0.0,0.0,0.0,0.422499969006,0.0,0.0,0.0,1.68999987602,1,180.64583566125214,338.29023475262784,369.5602975827332,5.417126615894352,23.486537320437186,1.8234947207204308,0,Fixed-Wing
1970-01-01 00:00:12.402111392,6827,1531930523693919176,base_link,0,1,40.5932755,-79.899121,370.071853048,0.462400009727,0.0,0.0,0.0,0.462400009727,0.0,0.0,0.0,1.84960003891,1,184.15034912570803,347.5299161417874,370.0597077503107,8.760801817039805,23.097933086579133,1.24845675382224,0,Fixed-Wing
1970-01-01 00:00:12.803344224,6829,1531930524094100616,base_link,0,1,40.5933535,-79.8990627,370.651880602,0.435600034618,0.0,0.0,0.0,0.435600034618,0.0,0.0,0.0,1.74240013847,1,189.0855418485806,356.19216826946473,370.6391121030054,12.337303255502341,21.65443932503046,1.4484312180198176,0,Fixed-Wing
1970-01-01 00:00:13.177973472,6831,1531930524469663400,base_link,0,1,40.5934229,-79.8989867,371.451929719,0.372100017452,0.0,0.0,0.0,0.372100017452,0.0,0.0,0.0,1.48840006981,1,195.5191487390304,363.899425278723,371.4385314119727,16.0831326538286,19.267082833589864,1.9984383583085121,0,Fixed-Wing
1970-01-01 00:00:13.604360576,6833,1531930524895927400,base_link,0,1,40.5934823,-79.8988943,372.32199964,0.372100017452,0.0,0.0,0.0,0.372100017452,0.0,0.0,0.0,1.48840006981,1,203.34111691740134,370.4962061317442,372.3079764215971,19.553844984453164,16.49104512507109,2.173492981947063,0,Fixed-Wing
1970-01-01 00:00:13.981120480,6835,1531930525272788776,base_link,0,1,40.593523,-79.8987856,373.842093807,0.372100017452,0.0,0.0,0.0,0.372100017452,0.0,0.0,0.0,1.48840006981,1,212.54302837999336,375.01639147844446,373.82750622343514,23.003513463239578,11.299841875447498,3.798615580738106,0,Fixed-Wing
1970-01-01 00:00:14.417779712,6837,1531930525709454760,base_link,0,1,40.5935496,-79.8986711,375.362199646,0.384400005913,0.0,0.0,0.0,0.384400005913,0.0,0.0,0.0,1.53760002365,1,222.2359779164193,377.97076317791704,375.3471073728573,24.2310411338025,7.385523044913965,3.798793939888701,0,Fixed-Wing
1970-01-01 00:00:14.761025344,6839,1531930526052851144,base_link,0,1,40.593564,-79.8985542,376.492312921,0.608399955368,0.0,0.0,0.0,0.608399955368,0.0,0.0,0.0,2.43359982147,1,232.1321240690385,379.57028978270125,376.4767734612427,24.739004736287495,3.9985965891481383,2.8240099004190276,0,Fixed-Wing
1970-01-01 00:00:15.192198720,6841,1531930526483960808,base_link,0,1,40.5935664,-79.8984354,377.262433044,0.608399955368,0.0,0.0,0.0,0.608399955368,0.0,0.0,0.0,2.43359982147,1,242.189143375857,379.8371820181414,377.2465042570773,25.14116550294356,0.6671938929362357,1.9242211574227464,0,Fixed-Wing
1970-01-01 00:00:15.588316512,6843,1531930526879817480,base_link,0,1,40.5935573,-79.8983168,377.462557676,0.518400041199,0.0,0.0,0.0,0.518400041199,0.0,0.0,0.0,2.07360016479,1,252.22925411543392,378.826947811143,377.44630054840894,25.0988964096398,-2.5254466179320256,0.49946325784998213,0,Fixed-Wing
1970-01-01 00:00:15.979105280,6845,1531930527270675944,base_link,0,1,40.5935382,-79.8982028,377.142681723,0.518400041199,0.0,0.0,0.0,0.518400041199,0.0,0.0,0.0,2.07360016479,1,261.879973328744,376.70615607808236,377.12616213526377,24.125471132362858,-5.301687739825879,-0.8003020162520392,0,Fixed-Wing
1970-01-01 00:00:16.386449056,6847,1531930527678218216,base_link,0,1,40.5935063,-79.8980925,376.512807251,0.518400041199,0.0,0.0,0.0,0.518400041199,0.0,0.0,0.0,2.07360016479,1,271.21751237178216,373.16387373903814,376.49610674240427,23.342563766588317,-8.85521881057597,-1.5750518542967729,0,Fixed-Wing
1970-01-01 00:00:16.776873856,6849,1531930528068575560,base_link,0,1,40.5934626,-79.8979875,375.942932227,0.462400009727,0.0,0.0,0.0,0.462400009727,0.0,0.0,0.0,1.84960003891,1,280.1064389443858,368.311169517391,375.9261308544277,22.221094271324134,-12.13109334398387,-1.4248613525670293,0,Fixed-Wing
1970-01-01 00:00:17.202599872,6851,1531930528493271816,base_link,0,1,40.5934117,-79.8978876,375.473054981,0.372100017452,0.0,0.0,0.0,0.372100017452,0.0,0.0,0.0,1.48840006981,1,288.5636702692354,362.6588869928884,375.45620181365007,21.14191550677113,-14.129929165152406,-1.1747579902546081,0,Fixed-Wing
1970-01-01 00:00:17.605511840,6853,1531930528896882248,base_link,0,1,40.5933587,-79.8977913,375.333174962,0.372100017452,0.0,0.0,0.0,0.372100017452,0.0,0.0,0.0,1.48840006981,1,296.71617939937033,356.7734108545394,375.3162810247319,20.38015191698193,-14.712881137409992,-0.34978273424505474,0,Fixed-Wing
1970-01-01 00:00:17.953662336,6855,1531930529245407592,base_link,0,1,40.593308,-79.8976967,375.213292306,0.36000002861,0.0,0.0,0.0,0.36000002861,0.0,0.0,0.0,1.44000011444,1,304.72477774891274,351.14336014930984,375.1963345261859,20.020394752144657,-14.07435267367686,-0.29984975462842367,0,Fixed-Wing
1970-01-01 00:00:18.346958656,6857,1531930529638683080,base_link,0,1,40.5932603,-79.8976027,375.143407847,0.348099969053,0.0,0.0,0.0,0.348099969053,0.0,0.0,0.0,1.39239987621,1,312.68258322416773,345.84647669987163,375.12635558635947,19.893419550062212,-13.241480342176711,-0.1749377279910996,0,Fixed-Wing
1970-01-01 00:00:18.799834336,6859,1531930530091465000,base_link,0,1,40.5932182,-79.8975085,374.70352133,0.348099969053,0.0,0.0,0.0,0.348099969053,0.0,0.0,0.0,1.39239987621,1,320.6572855672951,341.1714773522037,374.68632610132164,19.93565939655163,-11.686855592112307,-1.100013211867912,0,Fixed-Wing
1970-01-01 00:00:19.206357728,6861,1531930530497997736,base_link,0,1,40.5931828,-79.8974119,374.133634546,0.348099969053,0.0,0.0,0.0,0.348099969053,0.0,0.0,0.0,1.39239987621,1,328.8351300950294,337.2405416008445,374.116233113638,20.44348692755472,-9.82679890445822,-1.425154085734448,0,Fixed-Wing
1970-01-01 00:00:19.592942016,6863,1531930530884612616,base_link,0,1,40.5931551,-79.8973141,373.303745854,0.348099969053,0.0,0.0,0.0,0.348099969053,0.0,0.0,0.0,1.39239987621,1,337.114515822326,334.16471129134743,373.28607510755285,20.69732596531337,-7.689152870334793,-2.0752808747647076,0,Fixed-Wing
1970-01-01 00:00:19.978283392,6865,1531930531270027560,base_link,0,1,40.5931341,-79.8972138,372.753856988,0.348099969053,0.0,0.0,0.0,0.348099969053,0.0,0.0,0.0,1.39239987621,1,345.6055253071484,331.8329675089027,372.73585449988855,21.226356262461636,-5.829038858974588,-1.3754758679880121,0,Fixed-Wing
1970-01-01 00:00:20.389022624,6867,1531930531680737640,base_link,0,1,40.5931198,-79.8971118,372.603967127,0.348099969053,0.0,0.0,0.0,0.348099969053,0.0,0.0,0.0,1.39239987621,1,354.24043961918704,330.24531347439813,372.5855742026747,21.586098544676624,-3.968916795837646,-0.37568008063016467,0,Fixed-Wing
1970-01-01 00:00:20.800060256,6869,1531930532091894472,base_link,0,1,40.593112,-79.8970091,372.724075329,0.348099969053,0.0,0.0,0.0,0.348099969053,0.0,0.0,0.0,1.39239987621,1,362.9345961761674,329.3795279678282,372.70523920680915,21.734196011670296,-2.164344727464792,0.2991460573029656,0,Fixed-Wing
1970-01-01 00:00:21.190473280,6871,1531930532482236840,base_link,0,1,40.5931096,-79.8969076,372.764180101,0.348099969053,0.0,0.0,0.0,0.348099969053,0.0,0.0,0.0,1.39239987621,1,371.5271340541226,329.1134271853212,372.744863750603,21.480163285907228,-0.665215369422207,0.09905591140942378,0,Fixed-Wing
1970-01-01 00:00:21.578256288,6873,1531930532869565832,base_link,0,1,40.5931065,-79.8968062,372.534285078,0.348099969053,0.0,0.0,0.0,0.348099969053,0.0,0.0,0.0,1.39239987621,1,380.11119501107595,328.76958512946493,372.5144814504414,21.458972148915187,-0.8595578639581601,-0.5759240745798473,0,Fixed-Wing
1970-01-01 00:00:22.020245152,6875,1531930533311829768,base_link,0,1,40.5931029,-79.8967052,372.134389869,0.348099969053,0.0,0.0,0.0,0.348099969053,0.0,0.0,0.0,1.39239987621,1,388.6613865340611,328.37021617100197,372.11409233597425,21.374303220785684,-0.9983674859456676,-1.000917735692401,0,Fixed-Wing
1970-01-01 00:00:22.425664288,6877,1531930533717359720,base_link,0,1,40.5930982,-79.8966045,371.544494824,0.348099969053,0.0,0.0,0.0,0.348099969053,0.0,0.0,0.0,1.39239987621,1,397.18617597796066,327.8486881325458,371.52369978910025,21.310801515665585,-1.3037483899789357,-1.4759001926744026,0,Fixed-Wing
1970-01-01 00:00:22.778300672,6879,1531930534063913928,base_link,0,1,40.5930899,-79.8965036,370.804601487,0.348099969053,0.0,0.0,0.0,0.348099969053,0.0,0.0,0.0,1.39239987621,1,405.7279083501093,326.9273740633474,370.78331700886184,21.353156506763774,-2.303158499278652,-1.8508551535625686,0,Fixed-Wing
1970-01-01 00:00:23.189648512,6881,1531930534481355752,base_link,0,1,40.5930749,-79.8964025,370.124711137,0.348099969053,0.0,0.0,0.0,0.348099969053,0.0,0.0,0.0,1.39239987621,1,414.286617178778,325.2620221924752,370.1029626367979,21.395595313929412,-4.163150703891787,-1.7007923865786372,0,Fixed-Wing
1970-01-01 00:00:23.566997312,6883,1531930534858496136,base_link,0,1,40.59305,-79.8963021,369.654824178,0.348099969053,0.0,0.0,0.0,0.348099969053,0.0,0.0,0.0,1.39239987621,1,422.78614547332927,322.4972680596379,369.6326594861947,21.247652115511855,-6.911505199307173,-1.1756932133811941,0,Fixed-Wing
1970-01-01 00:00:24.004443360,6885,1531930535296034280,base_link,0,1,40.5930152,-79.8962038,369.434939183,0.348099969053,0.0,0.0,0.0,0.348099969053,0.0,0.0,0.0,1.39239987621,1,431.10798282419523,318.6331065945985,369.4124129358198,20.803449187459595,-9.659872369618283,-0.5505860937020849,0,Fixed-Wing
1970-01-01 00:00:24.419431264,6887,1531930535711115944,base_link,0,1,40.5929732,-79.8961082,368.895054429,0.348099969053,0.0,0.0,0.0,0.348099969053,0.0,0.0,0.0,1.39239987621,1,439.2012834560942,313.96934750161597,368.8722086604299,20.232138812112723,-11.65875650084871,-1.350436414471946,0,Fixed-Wing
1970-01-01 00:00:24.782413024,6889,1531930536074061128,base_link,0,1,40.5929237,-79.8960165,367.865168816,0.348099969053,0.0,0.0,0.0,0.348099969053,0.0,0.0,0.0,1.39239987621,1,446.96445180906613,308.47266088838285,367.84205339517086,19.406853505487064,-13.740960780239895,-2.575246524588784,0,Fixed-Wing
1970-01-01 00:00:25.205218752,6891,1531930536496981256,base_link,0,1,40.5928623,-79.8959324,366.78528038,0.348099969053,0.0,0.0,0.0,0.348099969053,0.0,0.0,0.0,1.39239987621,1,454.08432338996096,301.6544184546271,366.7619896782592,17.798700023735755,-17.044668627614872,-2.700010791685554,0,Fixed-Wing
1970-01-01 00:00:25.560802144,6893,1531930536852433064,base_link,0,1,40.5927881,-79.8958585,365.80538684,0.348099969053,0.0,0.0,0.0,0.348099969053,0.0,0.0,0.0,1.39239987621,1,460.3408125277716,293.41466537094936,365.7820336054447,15.6403626245823,-20.598249805455016,-2.4497554454867543,0,Fixed-Wing
1970-01-01 00:00:25.986167136,6895,1531930537275432680,base_link,0,1,40.5927024,-79.8957988,365.145483568,0.348099969053,0.0,0.0,0.0,0.348099969053,0.0,0.0,0.0,1.39239987621,1,465.3953044184185,283.89775659168146,365.1221958061379,12.635534772204746,-23.790963445180285,-1.6495037755594506,0,Fixed-Wing
1970-01-01 00:00:26.405284416,6897,1531930537696765000,base_link,0,1,40.5926087,-79.8957543,364.805568092,0.348099969053,0.0,0.0,0.0,0.348099969053,0.0,0.0,0.0,1.39239987621,1,469.16311779930237,273.49236679039586,364.78246045659563,9.419015406362313,-26.01204384080274,-0.8492916628141757,0,Fixed-Wing
1970-01-01 00:00:26.751159136,6899,1531930538042878728,base_link,0,1,40.5925088,-79.8957296,365.025634952,0.36000002861,0.0,0.0,0.0,0.36000002861,0.0,0.0,0.0,1.44000011444,1,471.25483663999603,262.39837223471545,365.00284051881914,5.229009506211305,-27.733461048843342,0.5509198549667572,0,Fixed-Wing
1970-01-01 00:00:27.175394176,6901,1531930538467160872,base_link,0,1,40.5924063,-79.8957267,365.765680598,0.348099969053,0.0,0.0,0.0,0.348099969053,0.0,0.0,0.0,1.39239987621,1,471.5011137869417,251.01554498015076,365.7433272304849,0.6156590061188094,-28.455503083742116,1.8511149678411862,0,Fixed-Wing
1970-01-01 00:00:27.647984576,6903,1531930538939554856,base_link,0,1,40.5923035,-79.8957415,366.70570827,0.348099969053,0.0,0.0,0.0,0.348099969053,0.0,0.0,0.0,1.39239987621,1,470.24899154961093,239.59931241582112,366.68388734091775,-3.1301334359879016,-28.539011765177033,2.351270956179513,0,Fixed-Wing
1970-01-01 00:00:28.000481920,6905,1531930539292240904,base_link,0,1,40.5922041,-79.8957742,368.205716215,0.372100017452,0.0,0.0,0.0,0.372100017452,0.0,0.0,0.0,1.48840006981,1,467.4815315314962,228.56058016056622,368.1845045296956,-6.918269540462071,-27.59531289592797,3.7513366484288957,0,Fixed-Wing
1970-01-01 00:00:28.387324704,6907,1531930539679060104,base_link,0,1,40.5921105,-79.8958177,370.135710703,0.372100017452,0.0,0.0,0.0,0.372100017452,0.0,0.0,0.0,1.48840006981,1,463.79976164452427,218.16590613204193,370.11513231685734,-9.203918501912268,-25.985255882237208,4.8263040211832555,0,Fixed-Wing
1970-01-01 00:00:28.806647680,6909,1531930540096242344,base_link,0,1,40.5920229,-79.8958641,372.455699744,0.372100017452,0.0,0.0,0.0,0.372100017452,0.0,0.0,0.0,1.48840006981,1,459.8724616187276,208.4375405569616,372.4357314419399,-9.817710090436734,-24.31957636100094,5.801178747875212,0,Fixed-Wing
1970-01-01 00:00:29.200358528,6911,1531930540484707688,base_link,0,1,40.5919403,-79.8959072,374.875690109,0.372100017452,0.0,0.0,0.0,0.372100017452,0.0,0.0,0.0,1.48840006981,1,456.22448942518923,199.26445317368496,374.8562772937662,-9.119428915255538,-22.93145722804409,6.051031822815542,0,Fixed-Wing
1970-01-01 00:00:29.557914464,6913,1531930540849463080,base_link,0,1,40.5918609,-79.8959463,377.085683265,0.372100017452,0.0,0.0,0.0,0.372100017452,0.0,0.0,0.0,1.48840006981,1,452.9150971416064,190.446743369399,377.06677600112835,-8.273025692544005,-22.04306214229706,5.525942841549087,0,Fixed-Wing
1970-01-01 00:00:30.021457632,6915,1531930541312609576,base_link,0,1,40.5917832,-79.8959815,378.475679735,0.372100017452,0.0,0.0,0.0,0.372100017452,0.0,0.0,0.0,1.48840006981,1,449.93578849420726,181.8178150171432,378.45723545232397,-7.447861986088607,-21.57113446824374,3.475957450329294,0,Fixed-Wing
1970-01-01 00:00:30.421826272,6917,1531930541712608616,base_link,0,1,40.5917067,-79.8960123,379.095680241,0.372100017452,0.0,0.0,0.0,0.372100017452,0.0,0.0,0.0,1.48840006981,1,447.32890167530707,173.32214875153954,379.0776561454061,-6.516858620026382,-21.23799757414257,1.55096642955165,0,Fixed-Wing
1970-01-01 00:00:30.826329184,6919,1531930542118080584,base_link,0,1,40.591631,-79.8960388,378.875684847,0.372100017452,0.0,0.0,0.0,0.372100017452,0.0,0.0,0.0,1.48840006981,1,445.0859711878197,164.9153239278471,378.8580408781112,-5.607017832737555,-21.01590618439094,-0.5490079727987419,0,Fixed-Wing
1970-01-01 00:00:31.227853344,6921,1531930542519621192,base_link,0,1,40.591556,-79.896062,377.845692569,0.372100017452,0.0,0.0,0.0,0.372100017452,0.0,0.0,0.0,1.48840006981,1,443.1223445117095,156.5862339798695,377.82839554723495,-4.908796706456668,-20.821579683061486,-2.5739717587438573,0,Fixed-Wing
1970-01-01 00:00:31.589866912,6923,1531930542881234440,base_link,0,1,40.59148,-79.8960789,376.535707199,0.372100017452,0.0,0.0,0.0,0.372100017452,0.0,0.0,0.0,1.48840006981,1,441.69204356617905,148.14611981857098,376.518711345817,-3.5755557082622,-21.09912495137395,-3.2740304318711257,0,Fixed-Wing
1970-01-01 00:00:32.002788608,6925,1531930543293816360,base_link,0,1,40.5914031,-79.8960906,374.875727571,0.372100017452,0.0,0.0,0.0,0.372100017452,0.0,0.0,0.0,1.48840006981,1,440.70194114021535,139.60608053845823,374.8589932072522,-2.475119933312914,-21.348924009461356,-4.149067147718908,0,Fixed-Wing
1970-01-01 00:00:32.380455936,6927,1531930543672148744,base_link,0,1,40.5913245,-79.896098,373.155753098,0.372100017452,0.0,0.0,0.0,0.372100017452,0.0,0.0,0.0,1.48840006981,1,440.0758718638438,130.87727690346767,373.13924742484164,-1.5650871111377331,-21.820808942984524,-4.299128003986135,0,Fixed-Wing
1970-01-01 00:00:32.800510496,6929,1531930544092136936,base_link,0,1,40.5912449,-79.8961052,371.615779283,0.372100017452,0.0,0.0,0.0,0.372100017452,0.0,0.0,0.0,1.48840006981,1,439.46675193394134,122.03743011237572,371.5994912296048,-1.522716075372046,-22.098401565643783,-3.8491787832590756,0,Fixed-Wing
1970-01-01 00:00:33.199938432,6931,1531930544491537320,base_link,0,1,40.5911652,-79.8961174,370.035800409,0.372100017452,0.0,0.0,0.0,0.372100017452,0.0,0.0,0.0,1.48840006981,1,438.4343396997106,113.18645690508015,370.0197469000218,-2.580888636701779,-22.12621607635472,-3.9491436210582904,0,Fixed-Wing
1970-01-01 00:00:33.595221472,6933,1531930544886967560,base_link,0,1,40.5910856,-79.8961393,368.585811568,0.372100017452,0.0,0.0,0.0,0.372100017452,0.0,0.0,0.0,1.48840006981,1,436.580752216872,104.34654760186692,368.57003612497476,-4.6337138528346795,-22.09855783735203,-3.6240776133488604,0,Fixed-Wing
1970-01-01 00:00:34.033109888,6935,1531930545324885896,base_link,0,1,40.5910077,-79.8961746,367.195808285,0.372100017452,0.0,0.0,0.0,0.372100017452,0.0,0.0,0.0,1.48840006981,1,433.59273742411733,95.69536685643357,367.1803723587055,-7.469626152448252,-21.626762391651837,-3.4739683474140914,0,Fixed-Wing
1970-01-01 00:00:34.412296032,6937,1531930545704087656,base_link,0,1,40.5909343,-79.8962274,366.095785162,0.372100017452,0.0,0.0,0.0,0.372100017452,0.0,0.0,0.0,1.48840006981,1,429.1231917977838,87.54384554199265,366.080768440723,-11.173249537109243,-20.377682513564036,-2.74885860773284,0,Fixed-Wing
1970-01-01 00:00:34.838134208,6939,1531930546129411816,base_link,0,1,40.5908678,-79.8962983,365.505740564,0.372100017452,0.0,0.0,0.0,0.372100017452,0.0,0.0,0.0,1.48840006981,1,423.1213161058109,80.15851053732126,365.4912215601764,-15.003864017411395,-18.46232208396386,-1.4737861431285024,0,Fixed-Wing
1970-01-01 00:00:35.188747072,6941,1531930546480578568,base_link,0,1,40.5908118,-79.8963856,365.345674707,0.348099969053,0.0,0.0,0.0,0.348099969053,0.0,0.0,0.0,1.39239987621,1,415.73099807136464,73.93915921072573,365.33171628284833,-18.474778973272066,-15.547523202712673,-0.39874126255079484,0,Fixed-Wing
1970-01-01 00:00:35.616915808,6943,1531930546908723688,base_link,0,1,40.5907682,-79.8964863,365.395589861,0.396899993992,0.0,0.0,0.0,0.396899993992,0.0,0.0,0.0,1.58759997597,1,407.2061855141609,69.09680532068151,365.3822350108217,-21.3108592957481,-12.105218938068962,0.12628987399038852,0,Fixed-Wing
1970-01-01 00:00:36.065593312,6945,1531930547356764744,base_link,0,1,40.5907401,-79.8965953,365.715489945,0.348099969053,0.0,0.0,0.0,0.348099969053,0.0,0.0,0.0,1.39239987621,1,397.97862273894737,65.97573834442176,365.70274981371415,-23.067638217931833,-7.8022383175419225,0.801242938869444,0,Fixed-Wing
1970-01-01 00:00:36.436027296,6947,1531930547727488264,base_link,0,1,40.5907267,-79.896709,366.445378995,0.348099969053,0.0,0.0,0.0,0.348099969053,0.0,0.0,0.0,1.39239987621,1,388.3530970481961,64.48713609547232,366.4332465941871,-24.06249078988471,-3.721300950821289,1.826141513399131,0,Fixed-Wing
1970-01-01 00:00:36.780972928,6949,1531930548072832168,base_link,0,1,40.5907256,-79.8968233,367.185262236,0.422499969006,0.0,0.0,0.0,0.422499969006,0.0,0.0,0.0,1.68999987602,1,378.6767015170753,64.36448814503754,367.17371205819256,-24.189658396590232,-0.30660301292124476,1.8510618516118298,0,Fixed-Wing
1970-01-01 00:00:37.228411936,6951,1531930548520071176,base_link,0,1,40.5907351,-79.8969355,368.075143162,0.422499969006,0.0,0.0,0.0,0.422499969006,0.0,0.0,0.0,1.68999987602,1,369.178036311358,65.41901879658215,368.06413828217177,-23.745357019657067,2.636181638871387,2.2259431330756927,0,Fixed-Wing
1970-01-01 00:00:37.604531808,6953,1531930548896309128,base_link,0,1,40.5907521,-79.8970427,369.445026063,0.422499969006,0.0,0.0,0.0,0.422499969006,0.0,0.0,0.0,1.68999987602,1,360.1026496127325,67.30648070029332,369.43451957661847,-22.687218949521654,4.71839524753931,3.4257648190517065,0,Fixed-Wing
1970-01-01 00:00:37.989250592,6955,1531930549278686056,base_link,0,1,40.5907719,-79.8971434,371.394914466,0.422499969006,0.0,0.0,0.0,0.422499969006,0.0,0.0,0.0,1.68999987602,1,351.5775599628597,69.5049336746116,371.3848592654733,-21.31155198932251,5.495830165136633,4.875581065178549,0,Fixed-Wing
1970-01-01 00:00:38.429753088,6957,1531930549721510568,base_link,0,1,40.5907903,-79.8972397,373.344807993,0.422499969006,0.0,0.0,0.0,0.422499969006,0.0,0.0,0.0,1.68999987602,1,343.4249739356734,71.54794137339465,373.3351736736469,-20.380344149037594,5.107238348848422,4.87551786695131,0,Fixed-Wing
1970-01-01 00:00:38.837449088,6959,1531930550129188136,base_link,0,1,40.5908069,-79.897332,375.014706401,0.422499969006,0.0,0.0,0.0,0.422499969006,0.0,0.0,0.0,1.68999987602,1,335.6110150087228,73.39107664940346,375.0054664269036,-19.533822957113834,4.607584772859515,4.175502230518973,0,Fixed-Wing
1970-01-01 00:00:39.242019104,6961,1531930550533539528,base_link,0,1,40.5908206,-79.8974217,376.054608717,0.348099969053,0.0,0.0,0.0,0.348099969053,0.0,0.0,0.0,1.39239987621,1,328.01714933806977,74.91217086607952,376.0457454953023,-18.983620077528315,3.8025264027380037,2.6005546404915676,0,Fixed-Wing
1970-01-01 00:00:39.577127104,6963,1531930550868133576,base_link,0,1,40.5908326,-79.8975094,376.424513817,0.422499969006,0.0,0.0,0.0,0.422499969006,0.0,0.0,0.0,1.68999987602,1,320.592575427877,76.24448316886028,376.4160117249933,-18.560413952714473,3.3305975740853353,0.9256146654209674,0,Fixed-Wing
1970-01-01 00:00:39.972905504,6965,1531930551264531976,base_link,0,1,40.5908422,-79.8975957,376.12442138,0.422499969006,0.0,0.0,0.0,0.422499969006,0.0,0.0,0.0,1.68999987602,1,313.28650328030017,77.31027366118033,376.1162689423146,-18.26417583927098,2.6643296926670224,-0.7493157443308625,0,Fixed-Wing
1970-01-01 00:00:40.387312704,6967,1531930551678832648,base_link,0,1,40.59085,-79.897681,375.094330741,0.422499969006,0.0,0.0,0.0,0.422499969006,0.0,0.0,0.0,1.68999987602,1,306.0650654177878,78.17617110032134,375.0865178248956,-18.05260176318389,2.164624543502628,-2.574236210555875,0,Fixed-Wing
1970-01-01 00:00:40.806280576,6969,1531930552097688968,base_link,0,1,40.5908565,-79.8977666,373.694240359,0.422499969006,0.0,0.0,0.0,0.422499969006,0.0,0.0,0.0,1.68999987602,1,298.8182225657777,78.89770135219544,373.68676166198236,-18.116110743934346,1.8037264247318894,-3.4991979513958316,0,Fixed-Wing
1970-01-01 00:00:41.196286816,6971,1531930552488018536,base_link,0,1,40.5908614,-79.897853,372.144149846,0.422499969006,0.0,0.0,0.0,0.422499969006,0.0,0.0,0.0,1.68999987602,1,291.50365781701026,79.44154980032113,372.1370023759084,-18.28540617457903,1.3595463452652266,-3.874185135002415,0,Fixed-Wing
1970-01-01 00:00:41.626165056,6973,1531930552917975912,base_link,0,1,40.5908649,-79.897941,370.6840583,0.422499969006,0.0,0.0,0.0,0.422499969006,0.0,0.0,0.0,1.68999987602,1,284.05365449796926,79.82992766044754,370.67724161266665,-18.62398397848369,0.9708912512972067,-3.649201202038325,0,Fixed-Wing
1970-01-01 00:00:41.995971264,6975,1531930553287550504,base_link,0,1,40.5908671,-79.8980303,369.443965985,0.422499969006,0.0,0.0,0.0,0.422499969006,0.0,0.0,0.0,1.68999987602,1,276.49361461129735,80.07394328569023,369.4374779495437,-18.89906026836503,0.6100055128035357,-3.099238699678947,0,Fixed-Wing
1970-01-01 00:00:42.377725888,6977,1531930553669501960,base_link,0,1,40.5908673,-79.8981212,368.51387289,0.422499969006,0.0,0.0,0.0,0.422499969006,0.0,0.0,0.0,1.68999987602,1,268.79814615150804,80.09586063015482,368.50771305020544,-19.237613080753835,0.05479034769233509,-2.3242844127028968,0,Fixed-Wing
1970-01-01 00:00:42.805680096,6979,1531930554097175816,base_link,0,1,40.5908658,-79.8982131,367.983779503,0.422499969006,0.0,0.0,0.0,0.422499969006,0.0,0.0,0.0,1.68999987602,1,261.0180447797596,79.92899885254363,367.9779444212398,-19.449183724266312,-0.417131501795373,-1.3243487332338106,0,Fixed-Wing
1970-01-01 00:00:43.211414560,6981,1531930554502998504,base_link,0,1,40.5908635,-79.8983051,367.693686365,0.422499969006,0.0,0.0,0.0,0.422499969006,0.0,0.0,0.0,1.68999987602,1,253.22949106812436,79.673306001262,367.6881680081986,-19.47031341185039,-0.6391969723705766,-0.7244011905374742,0,Fixed-Wing
1970-01-01 00:00:43.605175904,6983,1531930554895740072,base_link,0,1,40.5908602,-79.8983965,367.563594275,0.348099969053,0.0,0.0,0.0,0.348099969053,0.0,0.0,0.0,1.39239987621,1,245.49174223162592,79.306572558156,367.5583825687845,-19.34330820929459,-0.9167831846898418,-0.32444575401876075,0,Fixed-Wing
1970-01-01 00:00:44.007087584,6985,1531930555298919880,base_link,0,1,40.5908569,-79.8984869,367.453503221,0.422499969006,0.0,0.0,0.0,0.422499969006,0.0,0.0,0.0,1.68999987602,1,237.83865185965342,78.93985010963823,367.4485856213703,-19.131673687878408,-0.916755699730957,-0.2744772722855859,0,Fixed-Wing
1970-01-01 00:00:44.387179680,6987,1531930555678986056,base_link,0,1,40.5908547,-79.8985764,367.443412637,0.348099969053,0.0,0.0,0.0,0.348099969053,0.0,0.0,0.0,1.39239987621,1,230.26175318053163,78.69529678100679,367.4387756959213,-18.94120493153326,-0.6113496973452462,-0.024523464831840577,0,Fixed-Wing
1970-01-01 00:00:44.810187488,6989,1531930556093372264,base_link,0,1,40.5908533,-79.898665,367.43332265,0.422499969006,0.0,0.0,0.0,0.422499969006,0.0,0.0,0.0,1.68999987602,1,222.7610437291862,78.5395953666704,367.42895361786304,-18.750742337534973,-0.3892321280739347,-0.024553844684236964,0,Fixed-Wing
1970-01-01 00:00:45.194119584,6991,1531930556485589992,base_link,0,1,40.5908528,-79.8987527,367.393233217,0.348099969053,0.0,0.0,0.0,0.348099969053,0.0,0.0,0.0,1.39239987621,1,215.33652244312034,78.48385050839246,367.38911948096364,-18.56028239963269,-0.1393544811983665,-0.09957986535590811,0,Fixed-Wing
1970-01-01 00:00:45.607854304,6993,1531930556898484680,base_link,0,1,40.5908533,-79.8988399,367.263143886,0.348099969053,0.0,0.0,0.0,0.348099969053,0.0,0.0,0.0,1.39239987621,1,207.95432419765945,78.53916553455284,367.2592740698035,-18.4544806172183,0.1382799600031295,-0.3245956751382355,0,Fixed-Wing
1970-01-01 00:00:45.994762976,6995,1531930557286565672,base_link,0,1,40.5908539,-79.8989261,367.343055549,0.348099969053,0.0,0.0,0.0,0.348099969053,0.0,0.0,0.0,1.39239987621,1,200.65679082656237,78.60559798373188,367.33941832294033,-18.242830072088722,0.16607198898822234,0.20034961361334278,0,Fixed-Wing
1970-01-01 00:00:46.403379712,6997,1531930557694404584,base_link,0,1,40.5908543,-79.8990119,367.442967717,0.348099969053,0.0,0.0,0.0,0.348099969053,0.0,0.0,0.0,1.39239987621,1,193.39312185024346,78.64982821736885,367.43955399180004,-18.15817374124151,0.11056950276976374,0.25032540425203376,0,Fixed-Wing
1970-01-01 00:00:46.791088096,6999,1531930558082738376,base_link,0,1,40.5908547,-79.8990977,367.422879897,0.348099969053,0.0,0.0,0.0,0.348099969053,0.0,0.0,0.0,1.39239987621,1,186.12944923799523,78.69406404712075,367.41968141496693,-18.15818283056489,0.11058349228766888,-0.04967870975373535,0,Fixed-Wing
1970-01-01 00:00:47.177041824,7001,1531930558468830600,base_link,0,1,40.5908545,-79.8991837,367.392792138,0.348099969053,0.0,0.0,0.0,0.348099969053,0.0,0.0,0.0,1.39239987621,1,178.8488464421961,78.67167497074189,367.38980193611525,-18.200505961669926,-0.05596961261844962,-0.07469458892681644,0,Fixed-Wing
1970-01-01 00:00:47.605959584,7003,1531930558896428392,base_link,0,1,40.5908531,-79.8992704,367.28270418,0.348099969053,0.0,0.0,0.0,0.348099969053,0.0,0.0,0.0,1.39239987621,1,171.50898386925294,78.51602775063543,367.2799171953716,-18.34864725675878,-0.38909664995040116,-0.27469674353827167,0,Fixed-Wing
1970-01-01 00:00:47.971117312,7005,1531930559262768328,base_link,0,1,40.590851,-79.8993574,367.252616223,0.348099969053,0.0,0.0,0.0,0.348099969053,0.0,0.0,0.0,1.39239987621,1,164.14372756209775,78.28265149665421,367.2500256284036,-18.412128100842434,-0.5834085474829381,-0.07472480755555945,0,Fixed-Wing
1970-01-01 00:00:48.380149376,7007,1531930559671977352,base_link,0,1,40.5908477,-79.8994445,367.32252868,0.348099969053,0.0,0.0,0.0,0.348099969053,0.0,0.0,0.0,1.39239987621,1,156.7700103006067,77.916020666424,367.32012781530796,-18.43327932336481,-0.9165266666088542,0.17524582874033007,0,Fixed-Wing
1970-01-01 00:00:48.774839008,7009,1531930560065083464,base_link,0,1,40.5908436,-79.8995316,367.432441486,0.348099969053,0.0,0.0,0.0,0.348099969053,0.0,0.0,0.0,1.39239987621,1,149.39629486947055,77.46055567361654,367.43022289928206,-18.433274747729282,-1.1385998590264133,0.27522257269375616,0,Fixed-Wing
1970-01-01 00:00:49.189016448,7011,1531930560480803944,base_link,0,1,40.59084,-79.8996184,367.502354399,0.348099969053,0.0,0.0,0.0,0.348099969053,0.0,0.0,0.0,1.39239987621,1,142.04797379334337,77.0606241695937,367.50030830901136,-18.3697923517386,-0.9997737724996257,0.17520388810940843,0,Fixed-Wing
1970-01-01 00:00:49.564609184,7013,1531930560856131048,base_link,0,1,40.5908375,-79.8997049,367.682267169,0.348099969053,0.0,0.0,0.0,0.348099969053,0.0,0.0,0.0,1.39239987621,1,134.72504933658078,76.78285935119123,367.6803830883506,-18.306304295170246,-0.6943738554441004,0.4501621894276717,0,Fixed-Wing
1970-01-01 00:00:49.988296864,7015,1531930561280039944,base_link,0,1,40.590836,-79.8997912,367.922179735,0.348099969053,0.0,0.0,0.0,0.348099969053,0.0,0.0,0.0,1.39239987621,1,127.4190548622377,76.61615515135338,367.9204475823198,-18.263981666866023,-0.4167375790277841,0.6001282278705028,0,Fixed-Wing
1970-01-01 00:00:50.406641728,7017,1531930561698367016,base_link,0,1,40.5908353,-79.8998774,368.25209208,0.348099969053,0.0,0.0,0.0,0.348099969053,0.0,0.0,0.0,1.39239987621,1,120.12152559324463,76.53830126293624,368.2505022658967,-18.24281981739273,-0.19462401672192592,0.8250913289192051,0,Fixed-Wing
1970-01-01 00:00:50.827341184,7019,1531930562119037448,base_link,0,1,40.5908358,-79.8999632,368.602004342,0.348099969053,0.0,0.0,0.0,0.348099969053,0.0,0.0,0.0,1.39239987621,1,112.85785703601465,76.59371819314185,368.60054632876074,-18.158172693576795,0.13853470610518812,0.8750620287484561,0,Fixed-Wing
1970-01-01 00:00:51.219308832,7021,1531930562511072328,base_link,0,1,40.5908382,-79.9000484,368.851916432,0.348099969053,0.0,0.0,0.0,0.348099969053,0.0,0.0,0.0,1.39239987621,1,105.64497807465149,76.8601413676333,368.8505785744996,-18.03120568709511,0.6660213050568475,0.6250462368041024,0,Fixed-Wing
1970-01-01 00:00:51.610387488,7023,1531930562902188680,base_link,0,1,40.5908424,-79.900133,369.031828391,0.348099969053,0.0,0.0,0.0,0.348099969053,0.0,0.0,0.0,1.39239987621,1,98.48289027093308,77.32646577018832,369.03059932348367,-17.904234776383316,1.1657468903085757,0.4500271209685399,0,Fixed-Wing
1970-01-01 00:00:51.985612864,7025,1531930563277192712,base_link,0,1,40.5908491,-79.9002171,369.151739825,0.348099969053,0.0,0.0,0.0,0.348099969053,0.0,0.0,0.0,1.39239987621,1,91.36312779821719,78.07042799399144,369.15060747585096,-17.798427268289974,1.8598032703279406,0.30000388070478795,0,Fixed-Wing
1970-01-01 00:00:52.429767520,7027,1531930563721436936,base_link,0,1,40.5908593,-79.9003001,369.251650928,0.348099969053,0.0,0.0,0.0,0.348099969053,0.0,0.0,0.0,1.39239987621,1,84.33648583128402,79.2030814352342,369.2506012185548,-17.56563880719853,2.83147787182393,0.24997060837607987,0,Fixed-Wing
1970-01-01 00:00:52.817168192,7029,1531930564108009448,base_link,0,1,40.5908743,-79.900382,369.111561155,0.348099969053,0.0,0.0,0.0,0.348099969053,0.0,0.0,0.0,1.39239987621,1,77.40296132732998,80.868791234085,369.110578276419,-17.33285795269772,4.164045474625892,-0.350038103243752,0,Fixed-Wing
1970-01-01 00:00:53.171334368,7031,1531930564463137032,base_link,0,1,40.5908958,-79.9004617,368.851470918,0.348099969053,0.0,0.0,0.0,0.348099969053,0.0,0.0,0.0,1.39239987621,1,70.65567997868307,83.25634852217144,368.8505354452119,-16.86727567145534,5.9685649491439,-0.6500713240949291,0,Fixed-Wing
1970-01-01 00:00:53.577769536,7033,1531930564869600200,base_link,0,1,40.5909246,-79.9005381,368.501381007,0.348099969053,0.0,0.0,0.0,0.348099969053,0.0,0.0,0.0,1.39239987621,1,64.18776736159748,86.45459573720717,368.5004711514454,-16.16889225364002,7.995178302782685,-0.875112603223021,0,Fixed-Wing
1970-01-01 00:00:54.025565920,7035,1531930565316771144,base_link,0,1,40.5909618,-79.9006092,367.971293002,0.348099969053,0.0,0.0,0.0,0.348099969053,0.0,0.0,0.0,1.39239987621,1,58.1685397709306,90.58568961043923,367.97038332562187,-15.047241378391389,10.327166688912262,-1.3251466814914106,0,Fixed-Wing
1970-01-01 00:00:54.420444896,7037,1531930565711974888,base_link,0,1,40.591009,-79.9006717,367.511209601,0.348099969053,0.0,0.0,0.0,0.348099969053,0.0,0.0,0.0,1.39239987621,1,52.87737123843688,95.8273181026681,367.5102691331706,-13.227193835573347,13.103350546292129,-1.1502222189061395,0,Fixed-Wing
1970-01-01 00:00:54.821092000,7039,1531930566112538504,base_link,0,1,40.591066,-79.9007227,367.321133846,0.348099969053,0.0,0.0,0.0,0.348099969053,0.0,0.0,0.0,1.39239987621,1,48.55977183187367,102.15727394786586,367.32012918120455,-10.793404879139676,15.824019291933341,-0.47532373710957354,0,Fixed-Wing
1970-01-01 00:00:55.220123552,7041,1531930566511918344,base_link,0,1,40.5911301,-79.9007603,367.361068803,0.348099969053,0.0,0.0,0.0,0.348099969053,0.0,0.0,0.0,1.39239987621,1,45.37659172119424,109.27571493551915,367.35996927236937,-7.957512613504833,17.795123737327664,0.09959475020078788,0,Fixed-Wing
1970-01-01 00:00:55.659420832,7043,1531930566951145192,base_link,0,1,40.5911986,-79.9007838,367.701016312,0.348099969053,0.0,0.0,0.0,0.348099969053,0.0,0.0,0.0,1.39239987621,1,43.38709097799511,116.8828004907322,367.69979541435407,-4.973478316690408,19.016667971294197,0.8495186314370253,0,Fixed-Wing
1970-01-01 00:00:55.988688800,7045,1531930567280271272,base_link,0,1,40.5912689,-79.900793,368.520977659,0.348099969053,0.0,0.0,0.0,0.348099969053,0.0,0.0,0.0,1.39239987621,1,42.60820063269123,124.68979809940319,368.5196138036273,-1.9471187717272511,19.516420618543474,2.0494332543540685,0,Fixed-Wing
1970-01-01 00:00:56.400372864,7047,1531930567691864392,base_link,0,1,40.5913387,-79.9007928,369.460948811,0.348099969053,0.0,0.0,0.0,0.348099969053,0.0,0.0,0.0,1.39239987621,1,42.625094115806796,132.44127867005773,369.4594282188124,0.042231385062738325,19.377635656675224,2.349406820587575,0,Fixed-Wing
1970-01-01 00:00:56.779314624,7049,1531930568071159112,base_link,0,1,40.5914066,-79.9007856,370.480927904,0.348099969053,0.0,0.0,0.0,0.348099969053,0.0,0.0,0.0,1.39239987621,1,43.234591900776735,139.9817670791343,370.4792417929314,1.5236606610884877,18.850184262556994,2.5493937186430777,0,Fixed-Wing
1970-01-01 00:00:57.191520896,7051,1531930568483336328,base_link,0,1,40.5914724,-79.9007749,371.480911453,0.348099969053,0.0,0.0,0.0,0.348099969053,0.0,0.0,0.0,1.39239987621,1,44.14039093310207,147.2890490733909,371.4790541917241,2.2643730402961175,18.267200289625602,2.4993935303375783,0,Fixed-Wing
1970-01-01 00:00:57.627367712,7053,1531930568919020776,base_link,0,1,40.5915361,-79.9007625,372.400897625,0.348099969053,0.0,0.0,0.0,0.348099969053,0.0,0.0,0.0,1.39239987621,1,45.19010685624956,154.36312219039047,372.39886533896004,2.624145479867328,17.68421016094004,2.2994014010127413,0,Fixed-Wing
1970-01-01 00:00:58.008736704,7055,1531930569300520488,base_link,0,1,40.5915975,-79.9007498,373.100885075,0.348099969053,0.0,0.0,0.0,0.348099969053,0.0,0.0,0.0,1.39239987621,1,46.26521827371176,161.18177132638428,373.09867601748005,2.68763072396569,17.045685327291523,1.7494304776237541,0,Fixed-Wing
1970-01-01 00:00:58.378711552,7057,1531930569670467912,base_link,0,1,40.5916577,-79.9007388,373.510871309,0.348099969053,0.0,0.0,0.0,0.348099969053,0.0,0.0,0.0,1.39239987621,1,47.196409353762405,167.86715056943493,373.5084825742877,2.3278496683948515,16.712528918536098,1.0244600467165963,0,Fixed-Wing
1970-01-01 00:00:58.824238016,7059,1531930570116042568,base_link,0,1,40.5917171,-79.9007296,373.42085606,0.348099969053,0.0,0.0,0.0,0.348099969053,0.0,0.0,0.0,1.39239987621,1,47.97521280063542,174.4636741281779,373.41828407316257,1.946901537597965,16.490401924751573,-0.22548385120104408,0,Fixed-Wing
1970-01-01 00:00:59.248031072,7061,1531930570537657352,base_link,0,1,40.5917762,-79.9007233,372.900838,0.348099969053,0.0,0.0,0.0,0.348099969053,0.0,0.0,0.0,1.39239987621,1,48.508506255794934,181.02686805187756,372.8980786415578,1.3331603140815151,16.40708241971606,-1.3004420546989397,0,Fixed-Wing
1970-01-01 00:00:59.598606944,7063,1531930570890413064,base_link,0,1,40.5918352,-79.9007205,372.180816436,0.348099969053,0.0,0.0,0.0,0.348099969053,0.0,0.0,0.0,1.39239987621,1,48.74549773772668,187.57894791634675,372.1778654901351,0.5924461202927485,16.379298799738994,-1.8004338546947005,0,Fixed-Wing
1970-01-01 00:00:59.993111200,7065,1531930571284948488,base_link,0,1,40.5918947,-79.9007212,371.490791122,0.348099969053,0.0,0.0,0.0,0.348099969053,0.0,0.0,0.0,1.39239987621,1,48.686189426621574,194.18655160156635,371.48764240249835,-0.14826262331848203,16.51810071750954,-1.7254628186368564,0,Fixed-Wing
1970-01-01 00:01:00.412759552,7067,1531930571704505960,base_link,0,1,40.5919549,-79.9007243,370.720763094,0.348099969053,0.0,0.0,0.0,0.348099969053,0.0,0.0,0.0,1.39239987621,1,48.42370374005068,200.87188682457924,370.717408827536,-0.6561781266302797,16.712418874494116,-1.9254780361138464,0,Fixed-Wing
1970-01-01 00:01:00.807316704,7069,1531930572098774280,base_link,0,1,40.5920156,-79.9007292,369.970733047,0.348099969053,0.0,0.0,0.0,0.348099969053,0.0,0.0,0.0,1.39239987621,1,48.00883624866631,207.61274642235108,369.96716553608906,-1.0371116873181063,16.851222177209866,-1.8755050758382381,0,Fixed-Wing
1970-01-01 00:01:01.206846976,7071,1531930572497279048,base_link,0,1,40.5920772,-79.9007351,369.280701631,0.348099969053,0.0,0.0,0.0,0.348099969053,0.0,0.0,0.0,1.39239987621,1,47.509312762829,214.4535532333214,369.2769109685809,-1.248740033891424,17.10107646822005,-1.7255415139870662,0,Fixed-Wing
1970-01-01 00:01:01.594517504,7073,1531930572885637160,base_link,0,1,40.5921398,-79.90074,368.810670839,0.348099969053,0.0,0.0,0.0,0.348099969053,0.0,0.0,0.0,1.39239987621,1,47.09444778721789,221.40541932443278,368.80664514528667,-1.0371053982308718,17.37870939876153,-1.1755999002411253,0,Fixed-Wing
1970-01-01 00:01:01.970255872,7075,1531930573261868200,base_link,0,1,40.5922032,-79.9007424,368.670642282,0.348099969053,0.0,0.0,0.0,0.348099969053,0.0,0.0,0.0,1.39239987621,1,46.891226712209004,228.4461396331169,368.66636919286475,-0.5080247461611702,17.60083272591036,-0.3506705941721115,0,Fixed-Wing
1970-01-01 00:01:02.428298016,7077,1531930573719839496,base_link,0,1,40.5922671,-79.9007436,368.83061476,0.348099969053,0.0,0.0,0.0,0.348099969053,0.0,0.0,0.0,1.39239987621,1,46.78959556211262,235.54239769008115,368.82608368121146,-0.25406390172635734,17.73966946059028,0.39926426133239695,0,Fixed-Wing
1970-01-01 00:01:02.838934944,7079,1531930574130722216,base_link,0,1,40.5923309,-79.9007442,368.95058791,0.348099969053,0.0,0.0,0.0,0.348099969053,0.0,0.0,0.0,1.39239987621,1,46.738758173709485,242.62754972989893,368.9457909755632,-0.1270864812513776,17.711905944717504,0.29925177703168737,0,Fixed-Wing
1970-01-01 00:01:03.203464320,7081,1531930574495077928,base_link,0,1,40.5923941,-79.9007437,369.010562446,0.348099969053,0.0,0.0,0.0,0.348099969053,0.0,0.0,0.0,1.39239987621,1,46.781042730482454,249.64606885634223,369.0054937034042,0.10570557812562684,17.545332822802983,0.14924861092889796,0,Fixed-Wing
1970-01-01 00:01:03.570645184,7083,1531930574862398696,base_link,0,1,40.5924566,-79.9007416,369.080538916,0.348099969053,0.0,0.0,0.0,0.348099969053,0.0,0.0,0.0,1.39239987621,1,46.95877764374391,256.58685271186386,369.0751927629848,0.4443128459471059,17.351005333510734,0.17423806585777116,0,Fixed-Wing
1970-01-01 00:01:04.017425248,7085,1531930575309172488,base_link,0,1,40.5925184,-79.9007384,369.200516811,0.348099969053,0.0,0.0,0.0,0.348099969053,0.0,0.0,0.0,1.39239987621,1,47.22963479389463,263.4499027221245,369.194888199533,0.6771056345669115,17.156681408174105,0.2992221341531891,0,Fixed-Wing
1970-01-01 00:01:04.444256768,7087,1531930575736028360,base_link,0,1,40.5925795,-79.9007341,369.310496129,0.348099969053,0.0,0.0,0.0,0.348099969053,0.0,0.0,0.0,1.39239987621,1,47.593613496481424,270.2352165012376,369.30458025756633,0.9098967121478113,16.962351518449225,0.27421506325481504,0,Fixed-Wing
1970-01-01 00:01:04.749400096,7089,1531930576041158728,base_link,0,1,40.5926398,-79.9007278,369.520477827,0.348099969053,0.0,0.0,0.0,0.348099969053,0.0,0.0,0.0,1.39239987621,1,48.12690476005873,276.93169405588225,369.5142700297291,1.333154835427312,16.740273171587244,0.5241955996489936,0,Fixed-Wing
1970-01-01 00:01:05.170000096,7091,1531930576461082152,base_link,0,1,40.5926988,-79.9007182,369.78046343,0.348099969053,0.0,0.0,0.0,0.348099969053,0.0,0.0,0.0,1.39239987621,1,48.939560808637026,283.4838079735851,369.7739609152321,2.0315283873844376,16.37938392814109,0.6491915082245605,0,Fixed-Wing
1970-01-01 00:01:05.649095328,7093,1531930576940770152,base_link,0,1,40.5927568,-79.9007034,370.040454744,0.348099969053,0.0,0.0,0.0,0.348099969053,0.0,0.0,0.0,1.39239987621,1,50.19242641890367,289.92487302745695,370.03365227894466,3.1319917661194787,16.1017770369426,0.6491927036826325,0,Fixed-Wing
1970-01-01 00:01:06.023308544,7095,1531930577313988072,base_link,0,1,40.5928138,-79.9006827,370.100452479,0.348099969053,0.0,0.0,0.0,0.348099969053,0.0,0.0,0.0,1.39239987621,1,51.944757948029164,296.2548805285895,370.0933444250388,4.380587890479753,15.824148424668069,0.1492221580167201,0,Fixed-Wing
1970-01-01 00:01:06.426391104,7097,1531930577718208392,base_link,0,1,40.5928697,-79.9006561,369.720456676,0.348099969053,0.0,0.0,0.0,0.348099969053,0.0,0.0,0.0,1.39239987621,1,54.19655209471643,302.4627135631704,369.71303784701973,5.629175762051255,15.518729056354045,-0.9507141557691521,0,Fixed-Wing
1970-01-01 00:01:06.813587808,7099,1531930578105346632,base_link,0,1,40.5929241,-79.9006216,369.070469529,0.348099969053,0.0,0.0,0.0,0.348099969053,0.0,0.0,0.0,1.39239987621,1,57.11712018742247,308.50395985811855,369.0627352091208,7.301018675737938,15.102285111689273,-1.6256671830523328,0,Fixed-Wing
1970-01-01 00:01:07.242918240,7101,1531930578534366504,base_link,0,1,40.5929759,-79.9005767,368.400494027,0.348099969053,0.0,0.0,0.0,0.348099969053,0.0,0.0,0.0,1.39239987621,1,60.918102352259105,314.25647583116825,368.3924430743668,9.501932805787263,14.380499005178956,-1.6756381767852586,0,Fixed-Wing
1970-01-01 00:01:07.599819936,7103,1531930578891655336,base_link,0,1,40.5930233,-79.9005198,367.85053253,0.348099969053,0.0,0.0,0.0,0.348099969053,0.0,0.0,0.0,1.39239987621,1,65.73494858335,319.52037663868464,367.8421716631238,12.04145329779587,13.159028272236009,-1.375602869949624,0,Fixed-Wing
1970-01-01 00:01:07.974377856,7105,1531930579266015272,base_link,0,1,40.5930648,-79.9004509,367.430585649,0.348099969053,0.0,0.0,0.0,0.348099969053,0.0,0.0,0.0,1.39239987621,1,71.56765939613086,324.12908647747366,367.4219289914039,14.580975078322842,11.521140934221181,-1.0505488991103105,0,Fixed-Wing
1970-01-01 00:01:08.421020864,7107,1531930579712506600,base_link,0,1,40.5930987,-79.9003704,367.220653671,0.348099969053,0.0,0.0,0.0,0.348099969053,0.0,0.0,0.0,1.39239987621,1,78.38237543283853,327.8938227166463,367.2117241298745,17.035853119847573,9.411322975167952,-0.5254832522446395,0,Fixed-Wing
1970-01-01 00:01:08.777041408,7109,1531930580067988840,base_link,0,1,40.5931233,-79.9002804,367.230735154,0.348099969053,0.0,0.0,0.0,0.348099969053,0.0,0.0,0.0,1.39239987621,1,86.00132427311696,330.6257977728327,367.22156620476295,19.046324552845682,6.829562014555199,0.024603834010298878,0,Fixed-Wing
1970-01-01 00:01:09.178194112,7111,1531930580469879240,base_link,0,1,40.593136,-79.9001823,367.660829738,0.348099969053,0.0,0.0,0.0,0.348099969053,0.0,0.0,0.0,1.39239987621,1,94.30599819254813,332.0362869047665,367.6514701292541,20.76054296871464,3.5260288982450634,1.0747007026892443,0,Fixed-Wing
1970-01-01 00:01:09.557193184,7113,1531930580846561768,base_link,0,1,40.5931373,-79.9000808,368.510932444,0.348099969053,0.0,0.0,0.0,0.348099969053,0.0,0.0,0.0,1.39239987621,1,102.89852229494552,332.18081314562767,368.50143265439954,21.480128848906787,0.3612957308877574,2.124789449443853,0,Fixed-Wing
1970-01-01 00:01:09.991717632,7115,1531930581283506728,base_link,0,1,40.5931288,-79.8999804,369.861038046,0.348099969053,0.0,0.0,0.0,0.348099969053,0.0,0.0,0.0,1.39239987621,1,111.39795248994567,331.2370594827285,369.85144488486276,21.247406880121954,-2.359254398255984,3.3748449596852708,0,Fixed-Wing
1970-01-01 00:01:10.391396768,7117,1531930581683032968,base_link,0,1,40.5931144,-79.8998836,371.601142413,0.348099969053,0.0,0.0,0.0,0.348099969053,0.0,0.0,0.0,1.39239987621,1,119.59264694386547,329.63812049100346,371.59148412027207,20.485609426281076,-3.997127637292572,4.349858846286736,0,Fixed-Wing
1970-01-01 00:01:10.788884480,7119,1531930582080532168,base_link,0,1,40.5930994,-79.8997903,373.211243482,0.348099969053,0.0,0.0,0.0,0.348099969053,0.0,0.0,0.0,1.39239987621,1,127.49105396811208,327.9725463234562,373.20151849918955,19.744931589379107,-4.163706415015366,4.024864579741804,0,Fixed-Wing
1970-01-01 00:01:11.203353472,7121,1531930582494907528,base_link,0,1,40.5930858,-79.8996994,374.291341556,0.348099969053,0.0,0.0,0.0,0.348099969053,0.0,0.0,0.0,1.39239987621,1,135.186281377664,326.46242243345375,374.2815360080009,19.237010488302904,-3.7751020943908906,2.6998952777881016,0,Fixed-Wing
1970-01-01 00:01:11.575426912,7123,1531930582867043720,base_link,0,1,40.5930746,-79.8996106,375.221436529,0.348099969053,0.0,0.0,0.0,0.348099969053,0.0,0.0,0.0,1.39239987621,1,142.70372955154374,325.2188211513379,375.2115311448457,18.79258684242306,-3.1088322195175087,2.3248599748134082,0,Fixed-Wing
1970-01-01 00:01:11.990560096,7125,1531930583282207464,base_link,0,1,40.5930658,-79.8995233,375.76152901,0.348099969053,0.0,0.0,0.0,0.348099969053,0.0,0.0,0.0,1.39239987621,1,150.09418464438673,324.24173093359195,375.75150410731544,18.47512160041944,-2.442591201848817,1.3498581639753138,0,Fixed-Wing
1970-01-01 00:01:12.428383520,7127,1531930583718017128,base_link,0,1,40.5930593,-79.8994371,375.891619444,0.348099969053,0.0,0.0,0.0,0.348099969053,0.0,0.0,0.0,1.39239987621,1,157.3915063682533,323.5200460871948,375.881455637368,18.24230098311233,-1.8041128897838734,0.3248609577787005,0,Fixed-Wing
1970-01-01 00:01:12.848655616,7129,1531930584139985864,base_link,0,1,40.5930554,-79.8993514,375.67170832,0.348099969053,0.0,0.0,0.0,0.348099969053,0.0,0.0,0.0,1.39239987621,1,164.64648664883512,323.0870864415209,375.6613836278585,18.136453196528773,-1.0823395855075926,-0.5501497655365587,0,Fixed-Wing
1970-01-01 00:01:13.190144768,7131,1531930584481675784,base_link,0,1,40.5930532,-79.8992655,375.151796717,0.348099969053,0.0,0.0,0.0,0.348099969053,0.0,0.0,0.0,1.39239987621,1,171.91838594485552,322.84290848086346,375.14129283850934,18.178748408888495,-0.6104113290205359,-1.3001554648223925,0,Fixed-Wing
1970-01-01 00:01:13.600855136,7133,1531930584892347368,base_link,0,1,40.5930532,-79.8991789,374.421884939,0.348099969053,0.0,0.0,0.0,0.348099969053,0.0,0.0,0.0,1.39239987621,1,179.24953161197027,322.8430441180975,374.41117953160176,18.326856190696397,0.00033907443603704385,-1.8251828822104363,0,Fixed-Wing
1970-01-01 00:01:13.999354464,7135,1531930585290708200,base_link,0,1,40.5930551,-79.8990912,373.561973518,0.348099969053,0.0,0.0,0.0,0.348099969053,0.0,0.0,0.0,1.39239987621,1,186.6737875450056,323.05418258406445,373.5510447359583,18.559619053540406,0.5278171349749258,-2.1502187270785917,0,Fixed-Wing
1970-01-01 00:01:14.402625728,7137,1531930585694143240,base_link,0,1,40.5930572,-79.8990031,372.202062434,0.348099969053,0.0,0.0,0.0,0.348099969053,0.0,0.0,0.0,1.39239987621,1,194.13188746972057,323.2875143751837,372.19089948343276,18.644224379446527,0.5832973964413692,-3.400176121627234,0,Fixed-Wing
1970-01-01 00:01:14.774419296,7139,1531930586066264008,base_link,0,1,40.5930609,-79.8989134,370.882152339,0.348099969053,0.0,0.0,0.0,0.348099969053,0.0,0.0,0.0,1.39239987621,1,201.72542890022464,323.6985432637798,370.870733193516,18.982809521736492,1.0275157081262847,-3.300234211910235,0,Fixed-Wing
1970-01-01 00:01:15.233057184,7141,1531930586524659944,base_link,0,1,40.5930673,-79.8988221,369.882242782,0.348099969053,0.0,0.0,0.0,0.348099969053,0.0,0.0,0.0,1.39239987621,1,209.45441707784553,324.4094415880565,369.87053866323083,19.321407766625065,1.777148067547995,-2.500348806528568,0,Fixed-Wing
1970-01-01 00:01:15.588917664,7143,1531930586880684104,base_link,0,1,40.5930749,-79.8987294,369.202334173,0.348099969053,0.0,0.0,0.0,0.348099969053,0.0,0.0,0.0,1.39239987621,1,217.3019259085049,325.25363050084786,369.19032480783585,19.617693103527717,2.110356212386736,-1.700441114226172,0,Fixed-Wing
1970-01-01 00:01:15.993071808,7145,1531930587284634952,base_link,0,1,40.5930809,-79.8986353,368.902427661,0.348099969053,0.0,0.0,0.0,0.348099969053,0.0,0.0,0.0,1.39239987621,1,225.26796758422083,325.92016656711587,368.8901082204618,19.914008918799286,1.6662485220013117,-0.7505001909246299,0,Fixed-Wing
1970-01-01 00:01:16.427509472,7147,1531930587719325640,base_link,0,1,40.5930847,-79.8985402,369.012523084,0.348099969053,0.0,0.0,0.0,0.348099969053,0.0,0.0,0.0,1.39239987621,1,233.3186850786669,326.34241929746645,368.9998930058011,20.125686823339905,1.0555737693191338,0.27444686877043356,0,Fixed-Wing
1970-01-01 00:01:16.750725152,7149,1531930588042355048,base_link,0,1,40.5930865,-79.8984453,369.232619137,0.348099969053,0.0,0.0,0.0,0.348099969053,0.0,0.0,0.0,1.39239987621,1,241.35248221138949,326.54258084737654,369.2196802876126,20.08338824545296,0.5003763540757562,0.5494379854396365,0,Fixed-Wing
1970-01-01 00:01:17.177332256,7151,1531930588467746184,base_link,0,1,40.5930861,-79.8983506,369.462715904,0.348099969053,0.0,0.0,0.0,0.348099969053,0.0,0.0,0.0,1.39239987621,1,249.3693569547615,326.49843551867093,369.44947137439834,20.04108459877714,-0.11035725211516019,0.5744461224275765,0,Fixed-Wing
1970-01-01 00:01:17.591084960,7153,1531930588882798472,base_link,0,1,40.5930844,-79.8982566,369.612812505,0.348099969053,0.0,0.0,0.0,0.348099969053,0.0,0.0,0.0,1.39239987621,1,257.32697536183827,326.3099244045085,369.5992620242347,19.892951905337085,-0.4712518665534697,0.3744560295092463,0,Fixed-Wing
1970-01-01 00:01:18.008152384,7155,1531930589299720648,base_link,0,1,40.593082,-79.8981635,369.742908491,0.348099969053,0.0,0.0,0.0,0.348099969053,0.0,0.0,0.0,1.39239987621,1,265.2084066308211,326.043681287058,369.72904928828154,19.70249453525769,-0.6655711872108829,0.32445031534979085,0,Fixed-Wing
1970-01-01 00:01:18.387494912,7157,1531930589679125416,base_link,0,1,40.5930796,-79.898071,369.913003879,0.348099969053,0.0,0.0,0.0,0.348099969053,0.0,0.0,0.0,1.39239987621,1,273.0390472551618,325.7774466795886,369.89882839009454,19.5755249069818,-0.665549913428297,0.4244244111898644,0,Fixed-Wing
