time,field.header.seq,field.header.stamp,field.header.frame_id,field.status.status,field.status.service,lat,lon,alt,field.position_covariance0,field.position_covariance1,field.position_covariance2,field.position_covariance3,field.position_covariance4,field.position_covariance5,field.position_covariance6,field.position_covariance7,field.position_covariance8,field.position_covariance_type,x,y,z,vel_x,vel_y,vel_z,track_id,uav_category
1970-01-01 00:00:00.000000000,2414,1536701658929788893,base_link,0,1,40.5914635,-79.9002327,371.121467342,0.302500013113,0.0,0.0,0.0,0.302500013113,0.0,0.0,0.0,1.21000005245,1,105.65249728814145,175.81903777578526,371.1181644477838,-20.273468008775765,0.055272171994647644,0.9999792576964899,0,Fixed-Wing
1970-01-01 00:00:00.364570985,2416,1536701659294715052,base_link,0,1,40.5914637,-79.9003285,371.521369658,0.302500013113,0.0,0.0,0.0,0.302500013113,0.0,0.0,0.0,1.21000005245,1,97.5423194193788,175.84114880019783,371.51819515005343,-20.273468008775765,0.055272171994647644,0.9999792576964899,0,Fixed-Wing
1970-01-01 00:00:00.779514802,2418,1536701659709723310,base_link,0,1,40.5914676,-79.9004219,371.691272895,0.302500013113,0.0,0.0,0.0,0.302500013113,0.0,0.0,0.0,1.21000005245,1,89.63531031957669,176.27415900925416,371.68820225754183,-19.765595603933892,1.0824199866921336,0.4249763335284865,0,Fixed-Wing
1970-01-01 00:00:01.166556713,2420,1536701660096472438,base_link,0,1,40.5914778,-79.9005114,371.7011775,0.302500013113,0.0,0.0,0.0,0.302500013113,0.0,0.0,0.0,1.21000005245,1,82.05845601224183,177.40680760870498,371.69817721385857,-18.94028909015085,2.8313454424464055,0.02493495963328396,0,Fixed-Wing
1970-01-01 00:00:01.534884734,2422,1536701660464690273,base_link,0,1,40.5914923,-79.9005975,371.061083797,0.302500013113,0.0,0.0,0.0,0.302500013113,0.0,0.0,0.0,1.21000005245,1,74.76942683757719,179.0169742899489,371.05812789271965,-18.220796409011744,4.025024263244146,-1.5999673060349555,0,Fixed-Wing
1970-01-01 00:00:01.993863147,2424,1536701660924057345,base_link,0,1,40.5915122,-79.9006797,369.770991838,0.302500013113,0.0,0.0,0.0,0.302500013113,0.0,0.0,0.0,1.21000005245,1,67.81055372163495,181.22681568396382,369.76805104045985,-17.395486729899435,5.52406488871064,-3.224877705073259,0,Fixed-Wing
1970-01-01 00:00:02.367644814,2426,1536701661297778413,base_link,0,1,40.5915418,-79.9007561,368.370901774,0.302500013113,0.0,0.0,0.0,0.302500013113,0.0,0.0,0.0,1.21000005245,1,61.34269012606421,184.5138723076244,368.36793189265,-16.168082600873248,8.216840417210797,-3.4999566237538,0,Fixed-Wing
1970-01-01 00:00:02.764760004,2428,1536701661694867385,base_link,0,1,40.5915816,-79.900825,366.980815131,0.302500013113,0.0,0.0,0.0,0.302500013113,0.0,0.0,0.0,1.21000005245,1,55.50975616221705,188.93367286336047,366.9777689001218,-14.580913270574023,11.048424167983773,-3.4750686621259166,0,Fixed-Wing
1970-01-01 00:00:03.177010163,2430,1536701662107215373,base_link,0,1,40.5916298,-79.9008849,365.610734188,0.302500013113,0.0,0.0,0.0,0.302500013113,0.0,0.0,0.0,1.21000005245,1,50.438740095620965,194.28632199800626,365.6075688215119,-12.676304226828103,13.38031825558455,-3.425166242816106,0,Fixed-Wing
1970-01-01 00:00:03.577600811,2432,1536701662507846292,base_link,0,1,40.5916867,-79.9009328,364.490661875,0.302500013113,0.0,0.0,0.0,0.302500013113,0.0,0.0,0.0,1.21000005245,1,46.38361434543597,200.605142170122,364.48733116313366,-10.136826034924075,15.795510368028493,-2.8003211146369327,0,Fixed-Wing
1970-01-01 00:00:03.978225168,2434,1536701662908145214,base_link,0,1,40.5917509,-79.9009643,363.860603252,0.302500013113,0.0,0.0,0.0,0.302500013113,0.0,0.0,0.0,1.21000005245,1,43.716870191112925,207.7346686779643,363.85706257612435,-6.6662104302906675,17.822078616940562,-1.5755178545324617,0,Fixed-Wing
1970-01-01 00:00:04.402607400,2436,1536701663332612022,base_link,0,1,40.5918191,-79.9009799,363.660559175,0.302500013113,0.0,0.0,0.0,0.302500013113,0.0,0.0,0.0,1.21000005245,1,42.39617672935482,215.30842635603534,363.6567756236182,-3.3014117667480023,18.932548271721124,-0.5006685660801392,0,Fixed-Wing
1970-01-01 00:00:04.833070779,2438,1536701663754373553,base_link,0,1,40.5918881,-79.9009807,363.750529848,0.302500013113,0.0,0.0,0.0,0.302500013113,0.0,0.0,0.0,1.21000005245,1,42.32840829360186,222.97104294905802,363.74648284221604,-0.1694045724365874,19.15467390185126,0.22424618249176495,0,Fixed-Wing
1970-01-01 00:00:05.183370162,2440,1536701664113385252,base_link,0,1,40.591956,-79.9009698,363.920512898,0.302500013113,0.0,0.0,0.0,0.302500013113,0.0,0.0,0.0,1.21000005245,1,43.25112499676375,230.51151081286855,363.9161910031217,2.3065668676351283,18.849331849670993,0.4242290399327485,0,Fixed-Wing
1970-01-01 00:00:05.595371907,2442,1536701664525481081,base_link,0,1,40.5920212,-79.9009499,364.240506237,0.33639998064,0.0,0.0,0.0,0.33639998064,0.0,0.0,0.0,1.34559992256,1,44.935752593221885,237.75214800072982,364.235906281547,4.2111584032010265,18.09982823640012,0.7992102730616069,0,Fixed-Wing
1970-01-01 00:00:05.995467488,2444,1536701664925698788,base_link,0,1,40.5920831,-79.9009241,364.860506955,0.33639998064,0.0,0.0,0.0,0.33639998064,0.0,0.0,0.0,1.34559992256,1,47.11985541992301,244.62632815355536,364.8556306891015,5.4597247435903205,17.183774964004872,1.5491599757885754,0,Fixed-Wing
1970-01-01 00:00:06.389913445,2446,1536701665320067532,base_link,0,1,40.5921422,-79.9008958,365.570511385,0.324899991846,0.0,0.0,0.0,0.324899991846,0.0,0.0,0.0,1.29959996738,1,49.5155986951613,251.1895685623225,365.56536128280334,5.988774282603168,16.406501388032527,1.7741535042879901,0,Fixed-Wing
1970-01-01 00:00:06.772195061,2448,1536701665698601395,base_link,0,1,40.5921991,-79.9008677,366.140516533,0.324899991846,0.0,0.0,0.0,0.324899991846,0.0,0.0,0.0,1.29959996738,1,51.894407555929156,257.5084901504082,366.135094953843,5.946442373788193,15.795763883235601,1.4241953185556189,0,Fixed-Wing
1970-01-01 00:00:07.171259403,2450,1536701666101484621,base_link,0,1,40.5922549,-79.9008411,366.520520621,0.324899991846,0.0,0.0,0.0,0.324899991846,0.0,0.0,0.0,1.29959996738,1,54.14622749912213,263.7052472161786,366.5148265448383,5.629001030381981,15.490382352146629,0.9492364269365667,0,Fixed-Wing
1970-01-01 00:00:07.569349618,2452,1536701666498858373,base_link,0,1,40.5923102,-79.9008165,366.650522894,0.324899991846,0.0,0.0,0.0,0.324899991846,0.0,0.0,0.0,1.29959996738,1,56.228729531757025,269.8464676599383,366.64455334225806,5.205747521203913,15.351554332851851,0.3242853757253118,0,Fixed-Wing
1970-01-01 00:00:08.006785169,2454,1536701666933170183,base_link,0,1,40.5923651,-79.9007947,366.550522498,0.324899991846,0.0,0.0,0.0,0.324899991846,0.0,0.0,0.0,1.29959996738,1,58.07418895941398,275.9432561941544,366.54427494866025,4.613198782261118,15.240485388214907,-0.2506715435190535,0,Fixed-Wing
1970-01-01 00:00:08.374907416,2456,1536701667305117812,base_link,0,1,40.5924204,-79.9007757,366.390519103,0.324899991846,0.0,0.0,0.0,0.324899991846,0.0,0.0,0.0,1.29959996738,1,59.682607087592395,282.0844614642721,366.38398743320516,4.020653306748628,15.35151640244507,-0.4006797223647734,0,Fixed-Wing
1970-01-01 00:00:08.776481476,2458,1536701667706416119,base_link,0,1,40.5924757,-79.9007571,366.210515315,0.324899991846,0.0,0.0,0.0,0.324899991846,0.0,0.0,0.0,1.29959996738,1,61.25715984851141,288.22566564678704,366.20369351603165,3.9359981424786383,15.35151368370312,-0.4506908505758557,0,Fixed-Wing
1970-01-01 00:00:09.174624318,2460,1536701668104718670,base_link,0,1,40.5925302,-79.900738,365.990512377,0.324899991846,0.0,0.0,0.0,0.324899991846,0.0,0.0,0.0,1.29959996738,1,62.87403829981183,294.2780264359927,365.98339782724935,4.041802052550933,15.129426853895836,-0.5506855301165653,0,Fixed-Wing
1970-01-01 00:00:09.580669092,2462,1536701668510758354,base_link,0,1,40.5925839,-79.9007144,365.600514356,0.324899991846,0.0,0.0,0.0,0.324899991846,0.0,0.0,0.0,1.29959996738,1,64.87186490415394,300.24154055943467,365.59310122446317,4.994079588095433,14.907331843750226,-0.9756463814432578,0,Fixed-Wing
1970-01-01 00:00:09.989979483,2464,1536701668920139268,base_link,0,1,40.5926368,-79.9006841,365.010523487,0.324899991846,0.0,0.0,0.0,0.324899991846,0.0,0.0,0.0,1.29959996738,1,67.43688122541113,306.11620809586566,365.00280387015965,6.4119156413679415,14.685237030467007,-1.4755995148060963,0,Fixed-Wing
1970-01-01 00:00:10.390835448,2466,1536701669320953809,base_link,0,1,40.5926879,-79.9006453,364.290542009,0.324899991846,0.0,0.0,0.0,0.324899991846,0.0,0.0,0.0,1.29959996738,1,70.72146791301246,311.79098157594996,364.28251132684244,8.210666179050875,14.185550609026365,-1.8005558041021352,0,Fixed-Wing
1970-01-01 00:00:10.774024254,2468,1536701669703908223,base_link,0,1,40.5927358,-79.9005963,363.630572223,0.324899991846,0.0,0.0,0.0,0.324899991846,0.0,0.0,0.0,1.29959996738,1,74.86954168857447,317.11039923440796,363.62223138031834,10.36917344449419,13.297247664497732,-1.6505389387637186,0,Fixed-Wing
1970-01-01 00:00:11.175997120,2470,1536701670105681525,base_link,0,1,40.5927782,-79.900536,362.980616187,0.324899991846,0.0,0.0,0.0,0.324899991846,0.0,0.0,0.0,1.29959996738,1,79.97422451290228,321.81904075775554,362.9719770602462,12.760462915685247,11.770456188890535,-1.6254773161419813,0,Fixed-Wing
1970-01-01 00:00:11.537365679,2472,1536701670467597715,base_link,0,1,40.5928143,-79.9004643,362.480674329,0.324899991846,0.0,0.0,0.0,0.324899991846,0.0,0.0,0.0,1.29959996738,1,86.04398403338021,325.8280736799309,362.4717522908345,15.172919441549276,10.021605198931553,-1.250440005628741,0,Fixed-Wing
1970-01-01 00:00:12.027931328,2474,1536701670957850381,base_link,0,1,40.5928406,-79.9003826,362.210746659,0.324899991846,0.0,0.0,0.0,0.324899991846,0.0,0.0,0.0,1.29959996738,1,92.96030878945996,328.74882016562685,362.20157747198107,17.289126200394826,7.301154351690533,-0.6753711984417367,0,Fixed-Wing
1970-01-01 00:00:12.381377788,2476,1536701671311381450,base_link,0,1,40.5928542,-79.9002927,362.450832533,0.324899991846,0.0,0.0,0.0,0.324899991846,0.0,0.0,0.0,1.29959996738,1,100.57083017606928,330.25924361818755,362.44146983552093,19.02444858278648,3.7756905015778495,0.5996724407866882,0,Fixed-Wing
1970-01-01 00:00:12.792980310,2478,1536701671722571304,base_link,0,1,40.592858,-79.9002004,362.95092487,0.324899991846,0.0,0.0,0.0,0.324899991846,0.0,0.0,0.0,1.29959996738,1,108.38454264686352,330.6813781311108,362.9414124442099,19.53237677025051,1.0552333970519487,1.2497346725918435,0,Fixed-Wing
1970-01-01 00:00:13.171754295,2480,1536701672101619441,base_link,0,1,40.5928541,-79.9001093,363.74101915,0.324899991846,0.0,0.0,0.0,0.324899991846,0.0,0.0,0.0,1.29959996738,1,116.09668734335048,330.248430967708,363.7313936961564,19.2784820892137,-1.0822623879242865,1.9747605907085855,0,Fixed-Wing
1970-01-01 00:00:13.582151242,2482,1536701672506027468,base_link,0,1,40.5928462,-79.9000206,364.58111264,0.324899991846,0.0,0.0,0.0,0.324899991846,0.0,0.0,0.0,1.29959996738,1,123.6056697033811,329.37128125708944,364.5713917598942,18.77062576406454,-2.192660492148364,2.0997904297776557,0,Fixed-Wing
1970-01-01 00:00:13.973575289,2484,1536701672903791095,base_link,0,1,40.5928368,-79.8999345,365.351204114,0.324899991846,0.0,0.0,0.0,0.324899991846,0.0,0.0,0.0,1.29959996738,1,130.89455263265398,328.32755276476195,365.34139197255695,18.22043083117618,-2.609066846801159,1.9248128624027934,0,Fixed-Wing
1970-01-01 00:00:14.391901312,2486,1536701673321973896,base_link,0,1,40.592828,-79.8998513,366.271292404,0.324899991846,0.0,0.0,0.0,0.324899991846,0.0,0.0,0.0,1.29959996738,1,137.93793994283226,327.3504657781673,366.26138239091154,17.606751617163017,-2.4424793247524783,2.2997518200840092,0,Fixed-Wing
1970-01-01 00:00:14.785711573,2488,1536701673715738316,base_link,0,1,40.592821,-79.8997703,366.981377731,0.324899991846,0.0,0.0,0.0,0.324899991846,0.0,0.0,0.0,1.29959996738,1,144.7950799707031,326.5732651866531,366.9713558977299,17.141178804743678,-1.94281205461018,1.7747607278749264,0,Fixed-Wing
1970-01-01 00:00:15.176567534,2490,1536701674106719764,base_link,0,1,40.5928154,-79.8996906,367.501461173,0.324899991846,0.0,0.0,0.0,0.324899991846,0.0,0.0,0.0,1.29959996738,1,151.54216287464814,325.9515322059468,367.49131471247176,16.866062818737745,-1.5541809191260596,1.2997703092495219,0,Fixed-Wing
1970-01-01 00:00:15.577720730,2492,1536701674507803014,base_link,0,1,40.5928117,-79.8996122,367.591542524,0.324899991846,0.0,0.0,0.0,0.324899991846,0.0,0.0,0.0,1.29959996738,1,158.17918045207009,325.5407805858427,367.5812561829522,16.590926328237856,-1.0267789393137223,0.22483175510494172,0,Fixed-Wing
1970-01-01 00:00:15.980532570,2494,1536701674910072952,base_link,0,1,40.5928099,-79.8995342,367.281622699,0.324899991846,0.0,0.0,0.0,0.324899991846,0.0,0.0,0.0,1.29959996738,1,164.78232168217127,325.3410133415548,367.2711796453058,16.50624371649061,-0.49936942220108027,-0.775115770328417,0,Fixed-Wing
1970-01-01 00:00:16.354307001,2496,1536701675284485770,base_link,0,1,40.5928091,-79.8994561,366.691702577,0.324899991846,0.0,0.0,0.0,0.324899991846,0.0,0.0,0.0,1.29959996738,1,171.39391812879,325.2522902963466,366.6810900741747,16.527379697026376,-0.221785988886614,-1.4750801075172728,0,Fixed-Wing
1970-01-01 00:00:16.789942160,2498,1536701675719790947,base_link,0,1,40.5928096,-79.8993776,365.971782339,0.324899991846,0.0,0.0,0.0,0.324899991846,0.0,0.0,0.0,1.29959996738,1,178.0393687150433,325.30793546026405,365.9609852191538,16.61200679497075,0.13909934760726106,-1.8000866291057867,0,Fixed-Wing
1970-01-01 00:00:17.197144715,2500,1536701676126963859,base_link,0,1,40.5928113,-79.8992976,365.311863147,0.324899991846,0.0,0.0,0.0,0.324899991846,0.0,0.0,0.0,1.29959996738,1,184.81179964612437,325.4968556562612,365.30086400704715,16.929426708598566,0.472254445184413,-1.6501421414078972,0,Fixed-Wing
1970-01-01 00:00:17.595235505,2502,1536701676525002406,base_link,0,1,40.5928137,-79.8992166,364.881944698,0.324899991846,0.0,0.0,0.0,0.324899991846,0.0,0.0,0.0,1.29959996738,1,191.6688893981294,325.76353260444137,364.87072983242666,17.141053127332682,0.6666273742814844,-1.0752306015675752,0,Fixed-Wing
1970-01-01 00:00:17.995753678,2504,1536701676925665561,base_link,0,1,40.592816,-79.899135,364.742026912,0.324899991846,0.0,0.0,0.0,0.324899991846,0.0,0.0,0.0,1.29959996738,1,198.57678044248073,326.0191267944961,364.7305879378887,17.268043976590576,0.638923180126815,-0.35032058008838135,0,Fixed-Wing
1970-01-01 00:00:18.374816541,2506,1536701677304434393,base_link,0,1,40.5928184,-79.8990533,364.702109197,0.324899991846,0.0,0.0,0.0,0.324899991846,0.0,0.0,0.0,1.29959996738,1,205.49313918648875,326.28583797840525,364.69043779279775,17.289211161931767,0.6667129552597063,-0.10036557708356841,0,Fixed-Wing
1970-01-01 00:00:18.772204314,2508,1536701677702307245,base_link,0,1,40.5928199,-79.8989713,364.412192169,0.324899991846,0.0,0.0,0.0,0.324899991846,0.0,0.0,0.0,1.29959996738,1,212.43488857897708,326.452596302359,364.40028511450487,17.352681594765343,0.4168551665055891,-0.7253109779118637,0,Fixed-Wing
1970-01-01 00:00:19.176872215,2510,1536701678106984558,base_link,0,1,40.5928198,-79.8988889,364.292276217,0.324899991846,0.0,0.0,0.0,0.324899991846,0.0,0.0,0.0,1.29959996738,1,219.41051035727503,326.4416869524225,364.28013392079924,17.437354303700264,-0.02727071594636766,-0.3003487002657838,0,Fixed-Wing
1970-01-01 00:00:19.626869089,2512,1536701678554665357,base_link,0,1,40.5928205,-79.8988066,364.592359846,0.324899991846,0.0,0.0,0.0,0.324899991846,0.0,0.0,0.0,1.29959996738,1,226.37767851646083,326.5196473473903,364.57997043128887,17.41622231628867,0.19488198642572538,0.749518198199742,0,Fixed-Wing
1970-01-01 00:00:19.994936852,2514,1536701678925021793,base_link,0,1,40.5928218,-79.8987247,365.132442832,0.324899991846,0.0,0.0,0.0,0.324899991846,0.0,0.0,0.0,1.29959996738,1,233.31099160272507,326.6642569712886,365.1197965139816,17.331592885354265,0.36148881458633925,1.3494336369522504,0,Fixed-Wing
1970-01-01 00:00:20.430898438,2516,1536701679360733812,base_link,0,1,40.5928236,-79.8986437,365.812524705,0.324899991846,0.0,0.0,0.0,0.324899991846,0.0,0.0,0.0,1.29959996738,1,240.1681189726557,326.86440401954354,365.7996139663318,17.141147162978168,0.5003188395505491,1.699377941526112,0,Fixed-Wing
1970-01-01 00:00:20.811032265,2518,1536701679741143456,base_link,0,1,40.592825,-79.8985634,366.322606039,0.324899991846,0.0,0.0,0.0,0.324899991846,0.0,0.0,0.0,1.29959996738,1,246.96598336173363,327.02012573894433,366.30942808811363,16.99300415478977,0.3892663450333283,1.2744110493773306,0,Fixed-Wing
1970-01-01 00:00:21.206830350,2520,1536701680135676870,base_link,0,1,40.5928264,-79.8984838,366.61268667,0.324899991846,0.0,0.0,0.0,0.324899991846,0.0,0.0,0.0,1.29959996738,1,253.70458084392564,327.1758403542696,366.5992366218393,16.8448513324751,0.38924858657600936,0.7244507003708327,0,Fixed-Wing
1970-01-01 00:00:21.581608713,2522,1536701680511513265,base_link,0,1,40.5928273,-79.8984044,366.852767313,0.324899991846,0.0,0.0,0.0,0.324899991846,0.0,0.0,0.0,1.29959996738,1,260.4262474214167,327.2760316867078,366.839041600549,16.802528197228394,0.2504539118391318,0.5994540000093542,0,Fixed-Wing
1970-01-01 00:00:21.982205763,2524,1536701680911938987,base_link,0,1,40.5928287,-79.8983255,366.84284725,0.324899991846,0.0,0.0,0.0,0.324899991846,0.0,0.0,0.0,1.29959996738,1,267.10557404421036,327.43174093063277,366.828837714149,16.696688629842757,0.3892351593843248,-0.025507229045184265,0,Fixed-Wing
1970-01-01 00:00:22.428716008,2526,1536701681358758628,base_link,0,1,40.5928301,-79.8982464,366.502927402,0.324899991846,0.0,0.0,0.0,0.324899991846,0.0,0.0,0.0,1.29959996738,1,273.8018173540794,327.58743979127496,366.48862632638475,16.738976224490695,0.38920920370811257,-0.8504455509694568,0,Fixed-Wing
1970-01-01 00:00:22.774534080,2528,1536701681704443819,base_link,0,1,40.5928311,-79.898167,366.063008035,0.324899991846,0.0,0.0,0.0,0.324899991846,0.0,0.0,0.0,1.29959996738,1,280.5234536495852,327.6987194819956,366.0484095679288,16.802452499645756,0.2781721050214213,-1.1004346037660344,0,Fixed-Wing
1970-01-01 00:00:23.190679568,2530,1536701682120787461,base_link,0,1,40.5928307,-79.8980871,365.753089766,0.324899991846,0.0,0.0,0.0,0.324899991846,0.0,0.0,0.0,1.29959996738,1,287.2874284836416,327.6545401446392,365.73819293959116,16.908288527009613,-0.11043757572739407,-0.7754659629126854,0,Fixed-Wing
1970-01-01 00:00:23.590143038,2532,1536701682520353274,base_link,0,1,40.5928301,-79.8980072,365.503171589,0.33639998064,0.0,0.0,0.0,0.33639998064,0.0,0.0,0.0,1.34559992256,1,294.0514063786682,327.58815955228386,365.4879703811028,16.908296178689184,-0.16593530219643138,-0.6254954104183852,0,Fixed-Wing
1970-01-01 00:00:23.990272903,2534,1536701682920417322,base_link,0,1,40.5928296,-79.897927,365.273253689,0.324899991846,0.0,0.0,0.0,0.324899991846,0.0,0.0,0.0,1.29959996738,1,300.840781052679,327.53289240026834,365.2577391673514,16.97178193628818,-0.1381544099838197,-0.5755219209911556,0,Fixed-Wing
1970-01-01 00:00:24.397228101,2536,1536701683327136303,base_link,0,1,40.5928293,-79.8978473,365.313335207,0.324899991846,0.0,0.0,0.0,0.324899991846,0.0,0.0,0.0,1.29959996738,1,307.58783960117813,327.4998540683314,365.2975010517641,16.86600193605905,-0.08258777753406611,0.09939502001718706,0,Fixed-Wing
1970-01-01 00:00:24.797052571,2538,1536701683727126564,base_link,0,1,40.5928297,-79.8977684,365.523415629,0.324899991846,0.0,0.0,0.0,0.324899991846,0.0,0.0,0.0,1.29959996738,1,314.2671788590508,327.54456443426596,365.5072540421481,16.696720214460694,0.11176501774721244,0.5243313536530291,0,Fixed-Wing
1970-01-01 00:00:25.206023987,2540,1536701684136168470,base_link,0,1,40.5928311,-79.8976903,365.713494833,0.324899991846,0.0,0.0,0.0,0.324899991846,0.0,0.0,0.0,1.29959996738,1,320.8787881678642,327.7003292709001,365.69699651331666,16.527411849378186,0.3893741276079287,0.4743099327030259,0,Fixed-Wing
1970-01-01 00:00:25.568142621,2542,1536701684497933178,base_link,0,1,40.592833,-79.8976129,365.673573126,0.324899991846,0.0,0.0,0.0,0.324899991846,0.0,0.0,0.0,1.29959996738,1,327.4311244070463,327.9116117409152,365.65673140611784,16.379243621702198,0.5281546799563996,-0.10065295433400309,0,Fixed-Wing
1970-01-01 00:00:25.971012146,2544,1536701684897923279,base_link,0,1,40.5928351,-79.8975349,365.523651959,0.324899991846,0.0,0.0,0.0,0.324899991846,0.0,0.0,0.0,1.29959996738,1,334.03424683350335,328.1451070566567,365.50645630716565,16.506196711963206,0.5836813804191415,-0.3756511213961459,0,Fixed-Wing
1970-01-01 00:00:26.407935311,2546,1536701685338038530,base_link,0,1,40.5928369,-79.8974565,365.433731335,0.324899991846,0.0,0.0,0.0,0.324899991846,0.0,0.0,0.0,1.29959996738,1,340.67123551352415,328.3452971258479,365.41617482862944,16.59085409177807,0.5004263814057984,-0.22568169237552463,0,Fixed-Wing
1970-01-01 00:00:26.791326530,2548,1536701685721092566,base_link,0,1,40.5928381,-79.8973782,365.643810866,0.324899991846,0.0,0.0,0.0,0.324899991846,0.0,0.0,0.0,1.29959996738,1,347.29977750446113,328.4788767391443,365.6258905030204,16.569739427748246,0.3339164763846358,0.5242380727653144,0,Fixed-Wing
1970-01-01 00:00:27.197070613,2550,1536701686127048121,base_link,0,1,40.5928389,-79.8973002,365.903890265,0.324899991846,0.0,0.0,0.0,0.324899991846,0.0,0.0,0.0,1.29959996738,1,353.90292787761734,328.568042656115,365.8856028632946,16.50626657189977,0.2228930603532939,0.6492176019692908,0,Fixed-Wing
1970-01-01 00:00:27.566228356,2552,1536701686496155893,base_link,0,1,40.5928395,-79.8972223,366.073969655,0.324899991846,0.0,0.0,0.0,0.324899991846,0.0,0.0,0.0,1.29959996738,1,360.49760906281074,328.63499888504947,366.05531001315194,16.485095666156038,0.1673742533465155,0.42422651255838817,0,Fixed-Wing
1970-01-01 00:00:28.010908341,2554,1536701686931761600,base_link,0,1,40.59284,-79.8971447,366.26404879,0.324899991846,0.0,0.0,0.0,0.324899991846,0.0,0.0,0.0,1.29959996738,1,367.06689548062354,328.6908554919619,366.24501213215854,16.42161493707565,0.1396279035604379,0.47420906213293473,0,Fixed-Wing
1970-01-01 00:00:28.385030360,2556,1536701687315116357,base_link,0,1,40.5928411,-79.8970673,366.314127482,0.324899991846,0.0,0.0,0.0,0.324899991846,0.0,0.0,0.0,1.29959996738,1,373.6192395312755,328.8133412711643,366.29470459912557,16.37926314847298,0.30618459500800366,0.12421905605961087,0,Fixed-Wing
1970-01-01 00:00:28.766899788,2558,1536701687696493279,base_link,0,1,40.5928421,-79.8969897,366.294206431,0.324899991846,0.0,0.0,0.0,0.324899991846,0.0,0.0,0.0,1.29959996738,1,380.18851099955674,328.9247248133022,366.27439016506185,16.421577566890267,0.27843170825319735,-0.0507811339987374,0,Fixed-Wing
1970-01-01 00:00:29.159835702,2560,1536701688089828832,base_link,0,1,40.5928428,-79.8969118,366.17428582,0.324899991846,0.0,0.0,0.0,0.324899991846,0.0,0.0,0.0,1.29959996738,1,386.7831745980055,329.00279455785545,366.15406959753255,16.485051703580734,0.19515533373811303,-0.3007720935441061,0,Fixed-Wing
1970-01-01 00:00:29.562467858,2562,1536701688492152391,base_link,0,1,40.5928427,-79.8968334,366.014366061,0.324899991846,0.0,0.0,0.0,0.324899991846,0.0,0.0,0.0,1.29959996738,1,393.42016785598514,328.9920283512446,365.9937450609011,16.590865535559455,-0.02691289252014768,-0.400772266282626,0,Fixed-Wing
1970-01-01 00:00:30.001548446,2564,1536701688931150356,base_link,0,1,40.5928417,-79.8967544,365.794447299,0.348099969053,0.0,0.0,0.0,0.348099969053,0.0,0.0,0.0,1.39239987621,1,400.10795579092877,328.88132049128046,365.77341660836544,16.717839847973895,-0.27674266750022547,-0.5507674315146327,0,Fixed-Wing
1970-01-01 00:00:30.394553859,2566,1536701689324592958,base_link,0,1,40.5928385,-79.8966745,365.534530377,0.348099969053,0.0,0.0,0.0,0.348099969053,0.0,0.0,0.0,1.39239987621,1,406.87194432725585,328.52630539230523,365.5130907570606,16.908322779346705,-0.8874512209440322,-0.6507511800220875,0,Fixed-Wing
1970-01-01 00:00:30.787775674,2568,1536701689715562658,base_link,0,1,40.5928321,-79.8965941,365.334615302,0.348099969053,0.0,0.0,0.0,0.348099969053,0.0,0.0,0.0,1.39239987621,1,413.6782843850108,327.81593415182476,365.31277514622246,17.014191260739423,-1.7757549650920776,-0.500740204925314,0,Fixed-Wing
1970-01-01 00:00:31.190359267,2570,1536701690120124278,base_link,0,1,40.5928215,-79.8965134,365.024702283,0.348099969053,0.0,0.0,0.0,0.348099969053,0.0,0.0,0.0,1.39239987621,1,420.5100410798881,326.6391448003774,365.002476545767,17.07772665884401,-2.941686564178449,-0.7756708732284592,0,Fixed-Wing
1970-01-01 00:00:31.587933222,2572,1536701690516784096,base_link,0,1,40.5928054,-79.8964335,364.804790734,0.348099969053,0.0,0.0,0.0,0.348099969053,0.0,0.0,0.0,1.39239987621,1,427.2741157654773,324.85157427947667,364.7822076335547,16.9085381315052,-4.4684906244159075,-0.550618595217728,0,Fixed-Wing
1970-01-01 00:00:32.005678898,2574,1536701690935860964,base_link,0,1,40.5927806,-79.8963544,364.544881983,0.348099969053,0.0,0.0,0.0,0.348099969053,0.0,0.0,0.0,1.39239987621,1,433.9705222049378,322.0978481066363,364.521987431294,16.73938400871048,-6.883644276783876,-0.6504870831611709,0,Fixed-Wing
1970-01-01 00:00:32.365489780,2576,1536701691295571264,base_link,0,1,40.5927463,-79.8962787,364.424973703,0.348099969053,0.0,0.0,0.0,0.348099969053,0.0,0.0,0.0,1.39239987621,1,440.3791755472771,318.28912035888345,364.4018321981199,16.020071398886806,-9.520891082501628,-0.3003587979524564,0,Fixed-Wing
1970-01-01 00:00:32.777879672,2578,1536701691707576210,base_link,0,1,40.592703,-79.896209,364.39506303,0.348099969053,0.0,0.0,0.0,0.348099969053,0.0,0.0,0.0,1.39239987621,1,446.2799666124673,313.4809006807546,364.37175068444174,14.750539485375725,-12.019377306034823,-0.07519645254130063,0,Fixed-Wing
1970-01-01 00:00:33.156335489,2580,1536701692086560835,base_link,0,1,40.5926515,-79.8961469,364.395147997,0.348099969053,0.0,0.0,0.0,0.348099969053,0.0,0.0,0.0,1.39239987621,1,451.5374380450609,307.76201851341887,364.37174535031556,13.14239719775723,-14.295811576710575,-1.3334015363187669e-05,0,Fixed-Wing
1970-01-01 00:00:33.562250422,2582,1536701692490993671,base_link,0,1,40.5925923,-79.896095,364.405225738,0.348099969053,0.0,0.0,0.0,0.348099969053,0.0,0.0,0.0,1.39239987621,1,455.93148010156904,301.18798422935265,364.3818255440714,10.984034197935983,-16.4334834455296,0.025198027581840036,0,Fixed-Wing
1970-01-01 00:00:34.003992624,2584,1536701692932861201,base_link,0,1,40.5925264,-79.8960556,364.515293484,0.348099969053,0.0,0.0,0.0,0.348099969053,0.0,0.0,0.0,1.39239987621,1,459.2673828075053,293.8698408502157,364.49199650881195,8.338943717828242,-18.29357482429695,0.27540056029680987,0,Fixed-Wing
1970-01-01 00:00:34.356412456,2586,1536701693286619139,base_link,0,1,40.5924561,-79.8960291,364.63534987,0.348099969053,0.0,0.0,0.0,0.348099969053,0.0,0.0,0.0,1.39239987621,1,461.5112593817079,286.0630009852221,364.6122469385409,5.609144543913332,-19.515196930783265,0.30059676613772474,0,Fixed-Wing
1970-01-01 00:00:34.835112756,2588,1536701693763321660,base_link,0,1,40.5923837,-79.8960174,364.995391992,0.348099969053,0.0,0.0,0.0,0.348099969053,0.0,0.0,0.0,1.39239987621,1,462.50226079846595,278.0228841988643,364.9725737751741,2.4772620088493404,-20.09833237848767,0.9007292704791078,0,Fixed-Wing
1970-01-01 00:00:35.180719101,2590,1536701694110896877,base_link,0,1,40.5923124,-79.8960192,365.765419845,0.396899993992,0.0,0.0,0.0,0.396899993992,0.0,0.0,0.0,1.58759997597,1,462.3504264620612,270.10487082486827,365.74295367254325,-0.37954883500048986,-19.793103607388325,1.9257619816296392,0,Fixed-Wing
1970-01-01 00:00:35.539252188,2592,1536701694468675918,base_link,0,1,40.5922441,-79.8960301,366.965437144,0.396899993992,0.0,0.0,0.0,0.396899993992,0.0,0.0,0.0,1.58759997597,1,461.4282288903794,262.51998294920907,366.94335512159705,-2.305269165460884,-18.960371052970352,3.000711053306802,0,Fixed-Wing
1970-01-01 00:00:35.969055830,2594,1536701694899239848,base_link,0,1,40.5921784,-79.896044,368.185450305,0.36000002861,0.0,0.0,0.0,0.36000002861,0.0,0.0,0.0,1.44000011444,1,460.2520431723963,255.2238139273761,368.16374998843816,-2.9401776276389553,-18.238644286764423,3.050689724854588,0,Fixed-Wing
1970-01-01 00:00:36.385060688,2596,1536701695311452392,base_link,0,1,40.5921145,-79.896058,369.065462631,0.36000002861,0.0,0.0,0.0,0.36000002861,0.0,0.0,0.0,1.44000011444,1,459.0673522955842,248.1275230577735,369.0441282578259,-2.9614384517812327,-17.738997621738445,2.200731102186871,0,Fixed-Wing
1970-01-01 00:00:36.788124014,2598,1536701695717956795,base_link,0,1,40.5920514,-79.8960706,369.495476077,0.36000002861,0.0,0.0,0.0,0.36000002861,0.0,0.0,0.0,1.44000011444,1,458.0011404818474,241.12006271056737,369.4744876500089,-2.665269670549121,-17.51694296607611,1.0757935905824005,0,Fixed-Wing
1970-01-01 00:00:37.215549509,2600,1536701696144750756,base_link,0,1,40.591989,-79.8960807,369.465491811,0.36000002861,0.0,0.0,0.0,0.36000002861,0.0,0.0,0.0,1.44000011444,1,457.1465307589823,234.19033442891066,369.444823432817,-2.1363160163512074,-17.322631747546385,-0.07415331303174812,0,Fixed-Wing
1970-01-01 00:00:37.594316932,2602,1536701696523793355,base_link,0,1,40.5919256,-79.8960884,369.265510444,0.36000002861,0.0,0.0,0.0,0.36000002861,0.0,0.0,0.0,1.44000011444,1,456.49509052855615,227.1495602801137,369.24514389971654,-1.628441802989575,-17.60021935060574,-0.4991501656099441,0,Fixed-Wing
1970-01-01 00:00:38.033457159,2604,1536701696961369855,base_link,0,1,40.5918617,-79.8960922,368.865533303,0.36000002861,0.0,0.0,0.0,0.36000002861,0.0,0.0,0.0,1.44000011444,1,456.17380020673835,220.0532737526284,368.845439086659,-0.803147497663474,-17.738986767503395,-0.9991646140940098,0,Fixed-Wing
1970-01-01 00:00:38.425559510,2606,1536701697355522517,base_link,0,1,40.591797,-79.8960928,368.4455598,0.36000002861,0.0,0.0,0.0,0.36000002861,0.0,0.0,0.0,1.44000011444,1,456.12341569699987,212.86816214464304,368.42571361502223,-0.12594899431924964,-17.96102781975098,-1.0492113809822354,0,Fixed-Wing
1970-01-01 00:00:38.808317690,2608,1536701697737999790,base_link,0,1,40.5917319,-79.8960903,367.925589665,0.36000002861,0.0,0.0,0.0,0.36000002861,0.0,0.0,0.0,1.44000011444,1,456.3354635866153,205.63864341437016,367.90596608842236,0.5300680424043792,-18.072034802288957,-1.2992421403909917,0,Fixed-Wing
1970-01-01 00:00:39.170449385,2610,1536701698097161819,base_link,0,1,40.5916664,-79.8960852,367.305622386,0.36000002861,0.0,0.0,0.0,0.36000002861,0.0,0.0,0.0,1.44000011444,1,456.7676159947628,198.36471534485406,367.2861988467197,1.0802756934887463,-18.183047326675908,-1.549267050719243,0,Fixed-Wing
1970-01-01 00:00:39.606339391,2612,1536701698535805442,base_link,0,1,40.5915998,-79.896079,366.67565672,0.36000002861,0.0,0.0,0.0,0.36000002861,0.0,0.0,0.0,1.44000011444,1,457.2928988791957,190.96863654719124,366.6564218721155,1.313079185861622,-18.48839437570543,-1.5742889433384484,0,Fixed-Wing
1970-01-01 00:00:39.999670751,2614,1536701698929738181,base_link,0,1,40.5915321,-79.896073,366.125691334,0.36000002861,0.0,0.0,0.0,0.36000002861,0.0,0.0,0.0,1.44000011444,1,457.8012644767297,183.45040295360823,366.1066412739592,1.2707900918010728,-18.79375159317718,-1.3743174994345635,0,Fixed-Wing
1970-01-01 00:00:40.402556667,2616,1536701699332291331,base_link,0,1,40.5914636,-79.8960684,365.755724873,0.36000002861,0.0,0.0,0.0,0.36000002861,0.0,0.0,0.0,1.44000011444,1,458.19112905733493,175.843326549991,365.7368616344161,0.9745664312859644,-19.015836964939023,-0.924358973857898,0,Fixed-Wing
1970-01-01 00:00:40.797092258,2618,1536701699727296059,base_link,0,1,40.5913948,-79.8960648,365.505757537,0.36000002861,0.0,0.0,0.0,0.36000002861,0.0,0.0,0.0,1.44000011444,1,458.4963475905771,168.20293339008683,365.48707895888856,0.7629719433409459,-19.0991207354887,-0.6243958102272847,0,Fixed-Wing
1970-01-01 00:00:41.204343215,2620,1536701700134625478,base_link,0,1,40.5913257,-79.8960621,365.235789428,0.36000002861,0.0,0.0,0.0,0.36000002861,0.0,0.0,0.0,1.44000011444,1,458.72537554880154,160.52922002146903,365.2172926358795,0.5725140754387328,-19.18241313626371,-0.6744000535173905,0,Fixed-Wing
1970-01-01 00:00:41.607899976,2622,1536701700537664572,base_link,0,1,40.5912566,-79.8960608,365.005819907,0.384400005913,0.0,0.0,0.0,0.384400005913,0.0,0.0,0.0,1.53760002365,1,458.83588614775334,152.85550106964143,364.98750415121333,0.2762495630471158,-19.18242709292743,-0.5744152061828655,0,Fixed-Wing
1970-01-01 00:00:41.971959056,2624,1536701700901868250,base_link,0,1,40.5911874,-79.8960606,364.865849323,0.384400005913,0.0,0.0,0.0,0.384400005913,0.0,0.0,0.0,1.53760002365,1,458.8532806304801,145.17067384806177,364.8477122908996,0.043481967325150826,-19.210195059930825,-0.349445579840269,0,Fixed-Wing
1970-01-01 00:00:42.385976123,2626,1536701701316097589,base_link,0,1,40.5911186,-79.896061,364.985877978,0.384400005913,0.0,0.0,0.0,0.384400005913,0.0,0.0,0.0,1.53760002365,1,458.8198964074747,137.53027050102781,364.967913075267,-0.08345242090256583,-19.0991462008303,0.3004726648336743,0,Fixed-Wing
1970-01-01 00:00:42.796507392,2628,1536701701726435185,base_link,0,1,40.5910502,-79.8960629,365.155904948,0.384400005913,0.0,0.0,0.0,0.384400005913,0.0,0.0,0.0,1.53760002365,1,458.659526133033,129.93428111986188,365.13811121359583,-0.40088659966072077,-18.988122111009016,0.4254538640703243,0,Fixed-Wing
1970-01-01 00:00:43.159253175,2630,1536701702088430765,base_link,0,1,40.5909824,-79.8960679,365.185928505,0.384400005913,0.0,0.0,0.0,0.384400005913,0.0,0.0,0.0,1.53760002365,1,458.2367016449516,122.40490402761776,365.168314418829,-1.0569581667822467,-18.82160762386697,0.07550065176943353,0,Fixed-Wing
1970-01-01 00:00:43.602908356,2632,1536701702532458695,base_link,0,1,40.5909153,-79.8960774,365.035947169,0.36000002861,0.0,0.0,0.0,0.36000002861,0.0,0.0,0.0,1.44000011444,1,457.43289735216945,114.9532370072238,365.01852968410026,-2.0093148237600853,-18.627351384224927,-0.3744253303522128,0,Fixed-Wing
1970-01-01 00:00:43.998182915,2634,1536701702927993128,base_link,0,1,40.5908492,-79.8960941,364.755958038,0.36000002861,0.0,0.0,0.0,0.36000002861,0.0,0.0,0.0,1.44000011444,1,456.01953678490963,107.61258338033736,364.73876999490477,-3.5330569450973908,-18.349844957332785,-0.6993310382124912,0,Fixed-Wing
1970-01-01 00:00:44.391482647,2636,1536701703317978519,base_link,0,1,40.5907851,-79.8961203,364.465958326,0.36000002861,0.0,0.0,0.0,0.36000002861,0.0,0.0,0.0,1.44000011444,1,453.8019062411185,100.49398632732348,364.44904463139835,-5.543535864731017,-17.794757643664422,-0.7242427950935292,0,Fixed-Wing
1970-01-01 00:00:44.794518379,2638,1536701703724251347,base_link,0,1,40.5907243,-79.8961573,364.135946143,0.36000002861,0.0,0.0,0.0,0.36000002861,0.0,0.0,0.0,1.44000011444,1,450.66993711403484,93.74180753905682,364.11935724815885,-7.829159474660382,-16.87880128754112,-0.8241381046335537,0,Fixed-Wing
1970-01-01 00:00:45.200501241,2640,1536701704130570368,base_link,0,1,40.5906681,-79.8962054,363.855920626,0.36000002861,0.0,0.0,0.0,0.36000002861,0.0,0.0,0.0,1.44000011444,1,446.5982277172238,87.50041600017738,363.8397066013247,-10.17828110961946,-15.60195765632711,-0.6990584588856847,0,Fixed-Wing
1970-01-01 00:00:45.541929142,2642,1536701704471854855,base_link,0,1,40.5906179,-79.8962639,363.605881897,0.36000002861,0.0,0.0,0.0,0.36000002861,0.0,0.0,0.0,1.44000011444,1,441.6460268556221,81.9252895622275,363.5900864209877,-12.379295172724865,-13.936457290288889,-0.6239896118553191,0,Fixed-Wing
1970-01-01 00:00:45.981181348,2644,1536701704911201496,base_link,0,1,40.5905758,-79.8963329,363.455828957,0.36000002861,0.0,0.0,0.0,0.36000002861,0.0,0.0,0.0,1.44000011444,1,435.80485920874423,77.24964008670256,363.4404931612452,-14.6014954713862,-11.687984110361613,-0.37394668955406024,0,Fixed-Wing
1970-01-01 00:00:46.396911286,2646,1536701705327029359,base_link,0,1,40.5905428,-79.89641,363.405763846,0.36000002861,0.0,0.0,0.0,0.36000002861,0.0,0.0,0.0,1.44000011444,1,429.27789903895103,73.58453339782196,363.3909134725755,-16.315809633043777,-9.161873439541141,-0.12393713780323086,0,Fixed-Wing
1970-01-01 00:00:46.791093143,2648,1536701705721315864,base_link,0,1,40.5905198,-79.8964923,363.515689155,0.36000002861,0.0,0.0,0.0,0.36000002861,0.0,0.0,0.0,1.44000011444,1,422.310655765811,71.02993276827732,363.50133224897,-17.416410082866957,-6.385878950663904,0.27602002903344575,0,Fixed-Wing
1970-01-01 00:00:47.203870766,2650,1536701706134092526,base_link,0,1,40.5905074,-79.8965768,363.82560771,0.36000002861,0.0,0.0,0.0,0.36000002861,0.0,0.0,0.0,1.44000011444,1,415.15710606950574,69.65248526925035,363.8117349790005,-17.882130733016723,-3.443283027472249,0.7759311717869739,0,Fixed-Wing
1970-01-01 00:00:47.566633195,2652,1536701706496038231,base_link,0,1,40.5905052,-79.8966598,364.505523479,0.36000002861,0.0,0.0,0.0,0.36000002861,0.0,0.0,0.0,1.44000011444,1,408.1305025326618,69.4077895271036,364.49210625090274,-17.564796274473082,-0.6116797165944969,1.7007623554259248,0,Fixed-Wing
1970-01-01 00:00:47.989674217,2654,1536701706919684761,base_link,0,1,40.5905103,-79.8967387,365.565440364,0.33639998064,0.0,0.0,0.0,0.33639998064,0.0,0.0,0.0,1.34559992256,1,401.45097745044836,69.97380555130911,365.5524402315697,-16.697184730022435,1.414902107558288,2.6505765204566045,0,Fixed-Wing
1970-01-01 00:00:48.387905637,2656,1536701707317916085,base_link,0,1,40.5905192,-79.8968132,366.81536016,0.33639998064,0.0,0.0,0.0,0.33639998064,0.0,0.0,0.0,1.34559992256,1,395.14393833003214,70.9618487264566,366.80274236349067,-15.766060610131065,2.4698671258239364,3.1254505983691323,0,Fixed-Wing
1970-01-01 00:00:48.792978107,2658,1536701707723103703,base_link,0,1,40.5905287,-79.8968845,367.945282993,0.33639998064,0.0,0.0,0.0,0.33639998064,0.0,0.0,0.0,1.34559992256,1,389.10779510746596,72.01654185615331,367.93302390199756,-15.088886889943685,2.636475767854424,2.825428367001449,0,Fixed-Wing
1970-01-01 00:00:49.186812441,2660,1536701708116997675,base_link,0,1,40.5905368,-79.8969535,368.715208791,0.33639998064,0.0,0.0,0.0,0.33639998064,0.0,0.0,0.0,1.34559992256,1,383.26635260605246,72.91577271199341,368.70329263103156,-14.60218254073602,2.2478579734478443,1.9254840878864334,0,Fixed-Wing
1970-01-01 00:00:49.592965095,2662,1536701708520292513,base_link,0,1,40.5905432,-79.8970208,369.095137063,0.33639998064,0.0,0.0,0.0,0.33639998064,0.0,0.0,0.0,1.34559992256,1,377.5688162091102,73.62622197322688,369.0835520434473,-14.242452353251231,1.7759499979588587,0.950555851843794,0,Fixed-Wing
1970-01-01 00:00:50.015436429,2664,1536701708945555783,base_link,0,1,40.590548,-79.8970878,369.16506633,0.36000002861,0.0,0.0,0.0,0.36000002861,0.0,0.0,0.0,1.44000011444,1,371.8966686121282,74.15898940688041,369.1538078845981,-14.178986541267157,1.3317887347321946,0.17562247968525754,0,Fixed-Wing
1970-01-01 00:00:50.372098345,2666,1536701709302116861,base_link,0,1,40.5905506,-79.897155,368.954996334,0.33639998064,0.0,0.0,0.0,0.33639998064,0.0,0.0,0.0,1.34559992256,1,366.2075859335364,74.4474416786581,368.9440632180246,-14.221320117768094,0.7210603760575496,-0.5243105461554979,0,Fixed-Wing
1970-01-01 00:00:50.791606351,2668,1536701709721785568,base_link,0,1,40.5905515,-79.897223,368.554926246,0.33639998064,0.0,0.0,0.0,0.33639998064,0.0,0.0,0.0,1.34559992256,1,360.4507756234799,74.54710362753113,368.5443194137947,-14.390622689429016,0.24913058195084628,-0.999262082521703,0,Fixed-Wing
1970-01-01 00:00:51.214364482,2670,1536701710144320190,base_link,0,1,40.5905509,-79.897292,367.814855778,0.33639998064,0.0,0.0,0.0,0.33639998064,0.0,0.0,0.0,1.34559992256,1,354.60929667800576,74.48018336104656,367.8045766904045,-14.602273642005247,-0.16728435598672312,-1.8491765137654987,0,Fixed-Wing
1970-01-01 00:00:51.628060820,2672,1536701710558197332,base_link,0,1,40.5905495,-79.8973622,367.014784428,0.33639998064,0.0,0.0,0.0,0.33639998064,0.0,0.0,0.0,1.34559992256,1,348.66622960312003,74.3244203072828,367.00483433057684,-14.856219205841763,-0.3893696708664994,-1.9991609813733981,0,Fixed-Wing
1970-01-01 00:00:52.020004039,2674,1536701710947740508,base_link,0,1,40.5905474,-79.8974339,366.334711845,0.33639998064,0.0,0.0,0.0,0.33639998064,0.0,0.0,0.0,1.34559992256,1,342.59618596933507,74.09092091524593,366.32509291951084,-15.173629655570988,-0.5836915701640635,-1.699187856848968,0,Fixed-Wing
1970-01-01 00:00:52.390446267,2676,1536701711320572375,base_link,0,1,40.5905441,-79.8975065,365.784638857,0.33639998064,0.0,0.0,0.0,0.33639998064,0.0,0.0,0.0,1.34559992256,1,336.4499634274489,73.72416172353601,365.7753508855259,-15.364058359025433,-0.9168085904372257,-1.3742210984052943,0,Fixed-Wing
1970-01-01 00:00:52.823433192,2678,1536701711753127105,base_link,0,1,40.59054,-79.8975799,365.484565397,0.33639998064,0.0,0.0,0.0,0.33639998064,0.0,0.0,0.0,1.34559992256,1,330.2360313729543,73.26856563823509,365.4756069701996,-15.53331563796178,-1.1388791725329914,-0.7492867328593039,0,Fixed-Wing
1970-01-01 00:00:53.229904591,2680,1536701712159881267,base_link,0,1,40.5905359,-79.8976535,365.374491741,0.302500013113,0.0,0.0,0.0,0.302500013113,0.0,0.0,0.0,1.21000005245,1,324.00517707028257,72.81297621402746,365.36585763827077,-15.57561713400876,-1.1388625214232377,-0.2743465810303759,0,Fixed-Wing
1970-01-01 00:00:53.568750396,2682,1536701712498875032,base_link,0,1,40.5905323,-79.8977273,365.304417676,0.302500013113,0.0,0.0,0.0,0.302500013113,0.0,0.0,0.0,1.21000005245,1,317.75739013497616,72.41291793521765,365.2961019996784,-15.617944588668626,-1.0000481923257698,-0.17437209520164035,0,Fixed-Wing
1970-01-01 00:00:54.001290817,2684,1536701712931360263,base_link,0,1,40.5905292,-79.8978012,365.274343306,0.302500013113,0.0,0.0,0.0,0.302500013113,0.0,0.0,0.0,1.21000005245,1,311.50113644187695,72.06839119018346,365.2663397020457,-15.639109419579619,-0.8612328923784615,-0.07439849022898959,0,Fixed-Wing
1970-01-01 00:00:54.391718615,2686,1536701713319263364,base_link,0,1,40.5905277,-79.8978749,365.314268472,0.302500013113,0.0,0.0,0.0,0.302500013113,0.0,0.0,0.0,1.21000005245,1,305.2618100102622,71.90155498401097,365.30656798046897,-15.596795391486221,-0.4170498530705522,0.10056089137130442,0,Fixed-Wing
1970-01-01 00:00:54.796146329,2688,1536701713725862522,base_link,0,1,40.590527,-79.8979485,365.27419341,0.302500013113,0.0,0.0,0.0,0.302500013113,0.0,0.0,0.0,1.21000005245,1,299.0309417679804,71.82356533784866,365.2667885344024,-15.575651979636524,-0.1949551072828104,-0.09943891987175006,0,Fixed-Wing
1970-01-01 00:00:55.229522617,2690,1536701714159702090,base_link,0,1,40.5905272,-79.8980224,365.204117669,0.302500013113,0.0,0.0,0.0,0.302500013113,0.0,0.0,0.0,1.21000005245,1,292.7746706066418,71.84552670092825,365.1970023661757,-15.639153085920595,0.05489805513858251,-0.17444841184659227,0,Fixed-Wing
1970-01-01 00:00:55.609492767,2692,1536701714539619836,base_link,0,1,40.5905281,-79.8980966,365.184041334,0.302500013113,0.0,0.0,0.0,0.302500013113,0.0,0.0,0.0,1.21000005245,1,286.4930013087431,71.94522956711512,365.17720973717803,-15.702642237128636,0.2492328652628218,-0.04947674851117902,0,Fixed-Wing
1970-01-01 00:00:56.009619848,2694,1536701714939861360,base_link,0,1,40.5905285,-79.8981715,365.143964504,0.302500013113,0.0,0.0,0.0,0.302500013113,0.0,0.0,0.0,1.21000005245,1,280.1520724445791,71.98940908352495,365.13741366096417,-15.850776709680733,0.11043802331729319,-0.09948049118676165,0,Fixed-Wing
1970-01-01 00:00:56.435270080,2696,1536701715365046552,base_link,0,1,40.5905287,-79.898247,365.033887154,0.302500013113,0.0,0.0,0.0,0.302500013113,0.0,0.0,0.0,1.21000005245,1,273.7603464213511,72.01138086023917,365.0276131995793,-15.977757226740508,0.054924086687108596,-0.2744743922088852,0,Fixed-Wing
1970-01-01 00:00:56.792890213,2698,1536701715722562070,base_link,0,1,40.5905286,-79.898323,364.973809429,0.302500013113,0.0,0.0,0.0,0.302500013113,0.0,0.0,0.0,1.21000005245,1,267.3262946689742,72.00004145289839,364.96780811602036,-16.083561233721934,-0.02834575464088413,-0.14949813282943936,0,Fixed-Wing
1970-01-01 00:00:57.184486774,2700,1536701716114564159,base_link,0,1,40.5905275,-79.8983997,365.11373142,0.302500013113,0.0,0.0,0.0,0.302500013113,0.0,0.0,0.0,1.21000005245,1,260.83299408913103,71.87765541353028,365.10799994138665,-16.231668861893844,-0.3059352697314745,0.35044539498970617,0,Fixed-Wing
1970-01-01 00:00:57.606922959,2702,1536701716537006427,base_link,0,1,40.5905256,-79.8984765,365.213653657,0.302500013113,0.0,0.0,0.0,0.302500013113,0.0,0.0,0.0,1.21000005245,1,254.331228593475,71.66643238446463,365.2081867481585,-16.25282908830397,-0.5280060920701477,0.25044259877619574,0,Fixed-Wing
1970-01-01 00:00:57.983826029,2704,1536701716914045581,base_link,0,1,40.5905236,-79.8985525,365.173576765,0.302500013113,0.0,0.0,0.0,0.302500013113,0.0,0.0,0.0,1.21000005245,1,247.89718430887194,71.44411046104491,365.16836529876247,-16.083542566107457,-0.5557506228635537,-0.09954391795803759,0,Fixed-Wing
1970-01-01 00:00:58.393144616,2706,1536701717323300463,base_link,0,1,40.5905223,-79.8986278,365.143500301,0.302500013113,0.0,0.0,0.0,0.302500013113,0.0,0.0,0.0,1.21000005245,1,241.5223985702927,71.2995327870579,365.1385346772885,-15.935410643910341,-0.3614089475951482,-0.07456928317986737,0,Fixed-Wing
1970-01-01 00:00:58.786806853,2708,1536701717717047885,base_link,0,1,40.5905216,-79.8987028,365.1034239,0.302500013113,0.0,0.0,0.0,0.302500013113,0.0,0.0,0.0,1.21000005245,1,235.17300774373,71.2215926791595,365.0986960720571,-15.871929553275264,-0.1948312736968132,-0.09958680336505349,0,Fixed-Wing
1970-01-01 00:00:59.214947370,2710,1536701718145096943,base_link,0,1,40.5905211,-79.8987774,365.003347833,0.302500013113,0.0,0.0,0.0,0.302500013113,0.0,0.0,0.0,1.21000005245,1,228.85747745366393,71.16586882198789,364.99885002734095,-15.787286464734885,-0.13929606156303287,-0.24959077668970603,0,Fixed-Wing
1970-01-01 00:00:59.584090516,2712,1536701718514089824,base_link,0,1,40.5905212,-79.8988519,364.793271624,0.302500013113,0.0,0.0,0.0,0.302500013113,0.0,0.0,0.0,1.21000005245,1,222.55040730301823,71.17678076199897,364.7889965555926,-15.766138178141881,0.027277190501636586,-0.5245825325740101,0,Fixed-Wing
1970-01-01 00:00:59.990748609,2714,1536701718920957372,base_link,0,1,40.5905217,-79.8989267,364.593194949,0.302500013113,0.0,0.0,0.0,0.302500013113,0.0,0.0,0.0,1.21000005245,1,216.21793906896906,71.2321183586738,364.58913675431717,-15.829627196471279,0.13833050446289477,-0.49960079211129094,0,Fixed-Wing
1970-01-01 00:01:00.410605227,2716,1536701719340621918,base_link,0,1,40.5905223,-79.8990015,364.563118241,0.302500013113,0.0,0.0,0.0,0.302500013113,0.0,0.0,0.0,1.21000005245,1,209.8854765996307,71.2985684712261,364.55927051592835,-15.829612786099274,0.16610908574489777,-0.07465831678616326,0,Fixed-Wing
1970-01-01 00:01:00.790316655,2718,1536701719720501089,base_link,0,1,40.5905225,-79.8990764,364.59304161,0.302500013113,0.0,0.0,0.0,0.302500013113,0.0,0.0,0.0,1.21000005245,1,203.54455157314248,71.32060345782739,364.5893988439353,-15.850767116426669,0.05508209599884984,0.0753134769534497,0,Fixed-Wing
1970-01-01 00:01:01.162816173,2720,1536701720092472439,base_link,0,1,40.5905221,-79.8991511,364.482965445,0.302500013113,0.0,0.0,0.0,0.302500013113,0.0,0.0,0.0,1.21000005245,1,197.2205556733184,71.27601129888592,364.4795215658923,-15.808448425838726,-0.111469529074589,-0.2746664151320984,0,Fixed-Wing
1970-01-01 00:01:01.584549852,2722,1536701720514600828,base_link,0,1,40.5905224,-79.8992256,364.192889199,0.302500013113,0.0,0.0,0.0,0.302500013113,0.0,0.0,0.0,1.21000005245,1,190.91348425630196,71.3091595732038,364.1896365706973,-15.766141343760061,0.08286260669055026,-0.7246418354085365,0,Fixed-Wing
1970-01-01 00:01:01.990168737,2724,1536701720919727814,base_link,0,1,40.5905233,-79.8992998,363.982813015,0.302500013113,0.0,0.0,0.0,0.302500013113,0.0,0.0,0.0,1.21000005245,1,184.63181169117246,71.40894612125678,363.9797439264132,-15.702650404409315,0.24944204953260904,-0.5246804543659045,0,Fixed-Wing
1970-01-01 00:01:02.400437635,2726,1536701721330645758,base_link,0,1,40.5905243,-79.8993734,363.852737412,0.302500013113,0.0,0.0,0.0,0.302500013113,0.0,0.0,0.0,1.21000005245,1,178.40093679903205,71.51984530435482,363.84984414223345,-15.575668602662256,0.277220928704555,-0.32471780046387977,0,Fixed-Wing
1970-01-01 00:01:02.796445686,2728,1536701721726343900,base_link,0,1,40.5905249,-79.8994465,363.732662497,0.302500013113,0.0,0.0,0.0,0.302500013113,0.0,0.0,0.0,1.21000005245,1,172.21239290934773,71.58632984036208,363.72993832483064,-15.46985141369798,0.16619513599240604,-0.2997353193133909,0,Fixed-Wing
1970-01-01 00:01:03.196404479,2730,1536701722126095863,base_link,0,1,40.5905254,-79.8995187,363.732588553,0.302500013113,0.0,0.0,0.0,0.302500013113,0.0,0.0,0.0,1.21000005245,1,166.10004540867547,71.64171732578481,363.73002562533895,-15.279379012226952,0.13845521417343665,0.00021822999335610404,0,Fixed-Wing
1970-01-01 00:01:03.592656207,2732,1536701722522528876,base_link,0,1,40.5905263,-79.8995902,363.772515163,0.302500013113,0.0,0.0,0.0,0.302500013113,0.0,0.0,0.0,1.21000005245,1,160.04695902239757,71.74153248372835,363.77010564526023,-15.131240669729445,0.24951356728603633,0.10019028125076991,0,Fixed-Wing
1970-01-01 00:01:03.992309541,2734,1536701722922348256,base_link,0,1,40.5905266,-79.8996613,363.632442444,0.302500013113,0.0,0.0,0.0,0.302500013113,0.0,0.0,0.0,1.21000005245,1,154.0277331724713,71.77471981796316,363.63018053379085,-15.04659758155148,0.08296024696294699,-0.34977867525261574,0,Fixed-Wing
1970-01-01 00:01:04.392051612,2736,1536701723322135016,base_link,0,1,40.590527,-79.8997322,363.482369895,0.302500013113,0.0,0.0,0.0,0.302500013113,0.0,0.0,0.0,1.21000005245,1,148.02543889351034,71.81901746823254,363.4802494033162,-15.004272780806273,0.1107333291738687,-0.3747912840364809,0,Fixed-Wing
1970-01-01 00:01:04.794623297,2738,1536701723724526664,base_link,0,1,40.5905276,-79.8998029,363.702297474,0.302500013113,0.0,0.0,0.0,0.302500013113,0.0,0.0,0.0,1.21000005245,1,142.0400844786061,71.88553491999858,363.700312131812,-14.96192724935378,0.16627741736688637,0.550103186178859,0,Fixed-Wing
1970-01-01 00:01:05.198231821,2740,1536701724128324893,base_link,0,1,40.5905273,-79.8998734,363.912225645,0.302500013113,0.0,0.0,0.0,0.302500013113,0.0,0.0,0.0,1.21000005245,1,136.0716630759441,71.85211025818913,363.91037061118664,-14.919598845767581,-0.08355350805658512,0.5250950016739669,0,Fixed-Wing
1970-01-01 00:01:05.602573135,2742,1536701724532210226,base_link,0,1,40.5905267,-79.8999439,363.942153951,0.302500013113,0.0,0.0,0.0,0.302500013113,0.0,0.0,0.0,1.21000005245,1,130.10323814269682,71.78537263749777,363.9404240240781,-14.9196076713702,-0.1668277860192529,0.07512620742339574,0,Fixed-Wing
1970-01-01 00:01:05.996269753,2744,1536701724926375213,base_link,0,1,40.590526,-79.9000147,363.922082001,0.302500013113,0.0,0.0,0.0,0.302500013113,0.0,0.0,0.0,1.21000005245,1,124.10941469796904,71.70753357052709,363.9204722248206,-14.983097759787873,-0.19457869600384545,-0.04987463536669076,0,Fixed-Wing
1970-01-01 00:01:06.421077650,2746,1536701725351208848,base_link,0,1,40.5905255,-79.9000859,363.782009567,0.302500013113,0.0,0.0,0.0,0.302500013113,0.0,0.0,0.0,1.21000005245,1,118.08172518275887,71.65190790667003,363.7805146906693,-15.067754681943937,-0.13905060220892804,-0.34985972405524335,0,Fixed-Wing
1970-01-01 00:01:06.777313741,2748,1536701725707311544,base_link,0,1,40.590526,-79.9001575,363.521936313,0.302500013113,0.0,0.0,0.0,0.302500013113,0.0,0.0,0.0,1.21000005245,1,112.02016865267632,71.7073376065824,363.52054999020714,-15.152413964844817,0.13856074010875555,-0.6498483909372557,0,Fixed-Wing
1970-01-01 00:01:07.194131930,2750,1536701726124181562,base_link,0,1,40.5905281,-79.9002293,363.26186219,0.302500013113,0.0,0.0,0.0,0.302500013113,0.0,0.0,0.0,1.21000005245,1,105.94167847607672,71.94045573627605,363.26057694375834,-15.194743953963492,0.5827385072296718,-0.6498692538697631,0,Fixed-Wing
1970-01-01 00:01:07.559170708,2752,1536701726489235993,base_link,0,1,40.590533,-79.9003007,363.071787306,0.302500013113,0.0,0.0,0.0,0.302500013113,0.0,0.0,0.0,1.21000005245,1,99.89704951159769,72.48452659881539,363.07059327896513,-15.110099176527868,1.3600445520045363,-0.4749128579793555,0,Fixed-Wing
1970-01-01 00:01:08.014575099,2754,1536701726944709146,base_link,0,1,40.5905412,-79.900371,362.931712166,0.302500013113,0.0,0.0,0.0,0.302500013113,0.0,0.0,0.0,1.21000005245,1,93.9455422640607,73.39507678506868,362.93059800629874,-14.877317580378365,2.276153540663008,-0.3499540611450306,0,Fixed-Wing
1970-01-01 00:01:08.388577073,2756,1536701727318475831,base_link,0,1,40.5905541,-79.9004389,362.931637507,0.302500013113,0.0,0.0,0.0,0.302500013113,0.0,0.0,0.0,1.21000005245,1,88.19721287164856,74.8275817039223,362.9305886185495,-14.369422462340287,3.5809131581011457,-2.3467085035277286e-05,0,Fixed-Wing
1970-01-01 00:01:08.832333284,2758,1536701727758684333,base_link,0,1,40.5905724,-79.9005033,363.111564158,0.302500013113,0.0,0.0,0.0,0.302500013113,0.0,0.0,0.0,1.21000005245,1,82.74518601428308,76.85977913278975,363.1105640008949,-13.628738341425416,5.079998272337068,0.44989459114083824,0,Fixed-Wing
1970-01-01 00:01:09.188223868,2760,1536701728118279294,base_link,0,1,40.5905957,-79.9005633,363.301493205,0.302500013113,0.0,0.0,0.0,0.302500013113,0.0,0.0,0.0,1.21000005245,1,77.66565332523726,79.44724638436256,363.3005250469888,-12.697593707228096,6.46803749527622,0.4748563167438999,0,Fixed-Wing
1970-01-01 00:01:09.631557168,2762,1536701728561690319,base_link,0,1,40.5906233,-79.9006186,363.421425248,0.302500013113,0.0,0.0,0.0,0.302500013113,0.0,0.0,0.0,1.21000005245,1,72.98401292825957,82.51224533296045,363.4204732897801,-11.702959953848712,7.661750350835517,0.2998413724443898,0,Fixed-Wing
1970-01-01 00:01:10.014858593,2764,1536701728945069757,base_link,0,1,40.5906552,-79.9006688,363.531360698,0.302500013113,0.0,0.0,0.0,0.302500013113,0.0,0.0,0.0,1.21000005245,1,68.73412940301307,86.05477628711049,363.5304089589672,-10.62367300499827,8.855463977637276,0.2748123787608443,0,Fixed-Wing
1970-01-01 00:01:10.410258607,2766,1536701729340397776,base_link,0,1,40.5906908,-79.900713,363.681300723,0.302500013113,0.0,0.0,0.0,0.302500013113,0.0,0.0,0.0,1.21000005245,1,64.99219657461936,90.00820848258766,363.68033345636115,-9.35392006377807,9.882616933541923,0.3747747029513472,0,Fixed-Wing
1970-01-01 00:01:10.793391008,2768,1536701729722618568,base_link,0,1,40.5907293,-79.9007514,363.731245455,0.302500013113,0.0,0.0,0.0,0.302500013113,0.0,0.0,0.0,1.21000005245,1,61.741281944288545,94.28369716767989,363.73024852187996,-8.12649424263837,10.687679663963333,0.12477549818593489,0,Fixed-Wing
1970-01-01 00:01:11.213705591,2770,1536701730142701480,base_link,0,1,40.5907709,-79.9007825,363.841196338,0.302500013113,0.0,0.0,0.0,0.302500013113,0.0,0.0,0.0,1.21000005245,1,59.10837389514381,98.90345547558803,363.8401541785603,-6.5816284140914725,11.548269813463545,0.27473735480872014,0,Fixed-Wing
1970-01-01 00:01:11.596844138,2772,1536701730526801062,base_link,0,1,40.5908146,-79.9008064,363.98115369,0.302500013113,0.0,0.0,0.0,0.302500013113,0.0,0.0,0.0,1.21000005245,1,57.08500636786975,103.7564299913941,363.9800526495161,-5.057925670432269,12.13125349229967,0.34971208046168883,0,Fixed-Wing
1970-01-01 00:01:12.028556149,2774,1536701730958645956,base_link,0,1,40.5908595,-79.9008239,364.031117073,0.324899991846,0.0,0.0,0.0,0.324899991846,0.0,0.0,0.0,1.29959996738,1,55.60345157508002,108.74267062669648,364.0299458385632,-3.7035258882002253,12.464386310590669,0.12472081233857515,0,Fixed-Wing
1970-01-01 00:01:12.393845806,2776,1536701731323911059,base_link,0,1,40.5909054,-79.9008367,363.941084836,0.302500013113,0.0,0.0,0.0,0.302500013113,0.0,0.0,0.0,1.21000005245,1,54.519789625241,113.83996443042005,363.939833786344,-2.7088907577486676,12.74199216507284,-0.22525816787658998,0,Fixed-Wing
1970-01-01 00:01:12.834349428,2778,1536701731764583353,base_link,0,1,40.5909518,-79.9008456,363.851056375,0.302500013113,0.0,0.0,0.0,0.302500013113,0.0,0.0,0.0,1.21000005245,1,53.766294984069255,118.99278684228597,363.8497174342468,-1.8835529565161109,12.880800151649996,-0.22526891652363323,0,Fixed-Wing
1970-01-01 00:01:13.194256827,2780,1536701732124345609,base_link,0,1,40.5909984,-79.9008513,363.8010311,0.302500013113,0.0,0.0,0.0,0.302500013113,0.0,0.0,0.0,1.21000005245,1,53.2837069852281,124.16782241028928,363.799597320176,-1.2063523777460556,12.936327628064538,-0.12528806959023403,0,Fixed-Wing
1970-01-01 00:01:13.581064793,2782,1536701732511261007,base_link,0,1,40.5910447,-79.9008553,363.851007694,0.302500013113,0.0,0.0,0.0,0.302500013113,0.0,0.0,0.0,1.21000005245,1,52.945039125099065,129.30954531638557,363.8494743144412,-0.8465871080795513,12.853054092466714,0.12468032933079529,0,Fixed-Wing
1970-01-01 00:01:14.023452775,2784,1536701732952465278,base_link,0,1,40.5910913,-79.9008584,363.87098509,0.302500013113,0.0,0.0,0.0,0.302500013113,0.0,0.0,0.0,1.21000005245,1,52.682563285810446,134.48458397025314,363.8693466053393,-0.6561256259730158,12.936335341973093,0.0496758838465565,0,Fixed-Wing
1970-01-01 00:01:14.419220448,2786,1536701733349409908,base_link,0,1,40.591138,-79.900861,363.940962965,0.302500013113,0.0,0.0,0.0,0.302500013113,0.0,0.0,0.0,1.21000005245,1,52.46241702318768,139.67072934157528,363.93921456451295,-0.5503120011367951,12.964099428611064,0.17465286927943957,0,Fixed-Wing
1970-01-01 00:01:14.797230625,2788,1536701733727378341,base_link,0,1,40.5911845,-79.9008639,364.070940629,0.33639998064,0.0,0.0,0.0,0.33639998064,0.0,0.0,0.0,1.34559992256,1,52.21687439738652,144.83466558805236,364.069078791374,-0.6137967193227765,12.908582029444826,0.3246289158333544,0,Fixed-Wing
1970-01-01 00:01:15.224184710,2790,1536701734154245865,base_link,0,1,40.5912304,-79.900867,364.330918351,0.302500013113,0.0,0.0,0.0,0.302500013113,0.0,0.0,0.0,1.21000005245,1,51.95440209136207,149.9319736188209,364.328940584909,-0.6561167936737398,12.742027729217764,0.6495911487004535,0,Fixed-Wing
1970-01-01 00:01:15.603181019,2792,1536701734533043988,base_link,0,1,40.5912754,-79.9008704,364.640896152,0.33639998064,0.0,0.0,0.0,0.33639998064,0.0,0.0,0.0,1.34559992256,1,51.666533941978834,154.92933601522583,364.63880100046663,-0.7196002124373775,12.492188002682049,0.7745755177811083,0,Fixed-Wing
1970-01-01 00:01:16.026016555,2794,1536701734955606749,base_link,0,1,40.5913198,-79.9008738,364.910874214,0.33639998064,0.0,0.0,0.0,0.33639998064,0.0,0.0,0.0,1.34559992256,1,51.37866628679605,159.86006651194893,364.90865941544564,-0.7195989770567034,12.325624493419644,0.674580265871608,0,Fixed-Wing
1970-01-01 00:01:16.403323810,2796,1536701735333085109,base_link,0,1,40.5913639,-79.9008768,365.090852818,0.33639998064,0.0,0.0,0.0,0.33639998064,0.0,0.0,0.0,1.34559992256,1,51.124661494953095,164.75747965982913,365.08851513049046,-0.634950071975363,12.242339241624444,0.4495954520554827,0,Fixed-Wing
1970-01-01 00:01:16.796655843,2798,1536701735726773276,base_link,0,1,40.5914083,-79.9008785,365.19083263,0.33639998064,0.0,0.0,0.0,0.33639998064,0.0,0.0,0.0,1.34559992256,1,50.980710830869945,169.6882074673384,365.1883665068941,-0.35984157565424774,12.325617771040502,0.2496041046089227,0,Fixed-Wing
1970-01-01 00:01:17.169347945,2800,1536701736099498127,base_link,0,1,40.591453,-79.9008797,365.190812837,0.33639998064,0.0,0.0,0.0,0.33639998064,0.0,0.0,0.0,1.34559992256,1,50.87908802216449,174.65224873431941,365.1882132045716,-0.254032253618915,12.408893300355748,-0.00038321844252844136,0,Fixed-Wing
1970-01-01 00:01:17.596016450,2802,1536701736526171273,base_link,0,1,40.5914984,-79.9008804,365.100793272,0.33639998064,0.0,0.0,0.0,0.33639998064,0.0,0.0,0.0,1.34559992256,1,50.81979276675481,179.69402446247153,365.0980537222138,-0.14822368671474465,12.603210507355827,-0.22537673166306912,0,Fixed-Wing
1970-01-01 00:01:18.022372165,2804,1536701736951970361,base_link,0,1,40.5915446,-79.9008811,364.940773386,0.33639998064,0.0,0.0,0.0,0.33639998064,0.0,0.0,0.0,1.34559992256,1,50.76049643084649,184.82463996785623,364.93788734437766,-0.14822638769800295,12.825288297852701,-0.40037690784189195,0,Fixed-Wing
1970-01-01 00:01:18.448471334,2806,1536701737378537836,base_link,0,1,40.5915914,-79.9008819,365.00075316,0.33639998064,0.0,0.0,0.0,0.33639998064,0.0,0.0,0.0,1.34559992256,1,50.69273575282912,190.0218932038131,364.9977145665539,-0.169385179988363,12.991866382919863,0.14955347397688373,0,Fixed-Wing
