time,field.header.seq,field.header.stamp,field.header.frame_id,field.status.status,field.status.service,lat,lon,alt,field.position_covariance0,field.position_covariance1,field.position_covariance2,field.position_covariance3,field.position_covariance4,field.position_covariance5,field.position_covariance6,field.position_covariance7,field.position_covariance8,field.position_covariance_type,x,y,z,vel_x,vel_y,vel_z,track_id,uav_category
1970-01-01 00:00:00.000000000,6151,1532134704621430832,base_link,0,1,40.5913462,-79.8961806,396.535659209,0.409599981689,0.0,0.0,0.0,0.409599981689,0.0,0.0,0.0,1.63839992676,1,434.61690362479794,147.74637557816143,396.51915801963906,-21.95198597002192,5.55242729194068,0.251108491342546,0,Fixed-Wing
1970-01-01 00:00:00.401376736,6153,1532134705022700752,base_link,0,1,40.5913662,-79.8962843,396.635544412,0.409599981689,0.0,0.0,0.0,0.409599981689,0.0,0.0,0.0,1.63839992676,1,425.8377556357369,149.9669300628908,396.61958258303923,-21.95198597002192,5.55242729194068,0.251108491342546,0,Fixed-Wing
1970-01-01 00:00:00.790761920,6155,1532134705412299600,base_link,0,1,40.5913899,-79.8963826,397.265433621,0.372100017452,0.0,0.0,0.0,0.372100017452,0.0,0.0,0.0,1.48840006981,1,417.5157768206201,152.5984291495302,397.24995860042156,-20.808848696922762,6.579981463122821,1.5762355876285106,0,Fixed-Wing
1970-01-01 00:00:01.169716352,6157,1532134705790853744,base_link,0,1,40.5914194,-79.8964743,397.975327181,0.348099969053,0.0,0.0,0.0,0.348099969053,0.0,0.0,0.0,1.39239987621,1,409.7525138903577,155.87407789415929,397.96027547818187,-19.411797037600515,8.190657609874552,1.7761252178791174,0,Fixed-Wing
1970-01-01 00:00:01.577065984,6159,1532134706198482352,base_link,0,1,40.5914551,-79.8965575,398.615226872,0.348099969053,0.0,0.0,0.0,0.348099969053,0.0,0.0,0.0,1.39239987621,1,402.7088060309218,159.8383010103982,398.6005247804003,-17.612572005840914,9.912416368666406,1.6009234286889336,0,Fixed-Wing
1970-01-01 00:00:02.005928096,6161,1532134706626705392,base_link,0,1,40.591497,-79.8966344,399.385130441,0.348099969053,0.0,0.0,0.0,0.348099969053,0.0,0.0,0.0,1.39239987621,1,396.19841978700424,164.49109181914596,399.3707169023745,-16.279017925654905,11.6341584265744,1.9258414001980846,0,Fixed-Wing
1970-01-01 00:00:02.440937728,6163,1532134707062139920,base_link,0,1,40.5915396,-79.8967052,399.585039994,0.324899991846,0.0,0.0,0.0,0.324899991846,0.0,0.0,0.0,1.29959996738,1,390.2044134186272,169.2216384289808,399.57087137729127,-14.987826138343513,11.828584384159146,0.5004800272970129,0,Fixed-Wing
1970-01-01 00:00:02.800018496,6165,1532134707421411920,base_link,0,1,40.5915828,-79.896773,399.154952393,0.324899991846,0.0,0.0,0.0,0.324899991846,0.0,0.0,0.0,1.29959996738,1,384.46434596607355,174.0188178537349,399.14100245505983,-14.352859792595263,11.99519766144675,-1.0748738444244175,0,Fixed-Wing
1970-01-01 00:00:03.154732160,6167,1532134707776166256,base_link,0,1,40.5916265,-79.8968394,398.24486604,0.324899991846,0.0,0.0,0.0,0.324899991846,0.0,0.0,0.0,1.29959996738,1,378.8427760365757,178.87152010451246,398.2311174152734,-14.05656042882507,12.134030757710956,-2.2751391880638754,0,Fixed-Wing
1970-01-01 00:00:03.579713824,6169,1532134708200995216,base_link,0,1,40.5916709,-79.896906,396.994779213,0.324899991846,0.0,0.0,0.0,0.324899991846,0.0,0.0,0.0,1.29959996738,1,373.20425976438275,183.8019516460808,396.9812220003919,-14.098934230650574,12.328390427125935,-3.125324535554185,0,Fixed-Wing
1970-01-01 00:00:03.995429984,6171,1532134708616929104,base_link,0,1,40.5917162,-79.8969728,395.304691829,0.324899991846,0.0,0.0,0.0,0.324899991846,0.0,0.0,0.0,1.29959996738,1,367.548791418582,188.832319296479,395.29131523811725,-14.141322362444779,12.578277553036706,-4.225559198036211,0,Fixed-Wing
1970-01-01 00:00:04.397469792,6173,1532134709018919376,base_link,0,1,40.5917628,-79.8970407,393.3446028,0.324899991846,0.0,0.0,0.0,0.324899991846,0.0,0.0,0.0,1.29959996738,1,361.800188288501,194.007044616467,393.3313987239303,-14.374202988262928,12.939239407358878,-4.900710168623976,0,Fixed-Wing
1970-01-01 00:00:04.789060992,6175,1532134709407263248,base_link,0,1,40.5918112,-79.8971106,391.294510997,0.324899991846,0.0,0.0,0.0,0.324899991846,0.0,0.0,0.0,1.29959996738,1,355.88226754563794,199.38165546061109,391.28147322870956,-14.797576402733094,13.439046931659904,-5.125774820830776,0,Fixed-Wing
1970-01-01 00:00:05.202123040,6177,1532134709822912912,base_link,0,1,40.5918622,-79.8971819,389.164416703,0.324899991846,0.0,0.0,0.0,0.324899991846,0.0,0.0,0.0,1.29959996738,1,349.8458211347839,205.04499677745463,389.1515324133926,-15.093946142036804,14.161008481199081,-5.325850635286508,0,Fixed-Wing
1970-01-01 00:00:05.631601376,6179,1532134710253066320,base_link,0,1,40.5919162,-79.8972548,387.014319549,0.324899991846,0.0,0.0,0.0,0.324899991846,0.0,0.0,0.0,1.29959996738,1,343.673920138239,211.04149068041883,387.00157424295463,-15.43264611250829,14.99404614106196,-5.3759034079839205,0,Fixed-Wing
1970-01-01 00:00:05.980865408,6181,1532134710602387440,base_link,0,1,40.5919719,-79.8973292,384.814220185,0.324899991846,0.0,0.0,0.0,0.324899991846,0.0,0.0,0.0,1.29959996738,1,337.3750365490198,217.22676790794293,384.80160251274856,-15.750162128447089,15.466092961240475,-5.500960755656869,0,Fixed-Wing
1970-01-01 00:00:06.423618848,6183,1532134711045132112,base_link,0,1,40.5920288,-79.8974053,382.814118617,0.324899991846,0.0,0.0,0.0,0.324899991846,0.0,0.0,0.0,1.29959996738,1,330.932255482334,223.54531012947763,382.8016191305402,-16.109973286705678,15.799317925947863,-5.0008961235440905,0,Fixed-Wing
1970-01-01 00:00:06.783059808,6185,1532134711404569936,base_link,0,1,40.5920866,-79.8974825,381.174015585,0.324899991846,0.0,0.0,0.0,0.324899991846,0.0,0.0,0.0,1.29959996738,1,324.3963808329489,229.96381037703412,381.16162262959034,-16.342750889254503,16.04925985511407,-4.100760144901791,0,Fixed-Wing
1970-01-01 00:00:07.189322656,6187,1532134711810543024,base_link,0,1,40.5921446,-79.8975601,380.093912098,0.324899991846,0.0,0.0,0.0,0.324899991846,0.0,0.0,0.0,1.29959996738,1,317.8266850285253,236.40454300178254,380.08161336785264,-16.427319633490395,16.10485122147508,-2.700529503626181,0,Fixed-Wing
1970-01-01 00:00:07.572439264,6189,1532134712193999728,base_link,0,1,40.5922025,-79.8976368,379.46380961,0.324899991846,0.0,0.0,0.0,0.324899991846,0.0,0.0,0.0,1.29959996738,1,311.3332161556707,242.8341943863732,379.45158854006166,-16.236716566492664,16.07714292577526,-1.575357448999127,0,Fixed-Wing
1970-01-01 00:00:08.075960896,6191,1532134712695505360,base_link,0,1,40.5922607,-79.8977109,379.173709692,0.324899991846,0.0,0.0,0.0,0.324899991846,0.0,0.0,0.0,1.29959996738,1,305.05988165937225,249.29718833552027,379.1615413668129,-15.686277417761946,16.160514969424423,-0.7252539182315478,0,Fixed-Wing
1970-01-01 00:00:08.363884288,6193,1532134712985334608,base_link,0,1,40.59232,-79.8977809,378.963613545,0.324899991846,0.0,0.0,0.0,0.324899991846,0.0,0.0,0.0,1.29959996738,1,299.1336489987369,255.88236209136,378.9514640801934,-14.818360094106092,16.466021768680925,-0.5252917087442323,0,Fixed-Wing
1970-01-01 00:00:08.817541472,6195,1532134713438883952,base_link,0,1,40.5923819,-79.8978448,378.62352259,0.324899991846,0.0,0.0,0.0,0.324899991846,0.0,0.0,0.0,1.29959996738,1,293.7238138557521,262.75629203367816,378.6113440307978,-13.527124193248174,17.18804761472319,-0.8504595846610735,0,Fixed-Wing
1970-01-01 00:00:09.191550752,6197,1532134713812757136,base_link,0,1,40.5924477,-79.8979006,378.073438331,0.324899991846,0.0,0.0,0.0,0.324899991846,0.0,0.0,0.0,1.29959996738,1,288.9996790700508,270.0633481792649,378.0611693151344,-11.812551817719132,18.271066188877235,-1.3756947319207058,0,Fixed-Wing
1970-01-01 00:00:09.583084096,6199,1532134714204284208,base_link,0,1,40.5925182,-79.8979471,377.233361665,0.324899991846,0.0,0.0,0.0,0.324899991846,0.0,0.0,0.0,1.29959996738,1,285.06282421190565,277.8923708926765,377.2209324426908,-9.843982892155092,19.576227326152736,-2.1009861160057444,0,Fixed-Wing
1970-01-01 00:00:09.988366336,6201,1532134714609651920,base_link,0,1,40.5925927,-79.8979824,376.063294823,0.324899991846,0.0,0.0,0.0,0.324899991846,0.0,0.0,0.0,1.29959996738,1,282.0740956013069,286.1656251287666,376.0506315729138,-7.47322275576356,20.687014405426154,-2.9263008558529946,0,Fixed-Wing
1970-01-01 00:00:10.358827616,6203,1532134714980253328,base_link,0,1,40.5926706,-79.8980044,374.683240195,0.324899991846,0.0,0.0,0.0,0.324899991846,0.0,0.0,0.0,1.29959996738,1,280.21127586866544,294.8164889256163,374.6702639832622,-4.657922692108444,21.631215345001454,-3.4515661427807673,0,Fixed-Wing
1970-01-01 00:00:10.779929792,6205,1532134715401445808,base_link,0,1,40.5927505,-79.8980116,373.253199892,0.324899991846,0.0,0.0,0.0,0.324899991846,0.0,0.0,0.0,1.29959996738,1,279.60135744211726,303.6894991719447,373.2398330958378,-1.525082019249051,22.186685619374682,-3.5767478587845045,0,Fixed-Wing
1970-01-01 00:00:11.177522880,6207,1532134715798833968,base_link,0,1,40.5928307,-79.8980026,371.893176039,0.324899991846,0.0,0.0,0.0,0.324899991846,0.0,0.0,0.0,1.29959996738,1,280.3628654671139,312.595876253902,371.87934453749676,1.9041270863203306,22.270118352084307,-3.401859244460953,0,Fixed-Wing
1970-01-01 00:00:11.545989248,6209,1532134716167289968,base_link,0,1,40.5929084,-79.8979769,370.743170296,0.324899991846,0.0,0.0,0.0,0.324899991846,0.0,0.0,0.0,1.29959996738,1,282.53813995280177,321.22468249294644,370.7288131750228,5.439206065356881,21.57606110906901,-2.876867818900898,0,Fixed-Wing
1970-01-01 00:00:11.965303104,6211,1532134716586512528,base_link,0,1,40.5929805,-79.8979349,369.803183524,0.324899991846,0.0,0.0,0.0,0.324899991846,0.0,0.0,0.0,1.29959996738,1,286.0933266926715,329.23165606202025,369.78825889041775,8.889633655984811,20.021187895414908,-2.351826679014992,0,Fixed-Wing
1970-01-01 00:00:12.379285088,6213,1532134717000762704,base_link,0,1,40.593044,-79.8978787,369.083214806,0.324899991846,0.0,0.0,0.0,0.324899991846,0.0,0.0,0.0,1.29959996738,1,290.8506589286671,336.2836360961864,369.0677065258541,11.895561007677918,17.63325632097556,-1.8017187336717464,0,Fixed-Wing
1970-01-01 00:00:12.805277312,6215,1532134717426748112,base_link,0,1,40.5930963,-79.8978107,368.563262753,0.324899991846,0.0,0.0,0.0,0.324899991846,0.0,0.0,0.0,1.29959996738,1,296.60697287886524,342.091880299696,368.547180145633,14.393483653680436,14.523333633830385,-1.3015599930514454,0,Fixed-Wing
1970-01-01 00:00:13.163518176,6217,1532134717784824304,base_link,0,1,40.5931349,-79.8977334,368.183325834,0.324899991846,0.0,0.0,0.0,0.324899991846,0.0,0.0,0.0,1.29959996738,1,303.15063957368227,346.3787487357686,368.1667040936816,16.362234656040595,10.719180936607138,-0.9513685114744135,0,Fixed-Wing
1970-01-01 00:00:13.568189760,6219,1532134718189614128,base_link,0,1,40.5931604,-79.8976516,367.6833989,0.324899991846,0.0,0.0,0.0,0.324899991846,0.0,0.0,0.0,1.29959996738,1,310.07530127602587,349.2108443015566,367.6662899628568,17.314900799758952,7.081566708227781,-1.2512699401756964,0,Fixed-Wing
1970-01-01 00:00:13.986580480,6221,1532134718608056912,base_link,0,1,40.5931711,-79.897569,367.123478869,0.324899991846,0.0,0.0,0.0,0.324899991846,0.0,0.0,0.0,1.29959996738,1,317.06774774263914,350.39936901929684,367.1059613215906,17.484394490500154,2.9718690197917663,-1.401084306472989,0,Fixed-Wing
1970-01-01 00:00:14.373776800,6223,1532134718995110064,base_link,0,1,40.5931676,-79.89749,366.643561002,0.33639998064,0.0,0.0,0.0,0.33639998064,0.0,0.0,0.0,1.34559992256,1,323.7555044998914,350.0109464551823,366.6257293634056,16.722527367011963,-0.9712385175083702,-1.2008050464087408,0,Fixed-Wing
1970-01-01 00:00:14.783636864,6225,1532134719405162800,base_link,0,1,40.5931514,-79.8974186,366.2936406,0.33639998064,0.0,0.0,0.0,0.33639998064,0.0,0.0,0.0,1.34559992256,1,329.7999502421697,348.2121425481288,366.2755984315273,15.113948220987183,-4.497853115092893,-0.875491484348952,0,Fixed-Wing
1970-01-01 00:00:15.210253152,6227,1532134719831384208,base_link,0,1,40.5931259,-79.8973577,366.123713304,0.33639998064,0.0,0.0,0.0,0.33639998064,0.0,0.0,0.0,1.34559992256,1,334.95557372220117,345.38052584380813,366.10555719390015,12.891475851800877,-7.080369330051015,-0.4251828158459068,0,Fixed-Wing
1970-01-01 00:00:15.586845184,6229,1532134720207262448,base_link,0,1,40.593095,-79.8973076,366.273777205,0.33639998064,0.0,0.0,0.0,0.33639998064,0.0,0.0,0.0,1.34559992256,1,339.1969677037824,341.9492052441254,366.25558260364147,10.605473480230572,-8.579910232375443,0.37513386195241016,0,Fixed-Wing
1970-01-01 00:00:15.992461440,6231,1532134720614069968,base_link,0,1,40.5930617,-79.8972666,366.743832806,0.36000002861,0.0,0.0,0.0,0.36000002861,0.0,0.0,0.0,1.44000011444,1,342.6680313538362,338.2513426057529,366.725650593889,8.679286491351753,-9.246390294111393,1.1753903613115322,0,Fixed-Wing
1970-01-01 00:00:16.351020288,6233,1532134720972380144,base_link,0,1,40.5930289,-79.8972315,367.203882182,0.36000002861,0.0,0.0,0.0,0.36000002861,0.0,0.0,0.0,1.44000011444,1,345.63962883837775,334.6089835872056,367.18573245229373,7.430386908899217,-9.10760522234736,1.1504203498274648,0,Fixed-Wing
1970-01-01 00:00:16.741840992,6235,1532134721363218160,base_link,0,1,40.5929976,-79.8971974,367.543929928,0.36000002861,0.0,0.0,0.0,0.36000002861,0.0,0.0,0.0,1.44000011444,1,348.526559848356,331.13319374112297,367.5258051680007,7.218681027638286,-8.691104197243604,0.8503412282477488,0,Fixed-Wing
1970-01-01 00:00:17.208784960,6237,1532134721830069648,base_link,0,1,40.5929691,-79.8971611,367.853978778,0.36000002861,0.0,0.0,0.0,0.36000002861,0.0,0.0,0.0,1.44000011444,1,351.5997196632557,327.96835881033104,367.8358495141378,7.684340351065138,-7.913571121565109,0.7752562258850787,0,Fixed-Wing
1970-01-01 00:00:17.553360416,6239,1532134722173626480,base_link,0,1,40.5929441,-79.8971202,367.944030898,0.36000002861,0.0,0.0,0.0,0.36000002861,0.0,0.0,0.0,1.44000011444,1,355.062267164067,325.19221580552033,367.92585259094193,8.657992125551784,-6.941659073102972,0.22504988886447044,0,Fixed-Wing
1970-01-01 00:00:17.949729760,6241,1532134722571248816,base_link,0,1,40.5929248,-79.8970724,368.16408773,0.36000002861,0.0,0.0,0.0,0.36000002861,0.0,0.0,0.0,1.44000011444,1,359.10891760817356,323.0491081431025,368.1457923716138,10.118523333391378,-5.358773926155737,0.5499525677861936,0,Fixed-Wing
1970-01-01 00:00:18.356031936,6243,1532134722977501968,base_link,0,1,40.5929111,-79.8970193,368.36414768,0.348099969053,0.0,0.0,0.0,0.348099969053,0.0,0.0,0.0,1.39239987621,1,363.6042138367786,321.52791726652606,368.34567506455795,11.240348136788326,-3.803690383387987,0.49980044494375025,0,Fixed-Wing
1970-01-01 00:00:18.807065984,6245,1532134723428362832,base_link,0,1,40.5929019,-79.896963,368.494209053,0.348099969053,0.0,0.0,0.0,0.348099969053,0.0,0.0,0.0,1.39239987621,1,368.3703813910168,320.50647502282123,368.4755148863075,11.917653445616468,-2.554084500105834,0.3246604282041783,0,Fixed-Wing
1970-01-01 00:00:19.148440128,6247,1532134723769737968,base_link,0,1,40.5928953,-79.8969051,368.594270996,0.348099969053,0.0,0.0,0.0,0.348099969053,0.0,0.0,0.0,1.39239987621,1,373.27198321789837,319.7737775078026,368.57532913902236,12.256302623945926,-1.8320873039160557,0.24958242849246792,0,Fixed-Wing
1970-01-01 00:00:19.597394560,6249,1532134724218311472,base_link,0,1,40.5928892,-79.8968468,368.554333149,0.348099969053,0.0,0.0,0.0,0.348099969053,0.0,0.0,0.0,1.39239987621,1,378.20743730263825,319.096604132875,368.53513496716016,12.340949139813436,-1.6932509218669343,-0.10050427420690626,0,Fixed-Wing
1970-01-01 00:00:19.955155552,6251,1532134724576619024,base_link,0,1,40.5928822,-79.8967888,368.364395374,0.348099969053,0.0,0.0,0.0,0.348099969053,0.0,0.0,0.0,1.39239987621,1,383.1174916765751,318.3194779944307,368.3449435059508,12.277437954458644,-1.9431796923029558,-0.4755678219899677,0,Fixed-Wing
1970-01-01 00:00:20.342808704,6253,1532134724964208368,base_link,0,1,40.5928728,-79.8967299,368.154459518,0.348099969053,0.0,0.0,0.0,0.348099969053,0.0,0.0,0.0,1.39239987621,1,388.1037495086417,317.2758321713902,368.13475875947404,12.467982326852782,-2.609603858324667,-0.5255604087686049,0,Fixed-Wing
1970-01-01 00:00:20.817245056,6255,1532134725431614736,base_link,0,1,40.5928607,-79.8966711,368.014524682,0.348099969053,0.0,0.0,0.0,0.348099969053,0.0,0.0,0.0,1.39239987621,1,393.0815629642415,315.9323511197491,367.9945863838612,12.446867426641997,-3.3593325039472557,-0.3504966571553392,0,Fixed-Wing
1970-01-01 00:00:21.251181056,6257,1532134725872717520,base_link,0,1,40.5928447,-79.8966138,368.064589932,0.348099969053,0.0,0.0,0.0,0.348099969053,0.0,0.0,0.0,1.39239987621,1,397.9324294635148,314.1557714353829,368.0444392399184,12.129440518280308,-4.4422821388165215,0.12465551305173224,0,Fixed-Wing
1970-01-01 00:00:21.593005312,6259,1532134726214471376,base_link,0,1,40.5928246,-79.896559,368.254654327,0.348099969053,0.0,0.0,0.0,0.348099969053,0.0,0.0,0.0,1.39239987621,1,402.57169254394563,311.92387518637656,368.2343227410872,11.600332763470279,-5.580787020082151,0.47479777750533736,0,Fixed-Wing
1970-01-01 00:00:22.034270432,6261,1532134726655800880,base_link,0,1,40.5928015,-79.8965069,368.524717209,0.348099969053,0.0,0.0,0.0,0.348099969053,0.0,0.0,0.0,1.39239987621,1,406.9824115117768,309.3588156786893,368.50423134689726,11.028865331827578,-6.413851366349285,0.6748980579109349,0,Fixed-Wing
1970-01-01 00:00:22.430182688,6263,1532134727051727344,base_link,0,1,40.5927768,-79.8964561,368.634779433,0.348099969053,0.0,0.0,0.0,0.348099969053,0.0,0.0,0.0,1.39239987621,1,411.2830809028733,306.6160608209338,368.6141508668909,10.753689794577747,-6.858173051836041,0.2748503344218014,0,Fixed-Wing
1970-01-01 00:00:22.819324992,6265,1532134727440895824,base_link,0,1,40.5927513,-79.8964058,368.574841486,0.348099969053,0.0,0.0,0.0,0.348099969053,0.0,0.0,0.0,1.39239987621,1,415.5414196021437,303.78445589988445,368.55407313573335,10.64784321877962,-7.080339866348309,-0.1502224946116108,0,Fixed-Wing
1970-01-01 00:00:23.158534784,6267,1532134727779675184,base_link,0,1,40.5927245,-79.8963563,368.424903269,0.348099969053,0.0,0.0,0.0,0.348099969053,0.0,0.0,0.0,1.39239987621,1,419.7320390131066,300.80847719030885,368.40400231170804,10.478513248641324,-7.441342025568794,-0.3752474189543193,0,Fixed-Wing
1970-01-01 00:00:23.636539072,6269,1532134728257937904,base_link,0,1,40.5926963,-79.8963078,368.494964619,0.348099969053,0.0,0.0,0.0,0.348099969053,0.0,0.0,0.0,1.39239987621,1,423.8380291542501,297.67703301023823,368.4739398050235,10.266900396683077,-7.83007858991215,0.1748765226366909,0,Fixed-Wing
1970-01-01 00:00:23.998713696,6271,1532134728620012624,base_link,0,1,40.5926661,-79.8962615,368.625024556,0.348099969053,0.0,0.0,0.0,0.348099969053,0.0,0.0,0.0,1.39239987621,1,427.7577966276014,294.3234781751323,368.60389445611236,9.801256418956875,-8.38545936139504,0.3249475553887295,0,Fixed-Wing
1970-01-01 00:00:24.359151776,6273,1532134728980330608,base_link,0,1,40.5926336,-79.8962184,368.805082181,0.348099969053,0.0,0.0,0.0,0.348099969053,0.0,0.0,0.0,1.39239987621,1,431.4066869386265,290.7144911830919,368.7838725996438,9.123936515659363,-9.024159510009127,0.45002973940478125,0,Fixed-Wing
1970-01-01 00:00:24.759125600,6275,1532134729380269552,base_link,0,1,40.5925994,-79.896179,368.775136733,0.348099969053,0.0,0.0,0.0,0.348099969053,0.0,0.0,0.0,1.39239987621,1,434.7423505536948,286.91668883141955,368.7538733811786,8.340722923218886,-9.496286432887102,-0.0750121109338174,0,Fixed-Wing
1970-01-01 00:00:25.145899904,6277,1532134729766993264,base_link,0,1,40.5925626,-79.8961438,368.525188074,0.348099969053,0.0,0.0,0.0,0.348099969053,0.0,0.0,0.0,1.39239987621,1,437.7224640966861,282.83012093023416,368.5039041592335,7.451681047674737,-10.218335690905521,-0.625040249909592,0,Fixed-Wing
1970-01-01 00:00:25.555765184,6279,1532134730177061840,base_link,0,1,40.5925224,-79.8961143,368.315234999,0.348099969053,0.0,0.0,0.0,0.348099969053,0.0,0.0,0.0,1.39239987621,1,440.22006611684986,278.3659494149764,368.2939763075222,6.2451760209133065,-11.162521760974585,-0.5249180514129236,0,Fixed-Wing
1970-01-01 00:00:25.980897536,6281,1532134730602385552,base_link,0,1,40.5924792,-79.8960909,368.095276932,0.348099969053,0.0,0.0,0.0,0.348099969053,0.0,0.0,0.0,1.39239987621,1,442.2012876727309,273.5685905921404,368.07408946166987,4.953982761470435,-11.99564624076008,-0.5498202059194333,0,Fixed-Wing
1970-01-01 00:00:26.361919424,6283,1532134730983179696,base_link,0,1,40.5924343,-79.8960747,367.735312208,0.348099969053,0.0,0.0,0.0,0.348099969053,0.0,0.0,0.0,1.39239987621,1,443.5729886583956,268.5824012803829,367.7142420536427,3.429895569581017,-12.467810993955187,-0.8997872301736038,0,Fixed-Wing
1970-01-01 00:00:26.756631328,6285,1532134731377844016,base_link,0,1,40.5923886,-79.8960661,367.445340039,0.348099969053,0.0,0.0,0.0,0.348099969053,0.0,0.0,0.0,1.39239987621,1,444.301314124056,263.5073353908374,367.42443146583946,1.8211551307379177,-12.690044107133836,-0.7246623436975211,0,Fixed-Wing
1970-01-01 00:00:27.215497152,6287,1532134731836420592,base_link,0,1,40.5923433,-79.8960635,367.315361566,0.348099969053,0.0,0.0,0.0,0.348099969053,0.0,0.0,0.0,1.39239987621,1,444.5217112718642,258.47666724710416,367.2946440073738,0.551096200058081,-12.579028927256955,-0.3245294954445736,0,Fixed-Wing
1970-01-01 00:00:27.567142496,6289,1532134732188565200,base_link,0,1,40.5922984,-79.8960647,367.545379042,0.348099969053,0.0,0.0,0.0,0.348099969053,0.0,0.0,0.0,1.39239987621,1,444.42043699688116,253.49041549099934,367.5248691326624,-0.25323316867672907,-12.467967134099696,0.5756707514873991,0,Fixed-Wing
1970-01-01 00:00:27.945092352,6291,1532134732566159664,base_link,0,1,40.5922549,-79.8960675,368.065394304,0.348099969053,0.0,0.0,0.0,0.348099969053,0.0,0.0,0.0,1.39239987621,1,444.1837232260021,248.65964010930293,368.0450914816005,-0.5918954075866172,-12.079203304860693,1.300799772302535,0,Fixed-Wing
1970-01-01 00:00:28.389034528,6293,1532134733008910864,base_link,0,1,40.5922133,-79.8960714,368.645407655,0.348099969053,0.0,0.0,0.0,0.348099969053,0.0,0.0,0.0,1.39239987621,1,443.85387859597176,244.0398604253418,368.6253066273056,-0.8247662187418207,-11.551615137741145,1.4508098911173266,0,Fixed-Wing
1970-01-01 00:00:28.759896160,6295,1532134733381374608,base_link,0,1,40.5921725,-79.8960748,369.065421194,0.348099969053,0.0,0.0,0.0,0.348099969053,0.0,0.0,0.0,1.39239987621,1,443.566345364457,239.50891842444804,369.04551230732295,-0.7189678852654163,-11.329479279599324,1.0507112083950116,0,Fixed-Wing
1970-01-01 00:00:29.206880736,6297,1532134733828165040,base_link,0,1,40.5921325,-79.8960778,369.215434816,0.348099969053,0.0,0.0,0.0,0.348099969053,0.0,0.0,0.0,1.39239987621,1,443.3126503571759,235.0668098937276,369.19570919927907,-0.6343564600389245,-11.107353955667804,0.37556264788676286,0,Fixed-Wing
1970-01-01 00:00:29.587308352,6299,1532134734208884208,base_link,0,1,40.592092,-79.8960787,369.075450808,0.348099969053,0.0,0.0,0.0,0.348099969053,0.0,0.0,0.0,1.39239987621,1,443.2367171419103,230.56917501219755,369.05589503101277,-0.18986863853384955,-11.24619586554991,-0.34960097084777925,0,Fixed-Wing
1970-01-01 00:00:30.001247680,6301,1532134734622681072,base_link,0,1,40.5920507,-79.8960768,368.815470013,0.348099969053,0.0,0.0,0.0,0.348099969053,0.0,0.0,0.0,1.39239987621,1,443.39781949352687,225.982708217339,368.79606760118986,0.40283140993084077,-11.468317296639501,-0.6496903915056718,0,Fixed-Wing
1970-01-01 00:00:30.375911040,6303,1532134734997016912,base_link,0,1,40.5920082,-79.8960719,368.645492804,0.348099969053,0.0,0.0,0.0,0.348099969053,0.0,0.0,0.0,1.39239987621,1,443.81290639933974,221.26299712472758,368.6262274390693,1.0379118730083656,-11.801490510999361,-0.4246800328075988,0,Fixed-Wing
1970-01-01 00:00:30.794489120,6305,1532134735415972368,base_link,0,1,40.5919651,-79.8960647,368.625518214,0.348099969053,0.0,0.0,0.0,0.348099969053,0.0,0.0,0.0,1.39239987621,1,444.4227188119864,216.47667157350082,368.60637508978306,1.5248169347918918,-11.968057888921056,-0.04964018074945311,0,Fixed-Wing
1970-01-01 00:00:31.207721728,6307,1532134735829254576,base_link,0,1,40.5919219,-79.8960566,368.555544599,0.348099969053,0.0,0.0,0.0,0.348099969053,0.0,0.0,0.0,1.39239987621,1,445.10872033695955,211.6792437779062,368.53651511844464,1.7153254359521526,-11.995818704993724,-0.17468268134879522,0,Fixed-Wing
1970-01-01 00:00:31.564911648,6309,1532134736184651728,base_link,0,1,40.591879,-79.8960495,368.415569844,0.348099969053,0.0,0.0,0.0,0.348099969053,0.0,0.0,0.0,1.39239987621,1,445.7100589604871,206.9151245850041,368.39665514054894,1.5036284891606364,-11.912531581926899,-0.3497155163985657,0,Fixed-Wing
1970-01-01 00:00:31.998379712,6311,1532134736618683952,base_link,0,1,40.5918364,-79.8960443,368.205593024,0.348099969053,0.0,0.0,0.0,0.348099969053,0.0,0.0,0.0,1.39239987621,1,446.1505432541926,202.18430957017443,368.18679965318177,1.101417249998077,-11.829255522484614,-0.5247371066254392,0,Fixed-Wing
1970-01-01 00:00:32.391439680,6313,1532134737012818256,base_link,0,1,40.5917942,-79.8960414,367.965613687,0.348099969053,0.0,0.0,0.0,0.348099969053,0.0,0.0,0.0,1.39239987621,1,446.3963122405337,197.4979033152831,367.94695033347455,0.6145376916699146,-11.71821280212871,-0.5997357497211189,0,Fixed-Wing
1970-01-01 00:00:32.759053152,6315,1532134737380561040,base_link,0,1,40.591752,-79.8960406,367.735632205,0.348099969053,0.0,0.0,0.0,0.348099969053,0.0,0.0,0.0,1.39239987621,1,446.46430242986946,192.81148710911515,367.71710783634,0.17000734971750633,-11.71823768498584,-0.574714001711674,0,Fixed-Wing
1970-01-01 00:00:33.192914144,6317,1532134737814144496,base_link,0,1,40.59171,-79.896042,367.545648392,0.348099969053,0.0,0.0,0.0,0.348099969053,0.0,0.0,0.0,1.39239987621,1,446.34604856619353,188.14727179400495,367.52727191657084,-0.2956901010837828,-11.66272504872213,-0.4746788016982338,0,Fixed-Wing
1970-01-01 00:00:33.578658176,6319,1532134738195536688,base_link,0,1,40.5916685,-79.8960447,367.455663045,0.348099969053,0.0,0.0,0.0,0.348099969053,0.0,0.0,0.0,1.39239987621,1,446.1177439350838,183.53857930956048,367.43743712561775,-0.5708686156397383,-11.523891940850097,-0.22462909533810393,0,Fixed-Wing
1970-01-01 00:00:34.012086592,6321,1532134738632132112,base_link,0,1,40.5916269,-79.8960466,367.345678568,0.348099969053,0.0,0.0,0.0,0.348099969053,0.0,0.0,0.0,1.39239987621,1,445.95716405243405,178.9187852415502,367.3275954434388,-0.4015249925604956,-11.551651104607776,-0.27465570339180334,0,Fixed-Wing
1970-01-01 00:00:34.393955456,6323,1532134739015281392,base_link,0,1,40.5915849,-79.8960472,367.205695602,0.348099969053,0.0,0.0,0.0,0.348099969053,0.0,0.0,0.0,1.39239987621,1,445.9066389555967,174.25457615559299,367.1877454506925,-0.12633643017406168,-11.662709472919236,-0.34969054884363865,0,Fixed-Wing
1970-01-01 00:00:34.772579872,6325,1532134739394108944,base_link,0,1,40.5915426,-79.8960462,367.065714411,0.348099969053,0.0,0.0,0.0,0.348099969053,0.0,0.0,0.0,1.39239987621,1,445.99156746368806,169.5570596836874,367.04788524343036,0.2123610879324023,-11.745993553555223,-0.34971608992218933,0,Fixed-Wing
1970-01-01 00:00:35.164564480,6327,1532134739785931024,base_link,0,1,40.5914999,-79.896044,366.87573463,0.348099969053,0.0,0.0,0.0,0.348099969053,0.0,0.0,0.0,1.39239987621,1,446.1780840566691,164.8151272697428,366.8580170317809,0.466378928501684,-11.857054232530162,-0.4747595465386468,0,Fixed-Wing
1970-01-01 00:00:35.562141088,6329,1532134740183299792,base_link,0,1,40.591457,-79.8960405,366.815756275,0.348099969053,0.0,0.0,0.0,0.348099969053,0.0,0.0,0.0,1.39239987621,1,446.47466591213515,160.05099455277252,366.7981395739422,0.7415936874815494,-11.912565398437874,-0.14972171741875387,0,Fixed-Wing
1970-01-01 00:00:35.989862368,6331,1532134740610783824,base_link,0,1,40.5914139,-79.8960356,367.005779451,0.348099969053,0.0,0.0,0.0,0.348099969053,0.0,0.0,0.0,1.39239987621,1,446.88978739668397,155.26466469508654,366.9882523174215,1.0379983360600609,-11.968068657088166,0.4753709907589917,0,Fixed-Wing
1970-01-01 00:00:36.379498368,6333,1532134741000728272,base_link,0,1,40.5913714,-79.8960305,367.24580259,0.348099969053,0.0,0.0,0.0,0.348099969053,0.0,0.0,0.0,1.39239987621,1,447.32184044509916,150.54496826478731,367.22835863288515,1.0803351838849398,-11.801453848344622,0.6003783596015831,0,Fixed-Wing
1970-01-01 00:00:36.785088512,6335,1532134741405990672,base_link,0,1,40.5913295,-79.8960264,367.355824458,0.348099969053,0.0,0.0,0.0,0.348099969053,0.0,0.0,0.0,1.39239987621,1,447.6692233887347,145.8918949321386,367.3384645549695,0.8686202253810669,-11.634864868784689,0.27531642704096543,0,Fixed-Wing
1970-01-01 00:00:37.213211712,6337,1532134741834600176,base_link,0,1,40.5912877,-79.8960239,367.385844652,0.348099969053,0.0,0.0,0.0,0.348099969053,0.0,0.0,0.0,1.39239987621,1,447.88114830294944,141.24991681622933,367.36857463357524,0.5299116439701503,-11.607121625077873,0.07528931326056248,0,Fixed-Wing
1970-01-01 00:00:37.611948800,6339,1532134742233323792,base_link,0,1,40.5912457,-79.8960233,367.385862989,0.348099969053,0.0,0.0,0.0,0.348099969053,0.0,0.0,0.0,1.39239987621,1,447.93222313347303,136.58571789929454,367.3686912220812,0.1277110221256218,-11.662684045595535,0.0002915259260837833,0,Fixed-Wing
1970-01-01 00:00:37.980265376,6341,1532134742601728752,base_link,0,1,40.5912035,-79.8960243,367.265879778,0.348099969053,0.0,0.0,0.0,0.348099969053,0.0,0.0,0.0,1.39239987621,1,447.84783858369406,131.89929790676405,367.24881280070383,-0.2110009371231465,-11.718247152667347,-0.29975225699166935,0,Fixed-Wing
1970-01-01 00:00:38.392388288,6343,1532134743013938512,base_link,0,1,40.5911609,-79.896027,367.115894999,0.348099969053,0.0,0.0,0.0,0.348099969053,0.0,0.0,0.0,1.39239987621,1,447.6195362706983,127.16844791472475,367.09894033501587,-0.5708628192680266,-11.829342981907349,-0.37475143011305395,0,Fixed-Wing
1970-01-01 00:00:38.756601056,6345,1532134743377855856,base_link,0,1,40.591118,-79.896031,367.065909022,0.348099969053,0.0,0.0,0.0,0.348099969053,0.0,0.0,0.0,1.39239987621,1,447.28118750300484,122.404277782451,367.0490714935735,-0.846030549961734,-11.912658954238289,-0.12469548400922566,0,Fixed-Wing
1970-01-01 00:00:39.162126240,6347,1532134743783561424,base_link,0,1,40.5910752,-79.8960353,367.305922704,0.348099969053,0.0,0.0,0.0,0.348099969053,0.0,0.0,0.0,1.39239987621,1,446.9174605660432,117.65121685600903,367.28920029490416,-0.9094878713800205,-11.884880731242047,0.600434584811362,0,Fixed-Wing
1970-01-01 00:00:39.574929664,6349,1532134744196419600,base_link,0,1,40.5910332,-79.8960401,367.805935542,0.348099969053,0.0,0.0,0.0,0.348099969053,0.0,0.0,0.0,1.39239987621,1,446.51141701805915,112.98699964706125,367.78932606524603,-1.0152992385673334,-11.662729784203977,1.250548903774126,0,Fixed-Wing
1970-01-01 00:00:39.986462944,6351,1532134744607791728,base_link,0,1,40.5909924,-79.8960463,368.225946444,0.348099969053,0.0,0.0,0.0,0.348099969053,0.0,0.0,0.0,1.39239987621,1,445.98683812781815,108.45603623263992,368.20945246087615,-1.3116931680715203,-11.32953282345774,1.0505129602553491,0,Fixed-Wing
1970-01-01 00:00:40.371540352,6353,1532134744992939824,base_link,0,1,40.5909522,-79.8960542,368.195955355,0.348099969053,0.0,0.0,0.0,0.348099969053,0.0,0.0,0.0,1.39239987621,1,445.3183044728688,103.99168780204226,368.1795825433264,-1.671647571292939,-11.162964132268934,-0.07468879802406583,0,Fixed-Wing
1970-01-01 00:00:40.779174368,6355,1532134745400536400,base_link,0,1,40.5909118,-79.8960649,367.955961483,0.348099969053,0.0,0.0,0.0,0.348099969053,0.0,0.0,0.0,1.39239987621,1,444.41271403980267,99.50511160163632,367.93972348561704,-2.2644006577887152,-11.21854397801075,-0.5997600992919639,0,Fixed-Wing
1970-01-01 00:00:41.170881120,6357,1532134745792341680,base_link,0,1,40.5908707,-79.8960787,367.625964733,0.348099969053,0.0,0.0,0.0,0.348099969053,0.0,0.0,0.0,1.39239987621,1,443.24468069201373,94.94078222842165,367.6098776377473,-2.9206309877825465,-11.412963363667343,-0.8247692639113898,0,Fixed-Wing
1970-01-01 00:00:41.535201152,6359,1532134746156428880,base_link,0,1,40.5908293,-79.8960968,367.355963704,0.348099969053,0.0,0.0,0.0,0.348099969053,0.0,0.0,0.0,1.39239987621,1,441.71262190620337,90.34311709457242,367.34004967784284,-3.8308652517606143,-11.496318394322019,-0.6746964053370823,0,Fixed-Wing
1970-01-01 00:00:41.961384160,6361,1532134746580363280,base_link,0,1,40.5907885,-79.8961194,367.085957807,0.348099969053,0.0,0.0,0.0,0.348099969053,0.0,0.0,0.0,1.39239987621,1,439.7995953111489,85.81206166171569,367.0702385029789,-4.783463387021255,-11.32976291268796,-0.6746544348664031,0,Fixed-Wing
1970-01-01 00:00:42.408063840,6363,1532134747029490448,base_link,0,1,40.5907491,-79.8961477,366.885945472,0.348099969053,0.0,0.0,0.0,0.348099969053,0.0,0.0,0.0,1.39239987621,1,437.4040099426987,81.436453075912,366.8704481678027,-5.990086562355975,-10.941072915680914,-0.4995695072231128,0,Fixed-Wing
1970-01-01 00:00:42.737672288,6365,1532134747359155504,base_link,0,1,40.5907121,-79.8961821,366.745925862,0.348099969053,0.0,0.0,0.0,0.348099969053,0.0,0.0,0.0,1.39239987621,1,434.4919945750158,77.32734195019088,366.7306785657546,-7.281403682397694,-10.274704321363041,-0.34948953440792835,0,Fixed-Wing
1970-01-01 00:00:43.166216736,6367,1532134747786183760,base_link,0,1,40.5906782,-79.8962223,366.675898987,0.348099969053,0.0,0.0,0.0,0.348099969053,0.0,0.0,0.0,1.39239987621,1,431.0889423154363,73.56246701799182,366.66092690576687,-8.509226128847793,-9.413952446581394,-0.17441185219161184,0,Fixed-Wing
1970-01-01 00:00:43.541018848,6369,1532134748162505232,base_link,0,1,40.5906486,-79.8962684,366.655864235,0.348099969053,0.0,0.0,0.0,0.348099969053,0.0,0.0,0.0,1.39239987621,1,427.18637798018153,70.27509098824484,366.6411914987144,-9.75824050823228,-8.219981320865113,-0.049347770338066234,0,Fixed-Wing
1970-01-01 00:00:44.009778880,6371,1532134748631052080,base_link,0,1,40.5906239,-79.8963191,366.685822684,0.348099969053,0.0,0.0,0.0,0.348099969053,0.0,0.0,0.0,1.39239987621,1,422.8943537745862,67.53185223901613,366.6714652543299,-10.732072777634155,-6.859383007385658,0.07569858252296459,0,Fixed-Wing
1970-01-01 00:00:44.408265568,6373,1532134749029566896,base_link,0,1,40.5906047,-79.8963734,366.825775105,0.348099969053,0.0,0.0,0.0,0.348099969053,0.0,0.0,0.0,1.39239987621,1,418.2975287701086,65.39938819066185,366.8117426334809,-11.49421767700839,-5.3321599008671114,0.3507592152302883,0,Fixed-Wing
1970-01-01 00:00:44.778439904,6375,1532134749399947216,base_link,0,1,40.5905905,-79.8964304,367.025722636,0.348099969053,0.0,0.0,0.0,0.348099969053,0.0,0.0,0.0,1.39239987621,1,413.47209606755763,63.82217684737665,367.0120203563032,-12.065844102146613,-3.9437678146782513,0.5007882048441751,0,Fixed-Wing
1970-01-01 00:00:45.170466080,6377,1532134749791966576,base_link,0,1,40.5905808,-79.896489,367.235666617,0.348099969053,0.0,0.0,0.0,0.348099969053,0.0,0.0,0.0,1.39239987621,1,408.51118064916415,62.74469705988872,367.2222942522513,-12.404614411185806,-2.694204632088345,0.5257833242435248,0,Fixed-Wing
1970-01-01 00:00:45.601085088,6379,1532134750222609552,base_link,0,1,40.5905754,-79.8965482,367.495608162,0.348099969053,0.0,0.0,0.0,0.348099969053,0.0,0.0,0.0,1.39239987621,1,403.49944566729727,62.14474363074984,367.4825602413049,-12.531687146007076,-1.5001648537572756,0.6507869951956178,0,Fixed-Wing
1970-01-01 00:00:45.992683648,6381,1532134750613264368,base_link,0,1,40.5905739,-79.8966074,367.815548054,0.348099969053,0.0,0.0,0.0,0.348099969053,0.0,0.0,0.0,1.39239987621,1,398.4876900642822,61.97789854849461,367.8028163854965,-12.53173870854547,-0.41719092893726545,0.8007905086993892,0,Fixed-Wing
1970-01-01 00:00:46.377119360,6383,1532134750998583216,base_link,0,1,40.5905756,-79.8966656,368.11548762,0.324899991846,0.0,0.0,0.0,0.324899991846,0.0,0.0,0.0,1.29959996738,1,393.5605722727819,62.166428860254314,368.1030595908354,-12.320104498344282,0.47141416955605714,0.7507487787433036,0,Fixed-Wing
1970-01-01 00:00:46.791954720,6385,1532134751413438128,base_link,0,1,40.5905793,-79.8967222,368.415427984,0.324899991846,0.0,0.0,0.0,0.324899991846,0.0,0.0,0.0,1.29959996738,1,388.7688963376264,62.577074372169136,368.40328936537185,-11.981436357205645,1.026806305969425,0.7507151954402278,0,Fixed-Wing
1970-01-01 00:00:47.235527392,6387,1532134751856960208,base_link,0,1,40.5905836,-79.8967776,368.61536933,0.324899991846,0.0,0.0,0.0,0.324899991846,0.0,0.0,0.0,1.29959996738,1,384.0788012682757,63.05435871104277,368.6035097330139,-11.727436567733246,1.1934346161746092,0.5006447900032062,0,Fixed-Wing
1970-01-01 00:00:47.628444384,6389,1532134752249649488,base_link,0,1,40.5905872,-79.8968318,368.59531221,0.324899991846,0.0,0.0,0.0,0.324899991846,0.0,0.0,0.0,1.29959996738,1,379.4902876195101,63.453912297949046,368.583722896179,-11.473435391049748,0.9990712931331605,-0.04947636890641083,0,Fixed-Wing
1970-01-01 00:00:48.013173696,6391,1532134752633814160,base_link,0,1,40.5905893,-79.8968855,368.415256244,0.348099969053,0.0,0.0,0.0,0.348099969053,0.0,0.0,0.0,1.39239987621,1,374.9441027367819,63.68689058069015,368.4039330774392,-11.36759363062638,0.5825549359032342,-0.4495588391317816,0,Fixed-Wing
1970-01-01 00:00:48.451407072,6393,1532134753072686736,base_link,0,1,40.5905883,-79.8969387,368.235202111,0.324899991846,0.0,0.0,0.0,0.324899991846,0.0,0.0,0.0,1.29959996738,1,370.4402647545635,63.57561119336904,368.2241428406596,-11.2617065255195,-0.2782506402978175,-0.4495598844272836,0,Fixed-Wing
1970-01-01 00:00:48.839465920,6395,1532134753460875120,base_link,0,1,40.5905842,-79.8969915,368.025149709,0.324899991846,0.0,0.0,0.0,0.324899991846,0.0,0.0,0.0,1.29959996738,1,365.9703054801877,63.12007337647884,368.0143526387484,-11.17699387229058,-1.1390581156221782,-0.5245738623772771,0,Fixed-Wing
1970-01-01 00:00:49.242133472,6397,1532134753862319824,base_link,0,1,40.5905767,-79.8970433,367.825099778,0.324899991846,0.0,0.0,0.0,0.324899991846,0.0,0.0,0.0,1.29959996738,1,361.58502335225324,62.28696423825281,367.8145606644922,-10.965261306331016,-2.0831634387098465,-0.49957360569153275,0,Fixed-Wing
1970-01-01 00:00:49.588047456,6399,1532134754209000784,base_link,0,1,40.5905672,-79.8970941,367.795051725,0.324899991846,0.0,0.0,0.0,0.324899991846,0.0,0.0,0.0,1.29959996738,1,357.284419204652,61.23175858982583,367.78476485274604,-10.753526655250946,-2.638508841475219,-0.07450349877144206,0,Fixed-Wing
1970-01-01 00:00:49.961693056,6401,1532134754583102448,base_link,0,1,40.590557,-79.8971443,367.875004588,0.324899991846,0.0,0.0,0.0,0.324899991846,0.0,0.0,0.0,1.29959996738,1,353.0346187693881,60.09882218151077,367.8649648132616,-10.626493555701499,-2.8328721843222127,0.20053750207060236,0,Fixed-Wing
1970-01-01 00:00:50.391974368,6403,1532134755013229872,base_link,0,1,40.5905473,-79.8971941,367.934957652,0.324899991846,0.0,0.0,0.0,0.324899991846,0.0,0.0,0.0,1.29959996738,1,348.81867667034214,59.02141578234901,367.9251595841091,-10.54183184108507,-2.694021126865686,0.15051514870910332,0,Fixed-Wing
1970-01-01 00:00:50.816644576,6405,1532134755438182832,base_link,0,1,40.5905389,-79.8972444,367.884909656,0.324899991846,0.0,0.0,0.0,0.324899991846,0.0,0.0,0.0,1.29959996738,1,344.56039137811393,58.088376937749786,367.875351294997,-10.647709676134797,-2.3330345554772123,-0.12454407479425644,0,Fixed-Wing
1970-01-01 00:00:51.210099104,6407,1532134755831454064,base_link,0,1,40.5905328,-79.8972954,367.79485997,0.324899991846,0.0,0.0,0.0,0.324899991846,0.0,0.0,0.0,1.29959996738,1,340.24283029208465,57.41075804753257,367.7855392001386,-10.7959269513766,-1.6943649189653511,-0.22457234446062752,0,Fixed-Wing
1970-01-01 00:00:51.602044384,6409,1532134756223322768,base_link,0,1,40.5905294,-79.8973475,367.684808016,0.324899991846,0.0,0.0,0.0,0.324899991846,0.0,0.0,0.0,1.29959996738,1,335.83212953948123,57.032978834070974,367.67572406208956,-11.028819785218275,-0.9446251508697722,-0.2745893306221005,0,Fixed-Wing
1970-01-01 00:00:51.982518048,6411,1532134756603869456,base_link,0,1,40.5905284,-79.8974004,367.484754228,0.324899991846,0.0,0.0,0.0,0.324899991846,0.0,0.0,0.0,1.29959996738,1,331.353685109519,56.92172422802318,367.4759051584008,-11.198210739419201,-0.27818867549614035,-0.499640941898519,0,Fixed-Wing
1970-01-01 00:00:52.378176192,6413,1532134756998604816,base_link,0,1,40.5905299,-79.897454,367.294698668,0.324899991846,0.0,0.0,0.0,0.324899991846,0.0,0.0,0.0,1.29959996738,1,326.81596816028195,57.08810084060377,367.2860818889458,-11.346419826810155,0.4160195351143142,-0.4746471699819187,0,Fixed-Wing
1970-01-01 00:00:52.772317792,6415,1532134757393764688,base_link,0,1,40.5905328,-79.8975076,367.14464252,0.324899991846,0.0,0.0,0.0,0.324899991846,0.0,0.0,0.0,1.29959996738,1,322.27824698177153,57.409953939379676,367.1362534041033,-11.34643040197643,0.8047836438729858,-0.374641457379477,0,Fixed-Wing
1970-01-01 00:00:53.182268832,6417,1532134757803700016,base_link,0,1,40.5905364,-79.8975611,367.024586182,0.324899991846,0.0,0.0,0.0,0.324899991846,0.0,0.0,0.0,1.29959996738,1,317.748990442474,57.80954710213675,367.01642036068904,-11.325264835400475,0.9991702513147996,-0.2996387908088924,0,Fixed-Wing
1970-01-01 00:00:53.619314784,6419,1532134758240360528,base_link,0,1,40.5905401,-79.8976144,367.054530013,0.324899991846,0.0,0.0,0.0,0.324899991846,0.0,0.0,0.0,1.29959996738,1,313.2366731605335,58.22025032680432,367.0465833187752,-11.28290875024195,1.0269506149092242,0.07542153675359123,0,Fixed-Wing
1970-01-01 00:00:54.009948416,6421,1532134758628762096,base_link,0,1,40.5905426,-79.8976669,367.184475176,0.324899991846,0.0,0.0,0.0,0.324899991846,0.0,0.0,0.0,1.29959996738,1,308.7920935320077,58.49769712150794,367.17674234574326,-11.11353285872548,0.6937470643336162,0.3254585909059064,0,Fixed-Wing
1970-01-01 00:00:54.404533888,6423,1532134759026032016,base_link,0,1,40.5905433,-79.8977188,367.344421722,0.324899991846,0.0,0.0,0.0,0.324899991846,0.0,0.0,0.0,1.29959996738,1,304.3983187793542,58.575254583261085,367.33689907492004,-10.986496849793049,0.1939300162609107,0.40046691048765765,0,Fixed-Wing
1970-01-01 00:00:54.807182656,6425,1532134759428038352,base_link,0,1,40.5905424,-79.8977703,367.544369359,0.348099969053,0.0,0.0,0.0,0.348099969053,0.0,0.0,0.0,1.39239987621,1,300.0384163532079,58.475132503057836,367.5370539147568,-10.901800152894504,-0.25035214153466073,0.5004809397681679,0,Fixed-Wing
1970-01-01 00:00:55.171144576,6427,1532134759792362192,base_link,0,1,40.5905404,-79.8978218,367.664317467,0.348099969053,0.0,0.0,0.0,0.348099969053,0.0,0.0,0.0,1.39239987621,1,295.6785146787343,58.25285457358558,367.6572073695333,-10.901798273360196,-0.5557990359998892,0.3004399694354464,0,Fixed-Wing
1970-01-01 00:00:55.576662720,6429,1532134760198057392,base_link,0,1,40.5905374,-79.897874,367.644265285,0.372100017452,0.0,0.0,0.0,0.372100017452,0.0,0.0,0.0,1.48840006981,1,291.2593495351507,57.91952317384397,367.63736126274637,-11.049984731096076,-0.8334847777498527,-0.04962457157449243,0,Fixed-Wing
1970-01-01 00:00:55.987756192,6431,1532134760609101360,base_link,0,1,40.5905337,-79.8979274,367.674212176,0.348099969053,0.0,0.0,0.0,0.348099969053,0.0,0.0,0.0,1.39239987621,1,286.7385989685929,57.50845424662347,367.6675164210729,-11.303995915628702,-1.02786504274676,0.07540203369762398,0,Fixed-Wing
1970-01-01 00:00:56.374133632,6433,1532134760995366960,base_link,0,1,40.5905303,-79.897982,367.844157716,0.348099969053,0.0,0.0,0.0,0.348099969053,0.0,0.0,0.0,1.39239987621,1,282.1162624857889,57.13070119523499,367.8376711888702,-11.558008333572479,-0.9445597334212197,0.4254666944985387,0,Fixed-Wing
1970-01-01 00:00:56.787720320,6435,1532134761409149168,base_link,0,1,40.5905279,-79.8980373,368.10410212,0.348099969053,0.0,0.0,0.0,0.348099969053,0.0,0.0,0.0,1.39239987621,1,277.4346640523454,56.86400201305091,368.0978230351295,-11.706190994420268,-0.6668729941466122,0.6505015846953927,0,Fixed-Wing
1970-01-01 00:00:57.152552640,6437,1532134761773784496,base_link,0,1,40.5905275,-79.8980929,368.404045376,0.348099969053,0.0,0.0,0.0,0.348099969053,0.0,0.0,0.0,1.39239987621,1,272.72766090573293,56.81941003887695,368.39796939813857,-11.769714688035169,-0.11150084184273162,0.7505066275152802,0,Fixed-Wing
1970-01-01 00:00:57.560821760,6439,1532134762182245968,base_link,0,1,40.5905292,-79.8981481,368.763988157,0.348099969053,0.0,0.0,0.0,0.348099969053,0.0,0.0,0.0,1.39239987621,1,268.0545148321403,57.00803290530553,368.7581083098558,-11.685056132006371,0.47164559962136365,0.9005161260667098,0,Fixed-Wing
1970-01-01 00:00:57.976400224,6441,1532134762597556912,base_link,0,1,40.5905328,-79.8982028,369.003930652,0.348099969053,0.0,0.0,0.0,0.348099969053,0.0,0.0,0.0,1.39239987621,1,263.42368536448527,57.407658778490344,368.9982398674447,-11.579244777533336,0.9992520427200532,0.6004414767490945,0,Fixed-Wing
1970-01-01 00:00:58.381994560,6443,1532134763001430928,base_link,0,1,40.5905375,-79.8982568,369.163873403,0.348099969053,0.0,0.0,0.0,0.348099969053,0.0,0.0,0.0,1.39239987621,1,258.85210957756743,57.929446578121684,369.1583647851337,-11.431082795318707,1.3047141329782848,0.4003873668538297,0,Fixed-Wing
1970-01-01 00:00:58.792993056,6445,1532134763414532176,base_link,0,1,40.5905424,-79.8983102,369.253816689,0.348099969053,0.0,0.0,0.0,0.348099969053,0.0,0.0,0.0,1.39239987621,1,254.33132580926898,58.47344878710271,369.2484846976556,-11.30407893554656,1.3602605713096882,0.2253420329359596,0,Fixed-Wing
1970-01-01 00:00:59.233009536,6447,1532134763854436208,base_link,0,1,40.5905463,-79.8983626,369.293761427,0.348099969053,0.0,0.0,0.0,0.348099969053,0.0,0.0,0.0,1.39239987621,1,249.89520292052268,58.906403680719706,369.28860053261667,-11.092387044436576,1.082590219708681,0.10030839522674717,0,Fixed-Wing
1970-01-01 00:00:59.630801728,6449,1532134764252207664,base_link,0,1,40.5905486,-79.898414,369.243707869,0.348099969053,0.0,0.0,0.0,0.348099969053,0.0,0.0,0.0,1.39239987621,1,245.54374146253642,59.16167925277912,369.2387133624503,-10.880693775048474,0.6383086130134844,-0.12474131441234598,0,Fixed-Wing
1970-01-01 00:01:00.005030912,6451,1532134764626402832,base_link,0,1,40.5905488,-79.8984649,369.133655715,0.372100017452,0.0,0.0,0.0,0.372100017452,0.0,0.0,0.0,1.48840006981,1,241.23461493998317,59.18374803701846,369.12882519464677,-10.774836588243403,0.0551823072809588,-0.27477193924747595,0,Fixed-Wing
1970-01-01 00:01:00.369317408,6453,1532134764985304400,base_link,0,1,40.5905468,-79.8985154,369.043604905,0.348099969053,0.0,0.0,0.0,0.348099969053,0.0,0.0,0.0,1.39239987621,1,236.95936052824,58.96150519784837,369.03893647896734,-10.690140430688661,-0.5557112937928187,-0.22476393243588597,0,Fixed-Wing
1970-01-01 00:01:00.772708288,6455,1532134765393382256,base_link,0,1,40.5905428,-79.8985659,368.933554944,0.348099969053,0.0,0.0,0.0,0.348099969053,0.0,0.0,0.0,1.39239987621,1,232.68411218466508,58.517159750391926,368.9290477887153,-10.690125257423093,-1.1110719446307231,-0.2747732456136397,0,Fixed-Wing
1970-01-01 00:01:01.150055456,6457,1532134765771190960,base_link,0,1,40.5905371,-79.8986167,368.913505398,0.372100017452,0.0,0.0,0.0,0.372100017452,0.0,0.0,0.0,1.48840006981,1,228.38347490544277,57.88402766514196,368.9091592478568,-10.753609499837006,-1.583127049446693,-0.04973067664816401,0,Fixed-Wing
1970-01-01 00:01:01.633032768,6459,1532134766254355920,base_link,0,1,40.5905305,-79.8986679,368.893455828,0.372100017452,0.0,0.0,0.0,0.372100017452,0.0,0.0,0.0,1.48840006981,1,224.04897648760317,57.150949849961506,368.88926981172295,-10.838278221765576,-1.8330382326197436,-0.04973291525620438,0,Fixed-Wing
1970-01-01 00:01:01.972927488,6461,1532134766594314288,base_link,0,1,40.5905241,-79.8987202,368.823405052,0.348099969053,0.0,0.0,0.0,0.348099969053,0.0,0.0,0.0,1.39239987621,1,219.62135040678248,56.44008186297606,368.81937914926596,-11.071141040996906,-1.777503249322869,-0.1747594235344092,0,Fixed-Wing
1970-01-01 00:01:02.380161856,6463,1532134767001535024,base_link,0,1,40.5905188,-79.8987739,368.663352384,0.348099969053,0.0,0.0,0.0,0.348099969053,0.0,0.0,0.0,1.39239987621,1,215.07519496881432,55.85136999157501,368.65948636764966,-11.367520004921342,-1.472055688944291,-0.3998069178378264,0,Fixed-Wing
1970-01-01 00:01:02.864445024,6465,1532134767485541200,base_link,0,1,40.5905159,-79.8988301,368.61329615,0.348099969053,0.0,0.0,0.0,0.348099969053,0.0,0.0,0.0,1.39239987621,1,210.31738860995927,55.52918174878931,368.6095913812494,-11.896746537113332,-0.8056216610256915,-0.1247608586616519,0,Fixed-Wing
1970-01-01 00:01:03.184979872,6467,1532134767806395184,base_link,0,1,40.5905161,-79.8988877,368.753237181,0.348099969053,0.0,0.0,0.0,0.348099969053,0.0,0.0,0.0,1.39239987621,1,205.44105647712604,55.55125748463439,368.74969091650337,-12.193116541434586,0.05519968955448715,0.35031452210781194,0,Fixed-Wing
1970-01-01 00:01:03.574205056,6469,1532134768195347312,base_link,0,1,40.5905185,-79.8989456,368.933176982,0.348099969053,0.0,0.0,0.0,0.348099969053,0.0,0.0,0.0,1.39239987621,1,200.53932125936075,55.81765144638169,368.9297841578654,-12.256636163693925,0.6661097999557359,0.45031753794347545,0,Fixed-Wing
1970-01-01 00:01:03.979059936,6471,1532134768600422256,base_link,0,1,40.5905232,-79.8990038,369.153115511,0.348099969053,0.0,0.0,0.0,0.348099969053,0.0,0.0,0.0,1.39239987621,1,195.6121830555826,56.33946895391014,369.1498708766655,-12.320155538608882,1.3047884166492554,0.5503199819968136,0,Fixed-Wing
1970-01-01 00:01:04.400923392,6473,1532134769022120848,base_link,0,1,40.5905302,-79.8990617,369.543053382,0.348099969053,0.0,0.0,0.0,0.348099969053,0.0,0.0,0.0,1.39239987621,1,190.71044132523235,57.11671256229252,369.53995004794274,-12.256652448209636,1.943473422222611,0.9753808120953935,0,Fixed-Wing
1970-01-01 00:01:04.774040256,6475,1532134769395632400,base_link,0,1,40.590539,-79.8991189,370.022991216,0.348099969053,0.0,0.0,0.0,0.348099969053,0.0,0.0,0.0,1.39239987621,1,185.86795867476096,58.093856212963345,370.020021780404,-12.108476965609544,2.443317248661188,1.200404406979517,0,Fixed-Wing
1970-01-01 00:01:05.185146048,6477,1532134769806448336,base_link,0,1,40.5905486,-79.8991757,370.372929128,0.348099969053,0.0,0.0,0.0,0.348099969053,0.0,0.0,0.0,1.39239987621,1,181.0593341631735,59.15984474709401,370.3700879839297,-12.023815744420713,2.6654711111600116,0.8753296331203876,0,Fixed-Wing
1970-01-01 00:01:05.591943296,6479,1532134770213350224,base_link,0,1,40.5905567,-79.8992325,370.59286768,0.348099969053,0.0,0.0,0.0,0.348099969053,0.0,0.0,0.0,1.39239987621,1,176.2507108502606,60.05925656703374,370.5901526034306,-12.02381274717238,2.2489512282046116,0.5502647233879634,0,Fixed-Wing
1970-01-01 00:01:06.000180800,6481,1532134770620189296,base_link,0,1,40.5905624,-79.8992898,370.612806739,0.348099969053,0.0,0.0,0.0,0.348099969053,0.0,0.0,0.0,1.39239987621,1,171.39975983679483,60.6921427331591,370.61021766664703,-12.129651843385036,1.582512136338963,0.05017206530326186,0,Fixed-Wing
1970-01-01 00:01:06.361071424,6483,1532134770982570128,base_link,0,1,40.5905651,-79.8993482,370.462745947,0.348099969053,0.0,0.0,0.0,0.348099969053,0.0,0.0,0.0,1.39239987621,1,166.45568819750355,60.99187093512322,370.4602847599526,-12.362497066428157,0.7494610288531969,-0.37490256096633046,0,Fixed-Wing
1970-01-01 00:01:06.757863744,6485,1532134771374409264,base_link,0,1,40.5905644,-79.8994068,370.38268639,0.348099969053,0.0,0.0,0.0,0.348099969053,0.0,0.0,0.0,1.39239987621,1,161.49469542395371,60.914024321843044,370.3803533038738,-12.40480783534371,-0.19465303064367698,-0.19986611509353516,0,Fixed-Wing
1970-01-01 00:01:07.174087744,6487,1532134771795583728,base_link,0,1,40.5905607,-79.8994652,370.402628307,0.348099969053,0.0,0.0,0.0,0.348099969053,0.0,0.0,0.0,1.39239987621,1,156.5506438313177,60.50302492451473,370.40042222695115,-12.362446940391361,-1.0276911854180435,0.0501817167652948,0,Fixed-Wing
1970-01-01 00:01:07.578230528,6489,1532134772199765456,base_link,0,1,40.590555,-79.8995229,370.552571787,0.348099969053,0.0,0.0,0.0,0.348099969053,0.0,0.0,0.0,1.39239987621,1,151.66586027758552,59.8699262967709,370.55048954600386,-12.214249056028448,-1.5830433899952097,0.37523865487956376,0,Fixed-Wing
1970-01-01 00:01:07.987297312,6491,1532134772606382896,base_link,0,1,40.5905482,-79.8995798,370.832516552,0.348099969053,0.0,0.0,0.0,0.348099969053,0.0,0.0,0.0,1.39239987621,1,146.84880793590335,59.11467566211164,370.8305539328834,-12.04488927094373,-1.888480676775051,0.7002922719998262,0,Fixed-Wing
1970-01-01 00:01:08.377813760,6493,1532134772999382064,base_link,0,1,40.5905413,-79.8996366,371.102461466,0.348099969053,0.0,0.0,0.0,0.348099969053,0.0,0.0,0.0,1.39239987621,1,142.0402200484266,58.34832289755056,371.10061465884985,-12.023724166973212,-1.9162412066289356,0.6752784296217025,0,Fixed-Wing
1970-01-01 00:01:08.809548544,6495,1532134773430837648,base_link,0,1,40.5905352,-79.8996941,371.262405334,0.348099969053,0.0,0.0,0.0,0.348099969053,0.0,0.0,0.0,1.39239987621,1,137.17236572951765,57.67081306877998,371.26067109500934,-12.171918031903331,-1.6940922142166197,0.4002161309232816,0,Fixed-Wing
1970-01-01 00:01:09.164470464,6497,1532134773786033456,base_link,0,1,40.5905303,-79.8997527,371.242347578,0.348099969053,0.0,0.0,0.0,0.348099969053,0.0,0.0,0.0,1.39239987621,1,132.21137969859214,57.12656609828841,371.24072285980225,-12.404790975621708,-1.3608725898395222,-0.04987994050658468,0,Fixed-Wing
1970-01-01 00:01:09.557898784,6499,1532134774179372464,base_link,0,1,40.5905273,-79.8998133,371.082286985,0.348099969053,0.0,0.0,0.0,0.348099969053,0.0,0.0,0.0,1.39239987621,1,127.08106932349367,56.79331800838514,371.0807693772194,-12.828181221725261,-0.8332764640951794,-0.3999586987131691,0,Fixed-Wing
1970-01-01 00:01:09.975445344,6501,1532134774596770256,base_link,0,1,40.5905261,-79.8998754,370.83222411,0.348099969053,0.0,0.0,0.0,0.348099969053,0.0,0.0,0.0,1.39239987621,1,121.8237658180266,56.659965043827725,370.83081012328387,-13.145723586840193,-0.33344493231835326,-0.6250153252122645,0,Fixed-Wing
1970-01-01 00:01:10.368295424,6503,1532134774989786480,base_link,0,1,40.5905265,-79.8999388,370.54215924,0.348099969053,0.0,0.0,0.0,0.348099969053,0.0,0.0,0.0,1.39239987621,1,116.45640281619991,56.70429767289747,370.5408449684461,-13.420923927803187,0.1108523574913866,-0.7250488337507616,0,Fixed-Wing
1970-01-01 00:01:10.777949440,6505,1532134775398558000,base_link,0,1,40.5905291,-79.9000033,370.452092328,0.348099969053,0.0,0.0,0.0,0.348099969053,0.0,0.0,0.0,1.39239987621,1,110.99591572164539,56.99294998525659,370.4508726993182,-13.653777819727507,0.7217661120438056,-0.22497285523006544,0,Fixed-Wing
1970-01-01 00:01:11.180505632,6507,1532134775799206160,base_link,0,1,40.5905338,-79.9000681,370.522024234,0.348099969053,0.0,0.0,0.0,0.348099969053,0.0,0.0,0.0,1.39239987621,1,105.51003096160433,57.51481755619895,370.52089288100774,-13.717283890832181,1.3049135986556533,0.17508328233926043,0,Fixed-Wing
1970-01-01 00:01:11.647806624,6509,1532134776268890512,base_link,0,1,40.5905401,-79.9001324,370.671955984,0.348099969053,0.0,0.0,0.0,0.348099969053,0.0,0.0,0.0,1.39239987621,1,100.06647502245241,58.214374425542985,370.67090586667337,-13.611441993253537,1.7492201521386166,0.375102795938303,0,Fixed-Wing
1970-01-01 00:01:11.941733248,6511,1532134776559127408,base_link,0,1,40.5905484,-79.9001958,370.891887819,0.302500013113,0.0,0.0,0.0,0.302500013113,0.0,0.0,0.0,1.21000005245,1,94.69911080830727,59.13604187217675,370.8909110310902,-13.420926959167698,2.304600729221135,0.5501160578028841,0,Fixed-Wing
1970-01-01 00:01:12.374646080,6513,1532134776996173968,base_link,0,1,40.5905589,-79.9002581,371.15181986,0.302500013113,0.0,0.0,0.0,0.302500013113,0.0,0.0,0.0,1.21000005245,1,89.4248696339333,60.302030196522935,371.1509081420909,-13.1880757001287,2.9155174703911677,0.6501146740031267,0,Fixed-Wing
1970-01-01 00:01:12.780688416,6515,1532134777402039600,base_link,0,1,40.5905717,-79.9003195,371.271751859,0.302500013113,0.0,0.0,0.0,0.302500013113,0.0,0.0,0.0,1.21000005245,1,84.22681767151857,61.72344256722914,371.27089716969874,-12.997566949839904,3.554197338766537,0.30002882442422374,0,Fixed-Wing
1970-01-01 00:01:13.171155040,6517,1532134777792352336,base_link,0,1,40.5905868,-79.9003802,371.211683615,0.302500013113,0.0,0.0,0.0,0.302500013113,0.0,0.0,0.0,1.21000005245,1,79.08802354990553,63.400278169811486,371.2108781324446,-12.849394565513649,4.192875170550337,-0.1500757323352246,0,Fixed-Wing
1970-01-01 00:01:13.568634784,6519,1532134778190041136,base_link,0,1,40.5906047,-79.9004406,371.031614509,0.302500013113,0.0,0.0,0.0,0.302500013113,0.0,0.0,0.0,1.21000005245,1,73.97462492290562,65.38806325234029,371.0308501757182,-12.785893922610265,4.970394655319878,-0.4501542957464665,0,Fixed-Wing
1970-01-01 00:01:13.972839456,6521,1532134778594299824,base_link,0,1,40.590626,-79.9005007,370.731544292,0.302500013113,0.0,0.0,0.0,0.302500013113,0.0,0.0,0.0,1.21000005245,1,68.88662208063205,67.75342911194059,370.7308121068378,-12.722392554287849,5.914523622179916,-0.750235841421224,0,Fixed-Wing
1970-01-01 00:01:14.387153472,6523,1532134779008672496,base_link,0,1,40.5906516,-79.9005605,370.201472587,0.302500013113,0.0,0.0,0.0,0.302500013113,0.0,0.0,0.0,1.21000005245,1,63.82401409891306,70.59632151334691,370.2007620884158,-12.658893496828131,7.108563859239401,-1.3253735535963063,0,Fixed-Wing
1970-01-01 00:01:14.776025920,6525,1532134779397309104,base_link,0,1,40.5906827,-79.9006194,369.511399504,0.302500013113,0.0,0.0,0.0,0.302500013113,0.0,0.0,0.0,1.21000005245,1,58.83759710357861,74.05000414087434,369.5106976259133,-12.468380309644187,8.635825786153474,-1.7254846846346321,0,Fixed-Wing
1970-01-01 00:01:15.176570016,6527,1532134779797768816,base_link,0,1,40.5907206,-79.9006762,368.781325726,0.302500013113,0.0,0.0,0.0,0.302500013113,0.0,0.0,0.0,1.21000005245,1,54.0289625598803,78.25884677657729,368.7806159563413,-12.02384082940129,10.524079854230045,-1.8255464638919128,0,Fixed-Wing
1970-01-01 00:01:15.640489280,6529,1532134780261987888,base_link,0,1,40.5907667,-79.9007278,368.071253827,0.302500013113,0.0,0.0,0.0,0.302500013113,0.0,0.0,0.0,1.21000005245,1,49.66055178705619,83.3783246834216,368.070514487315,-10.923075008624382,12.801094972418104,-1.7755865950523544,0,Fixed-Wing
1970-01-01 00:01:15.971675072,6531,1532134780593079696,base_link,0,1,40.5908207,-79.9007701,367.601188116,0.302500013113,0.0,0.0,0.0,0.302500013113,0.0,0.0,0.0,1.21000005245,1,46.079465742927496,89.37512635224348,367.6003942077208,-8.954394059207843,14.99481569999847,-1.1755211091934692,0,Fixed-Wing
1970-01-01 00:01:16.383364960,6533,1532134781004862224,base_link,0,1,40.590882,-79.9007993,367.461132717,0.302500013113,0.0,0.0,0.0,0.302500013113,0.0,0.0,0.0,1.21000005245,1,43.60740512532785,96.18262294344805,367.46025690040915,-6.181310539725311,17.021933090465886,-0.35040896996098625,0,Fixed-Wing
1970-01-01 00:01:16.807185024,6535,1532134781428687312,base_link,0,1,40.5909466,-79.9008139,367.511090834,0.302500013113,0.0,0.0,0.0,0.302500013113,0.0,0.0,0.0,1.21000005245,1,42.37135591662795,103.35660312442701,367.5101108474257,-3.0907025284738467,17.938313886301078,0.12465824096161136,0,Fixed-Wing
1970-01-01 00:01:17.201076960,6537,1532134781822172912,base_link,0,1,40.5910112,-79.9008144,367.761063334,0.302500013113,0.0,0.0,0.0,0.302500013113,0.0,0.0,0.0,1.21000005245,1,42.328987811883614,110.53059385924743,367.75996305090507,-0.10594012563439104,17.938340275852777,0.6247476488825394,0,Fixed-Wing
1970-01-01 00:01:17.581119712,6539,1532134782202131920,base_link,0,1,40.5910735,-79.9008035,368.361048424,0.302500013113,0.0,0.0,0.0,0.302500013113,0.0,0.0,0.0,1.21000005245,1,43.25172366909826,117.44917663490799,368.35981801502714,2.3072722565847275,17.299700633020077,1.4999186450511306,0,Fixed-Wing
1970-01-01 00:01:17.990334880,6541,1532134782611762096,base_link,0,1,40.5911324,-79.9007877,369.17103994,0.302500013113,0.0,0.0,0.0,0.302500013113,0.0,0.0,0.0,1.21000005245,1,44.589285099494596,123.99018912640344,369.16967623192943,3.3445306754924915,16.355597903345505,2.0250252344871784,0,Fixed-Wing
1970-01-01 00:01:18.399128992,6543,1532134783020572048,base_link,0,1,40.5911886,-79.9007709,370.031033615,0.280899969673,0.0,0.0,0.0,0.280899969673,0.0,0.0,0.0,1.12359987869,1,46.01150450985705,130.23136346205598,370.0295351398918,3.5562153162779317,15.605861938244784,2.150050404356687,0,Fixed-Wing
