time,field.header.seq,field.header.stamp,field.header.frame_id,field.status.status,field.status.service,lat,lon,alt,field.position_covariance0,field.position_covariance1,field.position_covariance2,field.position_covariance3,field.position_covariance4,field.position_covariance5,field.position_covariance6,field.position_covariance7,field.position_covariance8,field.position_covariance_type,x,y,z,vel_x,vel_y,vel_z,track_id,uav_category
1970-01-01 00:00:00.000000000,4684,1536692144784515032,base_link,0,1,40.5917142,-79.8980128,377.21362852,0.50409996953,0.0,0.0,0.0,0.50409996953,0.0,0.0,0.0,2.01639987812,1,259.6775391160363,154.05668221759066,377.2064851093141,-20.379141745075525,5.939988157765724,1.0502866655371457,0,Fixed-Wing
1970-01-01 00:00:00.396987968,4686,1536692145181297944,base_link,0,1,40.5917356,-79.8981091,377.633521148,0.50409996953,0.0,0.0,0.0,0.50409996953,0.0,0.0,0.0,2.01639987812,1,251.52498573576932,156.4329388401759,377.62664598814223,-20.379141745075525,5.939988157765724,1.0502866655371457,0,Fixed-Wing
1970-01-01 00:00:00.819217696,4688,1536692145603863064,base_link,0,1,40.5917592,-79.8982016,377.833416765,0.50409996953,0.0,0.0,0.0,0.50409996953,0.0,0.0,0.0,2.01639987812,1,243.6941173540807,159.0535254812762,377.8267801941473,-19.57501770227429,6.550746020688517,0.5002804841594645,0,Fixed-Wing
1970-01-01 00:00:01.208950208,4690,1536692145992827544,base_link,0,1,40.5917849,-79.8982902,377.413315514,0.50409996953,0.0,0.0,0.0,0.50409996953,0.0,0.0,0.0,2.01639987812,1,236.193386510871,161.90732571144994,377.40688872406986,-18.74976463391454,7.133715866688995,-1.049613217739697,0,Fixed-Wing
1970-01-01 00:00:01.611928096,4692,1536692146396482872,base_link,0,1,40.5918129,-79.8983743,376.203217925,0.50409996953,0.0,0.0,0.0,0.50409996953,0.0,0.0,0.0,2.01639987812,1,229.07358312219432,165.01654532636553,376.1969705590251,-17.797550741110157,7.772194095938417,-3.024462721712534,0,Fixed-Wing
1970-01-01 00:00:01.996985920,4694,1536692146781481528,base_link,0,1,40.591845,-79.898454,374.523123144,0.50409996953,0.0,0.0,0.0,0.50409996953,0.0,0.0,0.0,2.01639987812,1,222.32624934264564,168.58108476536867,374.5170207458819,-16.866479136166728,8.910368456977585,-4.199412597472268,0,Fixed-Wing
1970-01-01 00:00:02.380975232,4696,1536692147165529720,base_link,0,1,40.5918806,-79.8985295,372.433031219,0.50409996953,0.0,0.0,0.0,0.50409996953,0.0,0.0,0.0,2.01639987812,1,215.93445963972107,172.53431149274093,372.4270421273919,-15.97771670847349,9.881979800652562,-5.224371865319728,0,Fixed-Wing
1970-01-01 00:00:02.816341568,4698,1536692147600884280,base_link,0,1,40.5919201,-79.8986018,370.052940962,0.50409996953,0.0,0.0,0.0,0.50409996953,0.0,0.0,0.0,2.01639987812,1,209.8135611616607,176.92064540353954,370.04703540362163,-15.300563133206303,10.964628667843067,-5.949362379563981,0,Fixed-Wing
1970-01-01 00:00:03.216309312,4700,1536692148000921400,base_link,0,1,40.5919629,-79.8986718,367.502851706,0.50409996953,0.0,0.0,0.0,0.50409996953,0.0,0.0,0.0,2.01639987812,1,203.8873695876446,181.67345463072348,367.49700412641783,-14.813849411604942,11.880716189179054,-6.374377011538231,0,Fixed-Wing
1970-01-01 00:00:03.602671264,4702,1536692148387188728,base_link,0,1,40.5920083,-79.8987402,364.722763028,0.50409996953,0.0,0.0,0.0,0.50409996953,0.0,0.0,0.0,2.01639987812,1,198.09662619083826,186.7149978821986,364.7169517124304,-14.475266212732436,12.602471856783515,-6.94936660464211,0,Fixed-Wing
1970-01-01 00:00:04.028261952,4704,1536692148812497336,base_link,0,1,40.5920556,-79.8988081,361.802674099,0.50409996953,0.0,0.0,0.0,0.50409996953,0.0,0.0,0.0,2.01639987812,1,192.34821429979178,191.96753759516514,361.79688216732984,-14.369449088216514,13.129904992867164,-7.29937093194885,0,Fixed-Wing
1970-01-01 00:00:04.397178112,4706,1536692149181697176,base_link,0,1,40.5921039,-79.8988763,358.812584475,0.50409996953,0.0,0.0,0.0,0.50409996953,0.0,0.0,0.0,2.01639987812,1,186.5744139958187,197.33112645139119,358.80679971601035,-14.432913139487345,13.407497315860367,-7.47438394606467,0,Fixed-Wing
1970-01-01 00:00:04.803572256,4708,1536692149588136184,base_link,0,1,40.5921542,-79.8989463,356.312492213,0.50409996953,0.0,0.0,0.0,0.50409996953,0.0,0.0,0.0,2.01639987812,1,180.64825439884703,202.91683120238065,356.3067021186786,-14.813769477786623,13.962725977616122,-6.249556542109802,0,Fixed-Wing
1970-01-01 00:00:05.182585984,4710,1536692149966970360,base_link,0,1,40.5922071,-79.8990199,354.782395233,0.50409996953,0.0,0.0,0.0,0.50409996953,0.0,0.0,0.0,2.01639987812,1,174.41736542453808,208.79129675949736,354.77658826128595,-15.57550912976811,14.684548592446598,-3.8248639084516225,0,Fixed-Wing
1970-01-01 00:00:05.637350176,4712,1536692150421848472,base_link,0,1,40.5922599,-79.8990966,354.132295164,0.50409996953,0.0,0.0,0.0,0.50409996953,0.0,0.0,0.0,2.01639987812,1,167.92407839424115,214.65468330458037,354.1264670923764,-16.231432118209312,14.65685410875558,-1.6251241586164267,0,Fixed-Wing
1970-01-01 00:00:06.028816096,4714,1536692150813355544,base_link,0,1,40.5923117,-79.8991749,354.352193911,0.50409996953,0.0,0.0,0.0,0.50409996953,0.0,0.0,0.0,2.01639987812,1,161.29537743832842,220.40704935972593,354.3463400030809,-16.569929697515107,14.379333411188663,0.5496218183612543,0,Fixed-Wing
1970-01-01 00:00:06.395646176,4716,1536692151179934808,base_link,0,1,40.5923616,-79.8992527,355.422093985,0.50409996953,0.0,0.0,0.0,0.50409996953,0.0,0.0,0.0,2.01639987812,1,154.70903927005872,225.94845359192973,355.41620862905654,-16.46403437689277,13.85198686195469,2.674377383426898,0,Fixed-Wing
1970-01-01 00:00:06.797078720,4718,1536692151577216824,base_link,0,1,40.5924104,-79.8993286,356.86199648,0.50409996953,0.0,0.0,0.0,0.50409996953,0.0,0.0,0.0,2.01639987812,1,148.2835662217467,231.36772472126643,356.85606877354286,-16.061915810040965,13.546687687696085,3.599254443227039,0,Fixed-Wing
1970-01-01 00:00:07.228932224,4720,1536692152012856664,base_link,0,1,40.5924577,-79.8994017,358.481902478,0.50409996953,0.0,0.0,0.0,0.50409996953,0.0,0.0,0.0,2.01639987812,1,142.09514366599868,236.62043665759427,358.47592226673476,-15.469354760346409,13.130335503914173,4.0491883222642935,0,Fixed-Wing
1970-01-01 00:00:07.603545760,4722,1536692152388136408,base_link,0,1,40.5925041,-79.8994722,359.911811524,0.50409996953,0.0,0.0,0.0,0.50409996953,0.0,0.0,0.0,2.01639987812,1,136.12683004134433,241.773206151922,359.90576758764144,-14.919142955910706,12.88050688006255,3.5742201380515124,0,Fixed-Wing
1970-01-01 00:00:08.015952576,4724,1536692152799246072,base_link,0,1,40.5925502,-79.8995397,360.911723776,0.50409996953,0.0,0.0,0.0,0.50409996953,0.0,0.0,0.0,2.01639987812,1,130.41248164772466,246.8926548315064,360.90560247634096,-14.284299711080964,12.79721400542039,2.4993122973960977,0,Fixed-Wing
1970-01-01 00:00:08.401198880,4726,1536692153183759064,base_link,0,1,40.5925966,-79.899604,361.31163919,0.50409996953,0.0,0.0,0.0,0.50409996953,0.0,0.0,0.0,2.01639987812,1,124.96902589414258,252.04540601856985,361.30542468307146,-13.607142598269405,12.880461116935747,0.9994455778127033,0,Fixed-Wing
1970-01-01 00:00:08.794269440,4728,1536692153578790904,base_link,0,1,40.5926437,-79.8996651,361.381557601,0.50409996953,0.0,0.0,0.0,0.50409996953,0.0,0.0,0.0,2.01639987812,1,119.79646822421692,257.27588952299226,361.3752328573791,-12.92997187790756,13.07477053629703,0.174501240632627,0,Fixed-Wing
1970-01-01 00:00:09.216656096,4730,1536692154000872600,base_link,0,1,40.5926925,-79.8997224,361.221479207,0.50409996953,0.0,0.0,0.0,0.50409996953,0.0,0.0,0.0,2.01639987812,1,114.9456025918584,262.6951612297089,361.21502216719705,-12.125830239569947,13.546689130987199,-0.4004826723611773,0,Fixed-Wing
1970-01-01 00:00:09.612174208,4732,1536692154396698936,base_link,0,1,40.592744,-79.8997747,360.861404821,0.50409996953,0.0,0.0,0.0,0.50409996953,0.0,0.0,0.0,2.01639987812,1,110.51801487348769,268.4142750265635,360.85478723259655,-11.067751843224036,14.296211908826459,-0.9004882827901393,0,Fixed-Wing
1970-01-01 00:00:10.033179936,4734,1536692154814833848,base_link,0,1,40.5927988,-79.8998207,360.341335519,0.50409996953,0.0,0.0,0.0,0.50409996953,0.0,0.0,0.0,2.01639987812,1,106.62375699834172,274.49986427678806,360.33452449292963,-9.734573884737598,15.212299772586482,-1.300513792650105,0,Fixed-Wing
1970-01-01 00:00:10.424747776,4736,1536692155206855736,base_link,0,1,40.5928583,-79.8998581,359.721273072,0.50409996953,0.0,0.0,0.0,0.50409996953,0.0,0.0,0.0,2.01639987812,1,103.45753495544695,281.1074062088465,359.7142256238686,-7.914684491942819,16.517037955970938,-1.5505766092256341,0,Fixed-Wing
1970-01-01 00:00:10.804237760,4738,1536692155587959672,base_link,0,1,40.5929227,-79.899883,359.151221367,0.50409996953,0.0,0.0,0.0,0.50409996953,0.0,0.0,0.0,2.01639987812,1,101.34950573908132,288.259121189111,359.1438877335361,-5.269493396640425,17.877320945357262,-1.4256879001622222,0,Fixed-Wing
1970-01-01 00:00:11.225761600,4740,1536692156006889336,base_link,0,1,40.5929913,-79.8998924,358.731183744,0.489999983311,0.0,0.0,0.0,0.489999983311,0.0,0.0,0.0,1.95999993324,1,100.55363512480366,295.87727981163846,358.7235129984228,-1.9894576953476633,19.043301793121405,-1.0508212474459926,0,Fixed-Wing
1970-01-01 00:00:11.666058432,4742,1536692156450350648,base_link,0,1,40.5930622,-79.8998828,358.611164541,0.489999983311,0.0,0.0,0.0,0.489999983311,0.0,0.0,0.0,1.95999993324,1,101.36621759607338,303.75089392351157,358.6031099497312,2.031232742572619,19.68187027395264,-0.3009745145323296,0,Fixed-Wing
1970-01-01 00:00:12.037130912,4744,1536692156821040024,base_link,0,1,40.5931327,-79.899854,358.771165063,0.489999983311,0.0,0.0,0.0,0.489999983311,0.0,0.0,0.0,1.95999993324,1,103.804182881614,311.58012316884015,358.7626927463634,6.094242847138348,19.57092031208711,0.3989131111382939,0,Fixed-Wing
1970-01-01 00:00:12.444952832,4746,1536692157225484504,base_link,0,1,40.5931992,-79.8998064,359.281186368,0.489999983311,0.0,0.0,0.0,0.489999983311,0.0,0.0,0.0,1.95999993324,1,107.8336712739812,318.96518482924796,359.2722813748715,10.072612993488713,18.460623482436468,1.2738314498107302,0,Fixed-Wing
1970-01-01 00:00:12.814750080,4748,1536692157599133144,base_link,0,1,40.5932585,-79.8997416,360.101228129,0.489999983311,0.0,0.0,0.0,0.489999983311,0.0,0.0,0.0,1.95999993324,1,113.31923643975125,325.5507109844978,360.09189463813215,13.712404549924646,16.46200456762219,2.048807789294765,0,Fixed-Wing
1970-01-01 00:00:13.225756224,4750,1536692158000111576,base_link,0,1,40.593308,-79.8996631,361.191287841,0.489999983311,0.0,0.0,0.0,0.489999983311,0.0,0.0,0.0,1.95999993324,1,119.96458907702335,331.0479624899632,361.1815493637336,16.6115543222048,13.741617185773029,2.7238371919125464,0,Fixed-Wing
1970-01-01 00:00:13.631888480,4752,1536692158416236344,base_link,0,1,40.5933461,-79.8995736,362.341363406,0.489999983311,0.0,0.0,0.0,0.489999983311,0.0,0.0,0.0,1.95999993324,1,127.54116142509235,335.2792437642669,362.3312565871938,18.939347541942904,10.577039711390954,2.8739519239388955,0,Fixed-Wing
1970-01-01 00:00:14.011814432,4754,1536692158796343224,base_link,0,1,40.5933729,-79.8994769,363.361450916,0.489999983311,0.0,0.0,0.0,0.489999983311,0.0,0.0,0.0,1.95999993324,1,135.7272634551385,338.2556463332448,363.3510178678256,20.463004144659482,7.440188001764564,2.549122798071635,0,Fixed-Wing
1970-01-01 00:00:14.403067616,4756,1536692159187559672,base_link,0,1,40.593389,-79.899376,364.121547074,0.489999983311,0.0,0.0,0.0,0.489999983311,0.0,0.0,0.0,1.95999993324,1,144.26892934566825,340.043790981463,364.11083150584807,21.351816026561433,4.469869934852754,1.899325169287575,0,Fixed-Wing
1970-01-01 00:00:14.822282336,4758,1536692159606805368,base_link,0,1,40.5933947,-79.8992732,364.571649419,0.489999983311,0.0,0.0,0.0,0.489999983311,0.0,0.0,0.0,1.95999993324,1,152.97145379396508,340.676987323779,364.5606974975692,21.753918189741196,1.5828167459478333,1.1245412797620757,0,Fixed-Wing
1970-01-01 00:00:15.204096352,4760,1536692159988083448,base_link,0,1,40.5933903,-79.8991705,364.751755796,0.489999983311,0.0,0.0,0.0,0.489999983311,0.0,0.0,0.0,1.95999993324,1,161.66552999016113,340.1885497801469,364.7406158839573,21.73279988250305,-1.2209595535292963,0.44974649385584364,0,Fixed-Wing
1970-01-01 00:00:15.610415264,4762,1536692160394692152,base_link,0,1,40.5933767,-79.8990695,364.731864213,0.489999983311,0.0,0.0,0.0,0.489999983311,0.0,0.0,0.0,1.95999993324,1,170.21571241150954,338.678426097243,364.72058273703055,21.373105011819725,-3.7748939689231564,-0.050077358807334195,0,Fixed-Wing
1970-01-01 00:00:16.015829408,4764,1536692160797859384,base_link,0,1,40.5933545,-79.8989721,364.621972492,0.489999983311,0.0,0.0,0.0,0.489999983311,0.0,0.0,0.0,1.95999993324,1,178.4611607064194,336.21324935113887,364.61059670659836,20.611353488390936,-6.162264016218552,-0.2749348332488338,0,Fixed-Wing
1970-01-01 00:00:16.445458432,4766,1536692161229446456,base_link,0,1,40.5933271,-79.8988783,364.632079249,0.489999983311,0.0,0.0,0.0,0.489999983311,0.0,0.0,0.0,1.95999993324,1,186.4018740925065,333.170607907385,364.62063672008844,19.849600009216694,-7.605766975017482,0.025097273025176645,0,Fixed-Wing
1970-01-01 00:00:16.823403232,4768,1536692161607539256,base_link,0,1,40.5932976,-79.8987878,364.842183525,0.489999983311,0.0,0.0,0.0,0.489999983311,0.0,0.0,0.0,1.95999993324,1,194.06324447755225,329.89476793611766,364.83068351369485,19.151319317489467,-8.188699171259453,0.5250592275009979,0,Fixed-Wing
1970-01-01 00:00:17.210777984,4770,1536692161994727480,base_link,0,1,40.593269,-79.8986992,364.962285521,0.489999983311,0.0,0.0,0.0,0.489999983311,0.0,0.0,0.0,1.95999993324,1,201.56377187919148,326.71887385087473,364.95071709798884,18.74925608592863,-7.938861938294114,0.30005095512991603,0,Fixed-Wing
1970-01-01 00:00:17.571867712,4772,1536692162355807512,base_link,0,1,40.5932435,-79.8986114,364.942385457,0.489999983311,0.0,0.0,0.0,0.489999983311,0.0,0.0,0.0,1.95999993324,1,208.99656761726814,323.88724070188005,364.93072293206245,18.579945551181027,-7.078304259018216,-0.04997991702510564,0,Fixed-Wing
1970-01-01 00:00:18.004500256,4774,1536692162788345048,base_link,0,1,40.5932222,-79.8985229,364.52248441,0.489999983311,0.0,0.0,0.0,0.489999983311,0.0,0.0,0.0,1.95999993324,1,216.48860046124773,321.5220166770036,364.51069231183567,18.728022027525938,-5.912409697124452,-1.0499610548509226,0,Fixed-Wing
1970-01-01 00:00:18.432463232,4776,1536692163215699352,base_link,0,1,40.5932043,-79.8984344,363.99258199,0.518400041199,0.0,0.0,0.0,0.518400041199,0.0,0.0,0.0,2.07360016479,1,223.98062187320056,319.5343731654124,363.9806317035997,18.72799345060252,-4.968562237131955,-1.3250057699551605,0,Fixed-Wing
1970-01-01 00:00:18.826398144,4778,1536692163610865496,base_link,0,1,40.5931911,-79.8983449,362.912678683,0.518400041199,0.0,0.0,0.0,0.518400041199,0.0,0.0,0.0,2.07360016479,1,231.55726505998612,318.0686589197546,362.9005316637098,18.93952461925578,-3.663882587059799,-2.6999531048833174,0,Fixed-Wing
1970-01-01 00:00:19.213676256,4780,1536692163995824024,base_link,0,1,40.5931822,-79.8982545,361.74277455,0.489999983311,0.0,0.0,0.0,0.489999983311,0.0,0.0,0.0,1.95999993324,1,239.21007961830537,317.08047601563175,361.7303948404152,19.129932103266764,-2.4701855398978108,-2.925020306002764,0,Fixed-Wing
1970-01-01 00:00:19.598112672,4782,1536692164382623864,base_link,0,1,40.5931768,-79.8981635,360.772869611,0.50409996953,0.0,0.0,0.0,0.50409996953,0.0,0.0,0.0,2.01639987812,1,246.91368135085642,316.4809961730997,360.7602266052871,19.256886073909495,-1.4985347675056948,-2.425153820900056,0,Fixed-Wing
1970-01-01 00:00:20.080334208,4784,1536692164864251288,base_link,0,1,40.5931745,-79.898072,359.882963926,0.489999983311,0.0,0.0,0.0,0.489999983311,0.0,0.0,0.0,1.95999993324,1,254.65960098302003,316.22579212722235,359.8700294870925,19.362669186798467,-0.6379399412998296,-2.225248018204443,0,Fixed-Wing
1970-01-01 00:00:20.411709792,4786,1536692165196234552,base_link,0,1,40.5931741,-79.8979805,359.333057477,0.489999983311,0.0,0.0,0.0,0.489999983311,0.0,0.0,0.0,1.95999993324,1,262.4055255267957,316.1816124986928,359.3198117206191,19.362681464478122,-0.11043692326231153,-1.3753931229399639,0,Fixed-Wing
1970-01-01 00:00:20.842492960,4788,1536692165626828632,base_link,0,1,40.5931754,-79.8978889,359.023150447,0.489999983311,0.0,0.0,0.0,0.489999983311,0.0,0.0,0.0,1.95999993324,1,270.1599176509921,316.32624210242244,359.0095742387367,19.383848087201372,0.3615342405576402,-0.7755083987820887,0,Fixed-Wing
1970-01-01 00:00:21.245320256,4790,1536692166029895448,base_link,0,1,40.5931771,-79.8977977,358.833242858,0.489999983311,0.0,0.0,0.0,0.489999983311,0.0,0.0,0.0,1.95999993324,1,277.8804502369597,316.515305387359,358.81932604245446,19.299208551978257,0.47260622565652144,-0.4755681782060345,0,Fixed-Wing
1970-01-01 00:00:21.655279584,4792,1536692166439832632,base_link,0,1,40.5931784,-79.8977072,358.803334732,0.489999983311,0.0,0.0,0.0,0.489999983311,0.0,0.0,0.0,1.95999993324,1,285.54173223956656,316.65996142693047,358.78907283300055,19.15109838569474,0.36160032289319893,-0.07562470491725262,0,Fixed-Wing
1970-01-01 00:00:21.972245152,4794,1536692166756698584,base_link,0,1,40.5931791,-79.8976172,358.773426356,0.518400041199,0.0,0.0,0.0,0.518400041199,0.0,0.0,0.0,2.07360016479,1,293.16068893342526,316.73799228493635,358.7588154403026,19.045296752004045,0.19505568888894373,-0.07563516187702723,0,Fixed-Wing
1970-01-01 00:00:22.429633216,4796,1536692167214189336,base_link,0,1,40.5931791,-79.8975275,358.783517974,0.489999983311,0.0,0.0,0.0,0.489999983311,0.0,0.0,0.0,1.95999993324,1,300.75425388048296,316.7382952753476,358.76855401912115,18.981824366963885,0.0007573927148717782,0.02434376923173953,0,Fixed-Wing
1970-01-01 00:00:22.851879264,4798,1536692167636301400,base_link,0,1,40.5931786,-79.8974382,358.673609402,0.489999983311,0.0,0.0,0.0,0.489999983311,0.0,0.0,0.0,1.95999993324,1,308.313953305758,316.68307247124545,358.658287778648,18.897169874501373,-0.13804182565450157,-0.2756352813019363,0,Fixed-Wing
1970-01-01 00:00:23.208221152,4800,1536692167992451736,base_link,0,1,40.5931776,-79.8973495,358.633700436,0.489999983311,0.0,0.0,0.0,0.489999983311,0.0,0.0,0.0,1.95999993324,1,315.82286532280625,316.57233250958893,358.61801746960833,18.770215318935566,-0.2768194540013607,-0.10066469948223165,0,Fixed-Wing
1970-01-01 00:00:23.625719744,4802,1536692168409758392,base_link,0,1,40.5931768,-79.897261,358.533791198,0.489999983311,0.0,0.0,0.0,0.489999983311,0.0,0.0,0.0,1.95999993324,1,323.31484244557805,316.48380685767995,358.5177378124936,18.727882739828118,-0.22128978789578335,-0.25067156891430487,0,Fixed-Wing
1970-01-01 00:00:24.018073344,4804,1536692168796481528,base_link,0,1,40.5931765,-79.8971725,358.463881767,0.489999983311,0.0,0.0,0.0,0.489999983311,0.0,0.0,0.0,1.95999993324,1,330.8068186010258,316.4508163818838,358.44744641253055,18.72788032178393,-0.08246711810742953,-0.17570917189865481,0,Fixed-Wing
1970-01-01 00:00:24.432082816,4806,1536692169208410552,base_link,0,1,40.5931769,-79.8970842,358.333971858,0.489999983311,0.0,0.0,0.0,0.489999983311,0.0,0.0,0.0,1.95999993324,1,338.2818569287193,316.4955663013528,358.31714277505864,18.68554040978877,0.11186249379828427,-0.325723264120725,0,Fixed-Wing
1970-01-01 00:00:24.835023936,4808,1536692169618783416,base_link,0,1,40.5931781,-79.8969958,358.184061734,0.489999983311,0.0,0.0,0.0,0.489999983311,0.0,0.0,0.0,1.95999993324,1,345.76535517037263,316.6291649543568,358.16682529738557,18.70668786846774,0.33395989692123285,-0.37575236142291907,0,Fixed-Wing
1970-01-01 00:00:25.219794944,4810,1536692170003491512,base_link,0,1,40.5931797,-79.8969074,358.08415146,0.489999983311,0.0,0.0,0.0,0.489999983311,0.0,0.0,0.0,1.95999993324,1,353.2488534523225,316.8071945231541,358.066496687669,18.706687969198118,0.4450249692467381,-0.2507939369584303,0,Fixed-Wing
1970-01-01 00:00:25.629172480,4812,1536692170413641304,base_link,0,1,40.5931814,-79.8968187,358.034241464,0.489999983311,0.0,0.0,0.0,0.489999983311,0.0,0.0,0.0,1.95999993324,1,360.75774996238977,316.9963405497684,358.0161575956985,18.770176555746982,0.47281305709935173,-0.12583388819854766,0,Fixed-Wing
1970-01-01 00:00:25.999050752,4814,1536692170783413848,base_link,0,1,40.593183,-79.8967302,358.084331317,0.489999983311,0.0,0.0,0.0,0.489999983311,0.0,0.0,0.0,1.95999993324,1,368.2497212667618,317.1743930549597,358.0658110478161,18.727868195428613,0.44508230392486153,0.12411997709661589,0,Fixed-Wing
1970-01-01 00:00:26.406706592,4816,1536692171190371608,base_link,0,1,40.5931843,-79.8966418,358.134421205,0.489999983311,0.0,0.0,0.0,0.489999983311,0.0,0.0,0.0,1.95999993324,1,375.7332284981214,317.31913697379974,358.1154579039255,18.706710340261488,0.36181999690046457,0.12410348888973408,0,Fixed-Wing
1970-01-01 00:00:26.841098176,4818,1536692171625373240,base_link,0,1,40.5931856,-79.8965537,358.194510798,0.489999983311,0.0,0.0,0.0,0.489999983311,0.0,0.0,0.0,1.95999993324,1,383.19133962457215,317.4638876017017,358.17509721678323,18.643227061150206,0.36183676771040724,0.1490818831371348,0,Fixed-Wing
1970-01-01 00:00:27.222026016,4820,1536692172006162136,base_link,0,1,40.5931865,-79.8964658,358.254600365,0.489999983311,0.0,0.0,0.0,0.489999983311,0.0,0.0,0.0,1.95999993324,1,390.63252190763285,317.5642238842544,358.2347310432054,18.600909607594907,0.25081311693885977,0.14906816855685173,0,Fixed-Wing
1970-01-01 00:00:27.620175616,4822,1536692172403851096,base_link,0,1,40.593186,-79.8963779,358.304690522,0.489999983311,0.0,0.0,0.0,0.489999983311,0.0,0.0,0.0,1.95999993324,1,398.0737118097824,317.5090938693243,358.2843645487019,18.60092865322208,-0.13780987823853705,0.12407011602849083,0,Fixed-Wing
1970-01-01 00:00:28.066973376,4824,1536692172851502904,base_link,0,1,40.5931828,-79.8962897,358.274782111,0.489999983311,0.0,0.0,0.0,0.489999983311,0.0,0.0,0.0,1.95999993324,1,405.54030970604475,317.1541274446519,358.2540041583952,18.664441652074093,-0.8873184566507629,-0.07589262757763822,0,Fixed-Wing
1970-01-01 00:00:28.408177152,4826,1536692173192600472,base_link,0,1,40.5931752,-79.8962013,358.174875732,0.489999983311,0.0,0.0,0.0,0.489999983311,0.0,0.0,0.0,1.95999993324,1,413.0238618124266,316.31053581813444,358.15366026226053,18.70682251547796,-2.1087471041122465,-0.2508321488003538,0,Fixed-Wing
1970-01-01 00:00:28.801442720,4828,1536692173585919160,base_link,0,1,40.5931624,-79.8961127,357.784971717,0.489999983311,0.0,0.0,0.0,0.489999983311,0.0,0.0,0.0,1.95999993324,1,420.52435988888135,314.88946636497786,357.7633373419561,18.749182781030918,-3.552282881774446,-0.9756999737639195,0,Fixed-Wing
1970-01-01 00:00:29.218619648,4830,1536692174003027832,base_link,0,1,40.5931411,-79.8960252,357.325070099,0.489999983311,0.0,0.0,0.0,0.489999983311,0.0,0.0,0.0,1.95999993324,1,427.9317887561705,312.5244513923835,357.30306036026707,18.51653534933439,-5.911887123902216,-1.1505658919745043,0,Fixed-Wing
1970-01-01 00:00:29.619195488,4832,1536692174403465944,base_link,0,1,40.5931086,-79.8959408,357.075169949,0.489999983311,0.0,0.0,0.0,0.489999983311,0.0,0.0,0.0,1.95999993324,1,435.0768771210165,308.9156534704828,357.05285376239175,17.860756228929827,-9.021002494477363,-0.6254476954417999,0,Fixed-Wing
1970-01-01 00:00:30.052432096,4834,1536692174836525688,base_link,0,1,40.5930653,-79.8958624,357.045268137,0.489999983311,0.0,0.0,0.0,0.489999983311,0.0,0.0,0.0,1.95999993324,1,441.7141267720878,304.10747849950116,357.0227280367263,16.591299084778996,-12.019115324768444,-0.07530603050032192,0,Fixed-Wing
1970-01-01 00:00:30.435159904,4836,1536692175219681112,base_link,0,1,40.5930112,-79.8957932,357.305361391,0.489999983311,0.0,0.0,0.0,0.489999983311,0.0,0.0,0.0,1.95999993324,1,447.57264852105976,298.09991167384555,357.2826977680617,14.644693456149705,-15.017265164970857,0.6498528445257157,0,Fixed-Wing
1970-01-01 00:00:30.821215936,4838,1536692175605702040,base_link,0,1,40.5929475,-79.8957372,357.985445123,0.489999983311,0.0,0.0,0.0,0.489999983311,0.0,0.0,0.0,1.95999993324,1,452.31382352342104,291.02619837045063,357.9627750035358,11.851633826182304,-17.68233820128517,1.7000060880155006,0,Fixed-Wing
1970-01-01 00:00:31.216849824,4840,1536692175999930808,base_link,0,1,40.5928772,-79.8956962,358.735516249,0.489999983311,0.0,0.0,0.0,0.489999983311,0.0,0.0,0.0,1.95999993324,1,455.7852259435359,283.2194667922455,358.71295165233056,8.677551519620053,-19.514682330456477,1.8752353460988376,0,Fixed-Wing
1970-01-01 00:00:31.598281984,4842,1536692176382767832,base_link,0,1,40.5928032,-79.8956721,359.66557162,0.489999983311,0.0,0.0,0.0,0.489999983311,0.0,0.0,0.0,1.95999993324,1,457.8259949292391,275.00176128146046,359.643221555507,5.1013613145132854,-20.542004156505378,2.3254189618553256,0,Fixed-Wing
1970-01-01 00:00:32.044343584,4844,1536692176828626040,base_link,0,1,40.5927285,-79.8956624,360.635612552,0.489999983311,0.0,0.0,0.0,0.489999983311,0.0,0.0,0.0,1.95999993324,1,458.6477343834915,266.70624397205006,360.613556666296,2.0541226821360943,-20.736512257177708,2.4255709641664276,0,Fixed-Wing
1970-01-01 00:00:32.398592832,4846,1536692177183174936,base_link,0,1,40.5926553,-79.8956651,361.635640177,0.489999983311,0.0,0.0,0.0,0.489999983311,0.0,0.0,0.0,1.95999993324,1,458.41973562909595,258.5772394539412,361.61393620669145,-0.5699341932276731,-20.320276064904967,2.5006737768731506,0,Fixed-Wing
1970-01-01 00:00:32.827059168,4848,1536692177611484504,base_link,0,1,40.5925851,-79.8956758,362.58565838,0.489999983311,0.0,0.0,0.0,0.489999983311,0.0,0.0,0.0,1.95999993324,1,457.51446486342616,250.78134603624073,362.56433135655385,-2.2629279920953635,-19.48758990936118,2.3757265447360836,0,Fixed-Wing
1970-01-01 00:00:33.209618016,4850,1536692177993177336,base_link,0,1,40.5925177,-79.8956906,363.355671237,0.489999983311,0.0,0.0,0.0,0.489999983311,0.0,0.0,0.0,1.95999993324,1,456.26207035165595,243.2963690369332,363.33472440452346,-3.130641908815544,-18.71038435598964,1.9257707851376487,0,Fixed-Wing
1970-01-01 00:00:33.647157920,4852,1536692178427849336,base_link,0,1,40.5924523,-79.895707,363.915681641,0.489999983311,0.0,0.0,0.0,0.489999983311,0.0,0.0,0.0,1.95999993324,1,454.8741947325589,236.03347925527817,363.8951073611842,-3.4693074239259447,-18.155227379125915,1.4008033032885385,0,Fixed-Wing
1970-01-01 00:00:34.033938624,4854,1536692178818062456,base_link,0,1,40.5923883,-79.8957227,364.065692199,0.489999983311,0.0,0.0,0.0,0.489999983311,0.0,0.0,0.0,1.95999993324,1,453.5455369317605,228.92605074785712,364.0454720830977,-3.3212791612882486,-17.766616940689143,0.3758704590332325,0,Fixed-Wing
1970-01-01 00:00:34.413989184,4856,1536692179198614296,base_link,0,1,40.5923251,-79.8957367,363.775704185,0.489999983311,0.0,0.0,0.0,0.489999983311,0.0,0.0,0.0,1.95999993324,1,452.36075564399334,221.90745752112892,363.7558167316355,-2.9616274403995058,-17.544553165972243,-0.7240587321949974,0,Fixed-Wing
1970-01-01 00:00:34.805289728,4858,1536692179588931960,base_link,0,1,40.5922615,-79.8957484,363.265718716,0.489999983311,0.0,0.0,0.0,0.489999983311,0.0,0.0,0.0,1.95999993324,1,451.37066896028256,214.84444860553188,363.24614370845353,-2.4749444653857715,-17.655580175173327,-1.2740424132894397,0,Fixed-Wing
1970-01-01 00:00:35.205654624,4860,1536692179990310616,base_link,0,1,40.5921978,-79.8957567,362.525736794,0.489999983311,0.0,0.0,0.0,0.489999983311,0.0,0.0,0.0,1.95999993324,1,450.6683968036069,207.77034568041233,362.50644630089545,-1.7554872880873933,-17.683312148462537,-1.8490401244815142,0,Fixed-Wing
1970-01-01 00:00:35.601949472,4862,1536692180386537720,base_link,0,1,40.5921334,-79.8957614,361.705758876,0.489999983311,0.0,0.0,0.0,0.489999983311,0.0,0.0,0.0,1.95999993324,1,450.2708858595506,200.6185237806509,361.68672592858655,-0.9936680566545364,-17.877588214699994,-2.0490755324636623,0,Fixed-Wing
1970-01-01 00:00:36.002725408,4864,1536692180787173592,base_link,0,1,40.5920681,-79.8957629,360.865784637,0.489999983311,0.0,0.0,0.0,0.489999983311,0.0,0.0,0.0,1.95999993324,1,450.1442798407825,193.36677247409813,360.84698512234274,-0.31648023409460774,-18.127384254113952,-2.099121112287174,0,Fixed-Wing
1970-01-01 00:00:36.415938368,4866,1536692181200495288,base_link,0,1,40.5920017,-79.895762,360.205813341,0.489999983311,0.0,0.0,0.0,0.489999983311,0.0,0.0,0.0,1.95999993324,1,450.22086956488863,185.99288314971372,360.1872282471245,0.19145325040784666,-18.43269571443243,-1.6492107748603895,0,Fixed-Wing
1970-01-01 00:00:36.826231840,4868,1536692181610793080,base_link,0,1,40.5919344,-79.8957595,359.725844087,0.489999983311,0.0,0.0,0.0,0.489999983311,0.0,0.0,0.0,1.95999993324,1,450.4329288783692,178.519061600335,359.7074581210692,0.5300899738042608,-18.682498798578973,-1.1992933928650698,0,Fixed-Wing
1970-01-01 00:00:37.207561632,4870,1536692181990617144,base_link,0,1,40.5918665,-79.8957562,359.485875927,0.489999983311,0.0,0.0,0.0,0.489999983311,0.0,0.0,0.0,1.95999993324,1,450.7127349720972,170.97862043799142,359.46767731322717,0.6994382961075309,-18.849029512612535,-0.5993860871354397,0,Fixed-Wing
1970-01-01 00:00:37.641390912,4872,1536692182425954168,base_link,0,1,40.5917982,-79.8957521,359.36590878,0.489999983311,0.0,0.0,0.0,0.489999983311,0.0,0.0,0.0,1.95999993324,1,451.0602782673171,163.3937662031807,359.3478849296449,0.8687626741554686,-18.96004998152887,-0.2994480196734628,0,Fixed-Wing
1970-01-01 00:00:38.043417984,4874,1536692182827613464,base_link,0,1,40.5917298,-79.8957477,359.315942007,0.489999983311,0.0,0.0,0.0,0.489999983311,0.0,0.0,0.0,1.95999993324,1,451.43322496121647,155.79781038327604,359.2980823338708,0.9322641856880586,-18.98780089166353,-0.12449279522780148,0,Fixed-Wing
1970-01-01 00:00:38.437175840,4876,1536692183221320888,base_link,0,1,40.5916611,-79.895744,359.455974666,0.489999983311,0.0,0.0,0.0,0.489999983311,0.0,0.0,0.0,1.95999993324,1,451.74692793523565,148.16853993650318,359.4382750489549,0.784171176218564,-19.071078298319346,0.3504432389539235,0,Fixed-Wing
1970-01-01 00:00:38.808737024,4878,1536692183593042616,base_link,0,1,40.5915927,-79.8957405,359.736007018,0.489999983311,0.0,0.0,0.0,0.489999983311,0.0,0.0,0.0,1.95999993324,1,452.04370802227834,140.57258701337147,359.71845875583494,0.7418686120594018,-18.987793650527703,0.7003822251553637,0,Fixed-Wing
1970-01-01 00:00:39.211488800,4880,1536692183995859576,base_link,0,1,40.5915244,-79.895737,360.046039351,0.489999983311,0.0,0.0,0.0,0.489999983311,0.0,0.0,0.0,1.95999993324,1,452.3404901913464,132.98773938031712,360.0286331290081,0.7418738165503813,-18.960033478953193,0.775350644361971,0,Fixed-Wing
1970-01-01 00:00:39.591285696,4882,1536692184375696568,base_link,0,1,40.5914563,-79.895734,360.386071111,0.489999983311,0.0,0.0,0.0,0.489999983311,0.0,0.0,0.0,1.95999993324,1,452.59494510840506,125.42509959276151,360.36880043571625,0.6360673252408182,-18.90451997169214,0.8503247310500031,0,Fixed-Wing
1970-01-01 00:00:40.018796832,4884,1536692184800409336,base_link,0,1,40.5913883,-79.8957325,360.696101313,0.489999983311,0.0,0.0,0.0,0.489999983311,0.0,0.0,0.0,1.95999993324,1,452.7224116582197,117.87355605870917,360.6789659823245,0.31863132509084474,-18.876782389068058,0.7753285803767386,0,Fixed-Wing
1970-01-01 00:00:40.394760480,4886,1536692185179295736,base_link,0,1,40.5913208,-79.8957337,360.836128555,0.489999983311,0.0,0.0,0.0,0.489999983311,0.0,0.0,0.0,1.95999993324,1,452.6212878198317,110.37752120773865,360.81913484131906,-0.25278178997308126,-18.73802594457239,0.35038360528984475,0,Fixed-Wing
1970-01-01 00:00:40.769290240,4888,1536692185553955096,base_link,0,1,40.5912533,-79.89574,360.836150583,0.489999983311,0.0,0.0,0.0,0.489999983311,0.0,0.0,0.0,1.95999993324,1,452.0884002045258,102.8814576575206,360.8193202277546,-1.3320725102886786,-18.738097684799804,0.00046341511316896157,0,Fixed-Wing
1970-01-01 00:00:41.224236576,4890,1536692186008355864,base_link,0,1,40.5911861,-79.8957541,360.786164498,0.489999983311,0.0,0.0,0.0,0.489999983311,0.0,0.0,0.0,1.95999993324,1,450.89517619745675,95.41866920825134,360.7695347733576,-2.9827319171616975,-18.65491908207411,-0.1244499464984118,0,Fixed-Wing
1970-01-01 00:00:41.638721824,4892,1536692186422786616,base_link,0,1,40.5911202,-79.8957779,360.586167923,0.489999983311,0.0,0.0,0.0,0.489999983311,0.0,0.0,0.0,1.95999993324,1,448.8807504447375,88.1001975883427,360.5697856181962,-5.035510475645834,-18.294166691435564,-0.49931796292754,0,Fixed-Wing
1970-01-01 00:00:42.000632544,4894,1536692186785135256,base_link,0,1,40.5910569,-79.8958145,360.266157124,0.489999983311,0.0,0.0,0.0,0.489999983311,0.0,0.0,0.0,1.95999993324,1,445.7826750830594,81.07039663633637,360.25008523449367,-7.744336527177186,-17.572569397382104,-0.7991630513206671,0,Fixed-Wing
1970-01-01 00:00:42.415258464,4896,1536692187199866648,base_link,0,1,40.5909978,-79.8958651,359.956130187,0.489999983311,0.0,0.0,0.0,0.489999983311,0.0,0.0,0.0,1.95999993324,1,441.49935674103654,74.50694721667807,359.9404360313023,-10.707118072069274,-16.406818799077847,-0.7740378638134405,0,Fixed-Wing
1970-01-01 00:00:42.793968672,4898,1536692187578461368,base_link,0,1,40.5909449,-79.8959293,359.736086675,0.489999983311,0.0,0.0,0.0,0.489999983311,0.0,0.0,0.0,1.95999993324,1,436.06464889416304,68.6319586777226,359.7208319289788,-13.585275236907673,-14.685855903239338,-0.5489498713229073,0,Fixed-Wing
1970-01-01 00:00:43.217114720,4900,1536692188001690680,base_link,0,1,40.5909009,-79.896006,359.71602657,0.489999983311,0.0,0.0,0.0,0.489999983311,0.0,0.0,0.0,1.95999993324,1,429.5716641483616,63.745280833358294,359.7012626180647,-16.23067649008968,-12.215350922309296,-0.04891789631667396,0,Fixed-Wing
1970-01-01 00:00:43.596159872,4902,1536692188380780408,base_link,0,1,40.5908677,-79.8960917,359.87595266,0.489999983311,0.0,0.0,0.0,0.489999983311,0.0,0.0,0.0,1.95999993324,1,422.3166923190464,60.05793189784487,359.86170836945945,-18.135434675473686,-9.217358429356338,0.40107026075825414,0,Fixed-Wing
1970-01-01 00:00:44.019799104,4904,1536692188804292888,base_link,0,1,40.5908473,-79.8961836,360.365866971,0.489999983311,0.0,0.0,0.0,0.489999983311,0.0,0.0,0.0,1.95999993324,1,414.536775128793,57.792032980344004,360.3521533008753,-19.447653733722788,-5.664124240085747,1.225977471017745,0,Fixed-Wing
1970-01-01 00:00:44.445749920,4906,1536692189229650776,base_link,0,1,40.5908408,-79.8962761,361.045774787,0.489999983311,0.0,0.0,0.0,0.489999983311,0.0,0.0,0.0,1.95999993324,1,406.7059850296404,57.069767821565506,361.03257103523254,-19.57482201745967,-1.805464295873699,1.7008572415965826,0,Fixed-Wing
1970-01-01 00:00:44.862558144,4908,1536692189647049592,base_link,0,1,40.5908444,-79.8963664,362.065680595,0.489999983311,0.0,0.0,0.0,0.489999983311,0.0,0.0,0.0,1.95999993324,1,399.06140080618405,57.469152212509044,362.0529554204827,-19.109358529202588,0.9983511587313855,2.550680388282708,0,Fixed-Wing
1970-01-01 00:00:45.208386976,4910,1536692189992767736,base_link,0,1,40.590854,-79.8964527,363.21558798,0.489999983311,0.0,0.0,0.0,0.489999983311,0.0,0.0,0.0,1.95999993324,1,391.75542039654124,58.53487762297476,363.20330535451933,-18.262942100475982,2.664020483911062,2.875558523653963,0,Fixed-Wing
1970-01-01 00:00:45.607390752,4912,1536692190392005144,base_link,0,1,40.5908658,-79.8965354,364.305498142,0.489999983311,0.0,0.0,0.0,0.489999983311,0.0,0.0,0.0,1.95999993324,1,384.7541924392388,59.84494094968127,364.29362888722653,-17.501144767331674,3.2747980889764925,2.725509025775171,0,Fixed-Wing
1970-01-01 00:00:46.012782880,4914,1536692190797152184,base_link,0,1,40.5908774,-79.896615,365.195411583,0.489999983311,0.0,0.0,0.0,0.489999983311,0.0,0.0,0.0,1.95999993324,1,378.0153939942695,61.13281220530038,365.1839324433639,-16.845143146677092,3.2193240134062977,2.225514083794239,0,Fixed-Wing
1970-01-01 00:00:46.396087296,4916,1536692191180554008,base_link,0,1,40.5908884,-79.8966919,365.79532806,0.489999983311,0.0,0.0,0.0,0.489999983311,0.0,0.0,0.0,1.95999993324,1,371.5051593439509,62.354067022219624,365.78421902855104,-16.27379650818069,3.052801234162346,1.5005514023135471,0,Fixed-Wing
1970-01-01 00:00:46.799194368,4918,1536692191583724856,base_link,0,1,40.5908977,-79.8967675,365.925246601,0.489999983311,0.0,0.0,0.0,0.489999983311,0.0,0.0,0.0,1.95999993324,1,365.10496351142706,63.38653937784727,365.91449640172385,-15.998729721040236,2.5808969904001726,0.32565761059487613,0,Fixed-Wing
1970-01-01 00:00:47.195707072,4920,1536692191980143160,base_link,0,1,40.5909051,-79.8968423,365.575166778,0.489999983311,0.0,0.0,0.0,0.489999983311,0.0,0.0,0.0,1.95999993324,1,358.7724788526602,64.20801613279201,365.5647671585276,-15.829470405172613,2.0534660061011794,-0.8742269430268581,0,Fixed-Wing
1970-01-01 00:00:47.613614528,4922,1536692192398181912,base_link,0,1,40.5909104,-79.8969171,364.825087853,0.489999983311,0.0,0.0,0.0,0.489999983311,0.0,0.0,0.0,1.95999993324,1,352.43998523957043,64.79628409684281,364.81503481013965,-15.829492788517644,1.4705081542300351,-1.8741247172510158,0,Fixed-Wing
1970-01-01 00:00:48.028481408,4924,1536692192813046264,base_link,0,1,40.5909134,-79.8969927,363.895009091,0.489999983311,0.0,0.0,0.0,0.489999983311,0.0,0.0,0.0,1.95999993324,1,346.0397697792246,65.12913188075012,363.88530258047126,-15.998778785198141,0.8320279366952426,-2.3240749259291196,0,Fixed-Wing
1970-01-01 00:00:48.405879104,4926,1536692193190496088,base_link,0,1,40.590914,-79.8970696,362.84493002,0.489999983311,0.0,0.0,0.0,0.489999983311,0.0,0.0,0.0,1.95999993324,1,339.5295070750909,65.19545319455659,362.83557219824104,-16.27386663500442,0.16578504816087505,-2.6240373114712954,0,Fixed-Wing
1970-01-01 00:00:48.805557824,4928,1536692193590165720,base_link,0,1,40.5909126,-79.897148,361.854850268,0.489999983311,0.0,0.0,0.0,0.489999983311,0.0,0.0,0.0,1.95999993324,1,332.8922726430634,65.03967046714871,361.8458433924463,-16.591261041354265,-0.3894139829815765,-2.474049869001297,0,Fixed-Wing
1970-01-01 00:00:49.196064608,4930,1536692193980296344,base_link,0,1,40.5909094,-79.8972279,361.014769749,0.489999983311,0.0,0.0,0.0,0.489999983311,0.0,0.0,0.0,1.95999993324,1,326.12806937968963,64.68399551133294,361.00611543586274,-16.908648207131613,-0.8890895896845644,-2.099088991669778,0,Fixed-Wing
1970-01-01 00:00:49.618568768,4932,1536692194403080184,base_link,0,1,40.5909047,-79.8973091,360.444688542,0.489999983311,0.0,0.0,0.0,0.489999983311,0.0,0.0,0.0,1.95999993324,1,319.25383246922115,64.16174635167923,360.4363867949793,-17.18370206894362,-1.3054792964116724,-1.4241649440647886,0,Fixed-Wing
1970-01-01 00:00:50.031636384,4934,1536692194816134136,base_link,0,1,40.5908991,-79.8973908,360.074607213,0.489999983311,0.0,0.0,0.0,0.489999983311,0.0,0.0,0.0,1.95999993324,1,312.3372807837792,63.539556790463536,360.0666536569337,-17.289477371094076,-1.5553028197290582,-0.9242311796842434,0,Fixed-Wing
1970-01-01 00:00:50.429543552,4936,1536692195213885048,base_link,0,1,40.5908931,-79.8974728,359.974525756,0.489999983311,0.0,0.0,0.0,0.489999983311,0.0,0.0,0.0,1.95999993324,1,305.39534606815516,62.8729544308066,359.96691449455966,-17.352927966983703,-1.6663226036559342,-0.24932048068217835,0,Fixed-Wing
1970-01-01 00:00:50.791900128,4938,1536692195575960568,base_link,0,1,40.5908874,-79.8975546,359.984444387,0.489999983311,0.0,0.0,0.0,0.489999983311,0.0,0.0,0.0,1.95999993324,1,298.4703457409244,62.23967599652076,359.9771666905624,-17.3105966524451,-1.5830219532997414,0.025627670963041204,0,Fixed-Wing
1970-01-01 00:00:51.198675808,4940,1536692195982749336,base_link,0,1,40.5908827,-79.897636,360.084363017,0.489999983311,0.0,0.0,0.0,0.489999983311,0.0,0.0,0.0,1.95999993324,1,291.5792071938991,61.71745848363753,360.0774086908963,-17.225951512896884,-1.3054001881873756,0.2505774373165912,0,Fixed-Wing
1970-01-01 00:00:51.612373568,4942,1536692196396916440,base_link,0,1,40.5908797,-79.8977172,360.194281144,0.489999983311,0.0,0.0,0.0,0.489999983311,0.0,0.0,0.0,1.95999993324,1,284.70499231078276,61.38403696880448,360.1876401373031,-17.183647006620117,-0.8334621062509339,0.2755483057034441,0,Fixed-Wing
1970-01-01 00:00:52.037733600,4944,1536692196822286744,base_link,0,1,40.5908781,-79.8977982,360.284198896,0.489999983311,0.0,0.0,0.0,0.489999983311,0.0,0.0,0.0,1.95999993324,1,277.8477015215851,61.20609543545274,360.2778615661856,-17.141341425437286,-0.44480490483982266,0.22552876404220717,0,Fixed-Wing
1970-01-01 00:00:52.394669024,4946,1536692197179204888,base_link,0,1,40.5908775,-79.8978787,360.384116749,0.489999983311,0.0,0.0,0.0,0.489999983311,0.0,0.0,0.0,1.95999993324,1,271.0327356205461,61.13921413838219,360.378072865925,-17.035540843104872,-0.1671848523426215,0.2505006942720929,0,Fixed-Wing
1970-01-01 00:00:52.803547968,4948,1536692197585720760,base_link,0,1,40.590878,-79.8979589,360.494034456,0.489999983311,0.0,0.0,0.0,0.489999983311,0.0,0.0,0.0,1.95999993324,1,264.2431628837079,61.1944975943108,360.48827452355323,-16.972064914954807,0.13819343854330232,0.2754738419479809,0,Fixed-Wing
1970-01-01 00:00:53.229209920,4950,1536692198012737912,base_link,0,1,40.5908789,-79.898039,360.753952108,0.489999983311,0.0,0.0,0.0,0.489999983311,0.0,0.0,0.0,1.95999993324,1,257.4620603303177,61.2942098947307,360.74846814105547,-16.950891785379138,0.24925333318308843,0.6504124983807751,0,Fixed-Wing
1970-01-01 00:00:53.628789696,4952,1536692198412344536,base_link,0,1,40.5908803,-79.8981187,361.003869969,0.489999983311,0.0,0.0,0.0,0.489999983311,0.0,0.0,0.0,1.95999993324,1,250.71481836650588,61.44945556832272,360.9986529013768,-16.866249622071077,0.38807149611547787,0.6253931075614274,0,Fixed-Wing
1970-01-01 00:00:54.013362336,4954,1536692198797163064,base_link,0,1,40.5908814,-79.898198,361.233788377,0.489999983311,0.0,0.0,0.0,0.489999983311,0.0,0.0,0.0,1.95999993324,1,244.0014397046626,61.571392581513976,361.2288301064341,-16.78160067853356,0.30480900398770366,0.5753797208739946,0,Fixed-Wing
1970-01-01 00:00:54.425511744,4956,1536692199210118584,base_link,0,1,40.5908819,-79.8982769,361.383707457,0.489999983311,0.0,0.0,0.0,0.489999983311,0.0,0.0,0.0,1.95999993324,1,237.32192314801188,61.626704561566214,361.37900031317656,-16.696954726606887,0.13826474100908434,0.3753842245914776,0,Fixed-Wing
1970-01-01 00:00:54.794040352,4958,1536692199578511032,base_link,0,1,40.5908818,-79.8983554,361.35362721,0.489999983311,0.0,0.0,0.0,0.489999983311,0.0,0.0,0.0,1.95999993324,1,230.67626516048185,61.61539044250566,361.3491636282082,-16.612317613887544,-0.028282186610866452,-0.07458350823499138,0,Fixed-Wing
1970-01-01 00:00:55.213690912,4960,1536692199997964760,base_link,0,1,40.5908819,-79.8984336,361.103547196,0.489999983311,0.0,0.0,0.0,0.489999983311,0.0,0.0,0.0,1.95999993324,1,224.05599624769633,61.626291343629845,361.0993191595352,-16.54885190825389,0.027249255392377006,-0.6245424720106242,0,Fixed-Wing
1970-01-01 00:00:55.599414720,4962,1536692200383690776,base_link,0,1,40.5908811,-79.8985122,360.913467162,0.489999983311,0.0,0.0,0.0,0.489999983311,0.0,0.0,0.0,1.95999993324,1,217.40186961117215,61.537250638288555,360.9094699284335,-16.633486907750605,-0.22257727985244136,-0.4745708749579428,0,Fixed-Wing
1970-01-01 00:00:56.010925344,4964,1536692200795549336,base_link,0,1,40.5908802,-79.8985911,360.603386874,0.489999983311,0.0,0.0,0.0,0.489999983311,0.0,0.0,0.0,1.95999993324,1,210.7223421512763,61.43710877279764,360.5996144531231,-16.696981981721603,-0.25032712774322735,-0.7745534873924571,0,Fixed-Wing
1970-01-01 00:00:56.397412512,4966,1536692201181970680,base_link,0,1,40.5908786,-79.898671,360.383305868,0.489999983311,0.0,0.0,0.0,0.489999983311,0.0,0.0,0.0,1.95999993324,1,203.95816211950728,61.25923484320711,360.3797547272382,-16.90859013450778,-0.4446359140257884,-0.5495888599375908,0,Fixed-Wing
1970-01-01 00:00:56.846603104,4968,1536692201630844056,base_link,0,1,40.590877,-79.8987515,360.06322426,0.489999983311,0.0,0.0,0.0,0.489999983311,0.0,0.0,0.0,1.95999993324,1,197.1431843162818,61.08136475968013,360.05988879961126,-17.035570595298204,-0.444626299924466,-0.7995768656121565,0,Fixed-Wing
1970-01-01 00:00:57.238132928,4970,1536692202022750648,base_link,0,1,40.5908758,-79.8988327,359.723141779,0.489999983311,0.0,0.0,0.0,0.489999983311,0.0,0.0,0.0,1.95999993324,1,190.2689445137283,60.94792013362991,359.72001606408764,-17.183709298360974,-0.33357487188964324,-0.8495883840867837,0,Fixed-Wing
1970-01-01 00:00:57.609924672,4972,1536692202393301336,base_link,0,1,40.5908749,-79.8989143,359.383058774,0.489999983311,0.0,0.0,0.0,0.489999983311,0.0,0.0,0.0,1.95999993324,1,183.36084116298738,60.84779671331847,359.38013605579306,-17.268358857377944,-0.2502810198663987,-0.8496065640144219,0,Fixed-Wing
1970-01-01 00:00:58.025812704,4974,1536692202810372312,base_link,0,1,40.5908736,-79.8989966,359.202975232,0.489999983311,0.0,0.0,0.0,0.489999983311,0.0,0.0,0.0,1.95999993324,1,176.39348320853068,60.70325891886014,359.2002500998658,-17.416479073443675,-0.36130474262413614,-0.4496654266212252,0,Fixed-Wing
1970-01-01 00:00:58.384115328,4976,1536692203168484024,base_link,0,1,40.5908722,-79.8990792,359.242891438,0.489999983311,0.0,0.0,0.0,0.489999983311,0.0,0.0,0.0,1.95999993324,1,169.40073405270672,60.547623933051256,359.24035706608163,-17.47995009504944,-0.3890446696085628,0.10025638733696957,0,Fixed-Wing
1970-01-01 00:00:58.810148416,4978,1536692203594614456,base_link,0,1,40.5908701,-79.8991617,359.522808051,0.489999983311,0.0,0.0,0.0,0.489999983311,0.0,0.0,0.0,1.95999993324,1,162.4164581193433,60.314261366914394,359.5204573037448,-17.458769368777986,-0.5833422476949072,0.7001735750647212,0,Fixed-Wing
1970-01-01 00:00:59.187033856,4980,1536692203971253432,base_link,0,1,40.590867,-79.8992442,359.972725096,0.489999983311,0.0,0.0,0.0,0.489999983311,0.0,0.0,0.0,1.95999993324,1,155.43218758669985,59.96985463998149,359.97055137675954,-17.458755868463093,-0.8609221158995074,1.1251114202805814,0,Fixed-Wing
1970-01-01 00:00:59.609000224,4982,1536692204393109272,base_link,0,1,40.5908632,-79.899326,360.47264316,0.489999983311,0.0,0.0,0.0,0.489999983311,0.0,0.0,0.0,1.95999993324,1,148.50717878159557,59.54771944622834,360.47063816148534,-17.310617844797783,-1.0552219099727767,1.2500794530746493,0,Fixed-Wing
1970-01-01 00:01:00.066223232,4984,1536692204850773656,base_link,0,1,40.5908597,-79.8994073,360.762561619,0.489999983311,0.0,0.0,0.0,0.489999983311,0.0,0.0,0.0,1.95999993324,1,141.62449185771095,59.1589051635915,360.7607165574152,-17.204824778985863,-0.9719287944247225,0.7251162270396952,0,Fixed-Wing
1970-01-01 00:01:00.422174144,4986,1536692205206734520,base_link,0,1,40.5908567,-79.8994886,360.702479879,0.489999983311,0.0,0.0,0.0,0.489999983311,0.0,0.0,0.0,1.95999993324,1,134.74179520338862,58.82562011904872,360.70078680253437,-17.204849102404562,-0.833120968050456,-0.14980790833218557,0,Fixed-Wing
1970-01-01 00:01:00.786568576,4988,1536692205571095480,base_link,0,1,40.5908547,-79.8995705,360.492397117,0.489999983311,0.0,0.0,0.0,0.489999983311,0.0,0.0,0.0,1.95999993324,1,127.80829831114346,58.60339148560462,360.49084858558297,-17.331835728682744,-0.5555104774577388,-0.5247878157187713,0,Fixed-Wing
1970-01-01 00:01:01.267002528,4990,1536692206051527960,base_link,0,1,40.5908542,-79.8996527,360.22231343,0.489999983311,0.0,0.0,0.0,0.489999983311,0.0,0.0,0.0,1.95999993324,1,120.84940020256082,58.54774679368305,360.22090086150547,-17.395331784960266,-0.1390964291967174,-0.6747950827346412,0,Fixed-Wing
1970-01-01 00:01:01.616896544,4992,1536692206401476792,base_link,0,1,40.5908553,-79.8997356,360.042228369,0.489999983311,0.0,0.0,0.0,0.489999983311,0.0,0.0,0.0,1.95999993324,1,113.83124081994441,58.669792192967435,360.04094359961584,-17.54346867498676,0.3050799394176356,-0.4498436719201547,0,Fixed-Wing
1970-01-01 00:01:02.056537984,4994,1536692206840957592,base_link,0,1,40.5908583,-79.899819,359.972142012,0.489999983311,0.0,0.0,0.0,0.489999983311,0.0,0.0,0.0,1.95999993324,1,106.77075184618329,59.00284395546734,359.97097608344257,-17.649281013491326,0.8325378270887854,-0.17489955148253306,0,Fixed-Wing
1970-01-01 00:01:02.448292544,4996,1536692207232678040,base_link,0,1,40.5908638,-79.8999023,359.902054721,0.489999983311,0.0,0.0,0.0,0.489999983311,0.0,0.0,0.0,1.95999993324,1,99.71872575153182,59.61353323397719,359.900997085561,-17.628126142752965,1.5265552751943594,-0.1749282525960865,0,Fixed-Wing
1970-01-01 00:01:02.791995424,4998,1536692207575946040,base_link,0,1,40.5908727,-79.8999852,359.691966425,0.489999983311,0.0,0.0,0.0,0.489999983311,0.0,0.0,0.0,1.95999993324,1,92.7005574580503,60.60180603929021,359.6910051614222,-17.54349094969934,2.4704102681530444,-0.524922068919467,0,Fixed-Wing
1970-01-01 00:01:03.194322016,5000,1536692207978730552,base_link,0,1,40.5908855,-79.9000675,359.58187712,0.489999983311,0.0,0.0,0.0,0.489999983311,0.0,0.0,0.0,1.95999993324,1,85.73318266703112,62.02319084852914,359.58099947620656,-17.41652116022033,3.553071185266945,-0.27498396480297144,0,Fixed-Wing
1970-01-01 00:01:03.632765568,5002,1536692208414878712,base_link,0,1,40.5909032,-79.9001486,359.461787,0.489999983311,0.0,0.0,0.0,0.489999983311,0.0,0.0,0.0,1.95999993324,1,78.8673945033486,63.98873928372069,359.4609783547222,-17.16258252512851,4.913330621610498,-0.3000198015326866,0,Fixed-Wing
1970-01-01 00:01:04.024013632,5004,1536692208808100024,base_link,0,1,40.590927,-79.9002276,359.231696483,0.489999983311,0.0,0.0,0.0,0.489999983311,0.0,0.0,0.0,1.95999993324,1,72.17938416855134,66.63171345510366,359.2309397837306,-16.718186836441163,6.60670869050148,-0.5750331738299036,0,Fixed-Wing
1970-01-01 00:01:04.399193280,5006,1536692209183685816,base_link,0,1,40.5909581,-79.9003024,359.131607209,0.489999983311,0.0,0.0,0.0,0.489999983311,0.0,0.0,0.0,1.95999993324,1,65.84693656685543,70.08537962272905,359.1308818244214,-15.829377772684763,8.633215765329277,-0.2501173853606029,0,Fixed-Wing
1970-01-01 00:01:04.775031168,5008,1536692209559534232,base_link,0,1,40.590997,-79.9003702,359.301521827,0.489999983311,0.0,0.0,0.0,0.489999983311,0.0,0.0,0.0,1.95999993324,1,60.10709580271582,74.40526675197538,359.3008039836312,-14.348023627749985,10.798529984817483,0.4247586745703431,0,Fixed-Wing
1970-01-01 00:01:05.200807296,5010,1536692209985175800,base_link,0,1,40.5910432,-79.9004286,359.871442994,0.489999983311,0.0,0.0,0.0,0.489999983311,0.0,0.0,0.0,1.95999993324,1,55.16304248537538,79.53585109001068,359.87070769755803,-12.358773828229996,12.82505008957841,1.4246025785333756,0,Fixed-Wing
1970-01-01 00:01:05.597457728,5012,1536692210381897176,base_link,0,1,40.5910944,-79.900477,360.711372285,0.489999983311,0.0,0.0,0.0,0.489999983311,0.0,0.0,0.0,1.95999993324,1,51.06557124690329,85.22171055092409,360.71059744708714,-10.242551415524515,14.213085212910094,2.0994934295455168,0,Fixed-Wing
1970-01-01 00:01:06.027742592,5014,1536692210812219416,base_link,0,1,40.5911496,-79.9005159,361.421309608,0.489999983311,0.0,0.0,0.0,0.489999983311,0.0,0.0,0.0,1.95999993324,1,47.77234973754607,91.35178635536431,361.4204751907257,-8.232148237086962,15.323503925668737,1.7744991641883685,0,Fixed-Wing
1970-01-01 00:01:06.425179168,5016,1536692211209610584,base_link,0,1,40.591208,-79.9005451,362.0012555,0.518400041199,0.0,0.0,0.0,0.518400041199,0.0,0.0,0.0,2.07360016479,1,45.30030910168627,97.8372354610029,362.00034267560494,-6.179421853245657,16.21183946175569,1.4495092661787958,0,Fixed-Wing
1970-01-01 00:01:06.810036768,5018,1536692211594453144,base_link,0,1,40.5912688,-79.9005644,362.421210499,0.518400041199,0.0,0.0,0.0,0.518400041199,0.0,0.0,0.0,2.07360016479,1,43.66637975746998,104.58921449152578,362.42020164923645,-4.084374079391977,16.878090986298695,1.0495319855603527,0,Fixed-Wing
1970-01-01 00:01:07.207149760,5020,1536692211991478136,base_link,0,1,40.591331,-79.9005756,362.591173185,0.518400041199,0.0,0.0,0.0,0.518400041199,0.0,0.0,0.0,2.07360016479,1,42.71817641646987,111.49666764913911,362.5900534575098,-2.3702476252614946,17.266733553342462,0.4245828165735164,0,Fixed-Wing
1970-01-01 00:01:07.625679488,5022,1536692212409975992,base_link,0,1,40.5913937,-79.9005802,362.691142407,0.489999983311,0.0,0.0,0.0,0.489999983311,0.0,0.0,0.0,1.95999993324,1,42.328713025852245,118.45964939524862,362.6898994477222,-0.9735513858916223,17.405539755900616,0.2495875209037745,0,Fixed-Wing
1970-01-01 00:01:08.025951104,5024,1536692212810431224,base_link,0,1,40.591457,-79.9005791,362.321117204,0.489999983311,0.0,0.0,0.0,0.489999983311,0.0,0.0,0.0,1.95999993324,1,42.42179373355065,125.48925632734549,362.3197388707465,0.2326761748667778,17.572084400958065,-0.925299659476724,0,Fixed-Wing
1970-01-01 00:01:08.412864544,5026,1536692213197433944,base_link,0,1,40.59152,-79.9005732,361.941097032,0.489999983311,0.0,0.0,0.0,0.489999983311,0.0,0.0,0.0,1.95999993324,1,42.9212292121436,132.4855489411044,361.93957353311373,1.248451366832024,17.4888077655431,-0.9503088101128249,0,Fixed-Wing
1970-01-01 00:01:08.797792480,5028,1536692213582313432,base_link,0,1,40.591583,-79.9005646,361.851079629,0.489999983311,0.0,0.0,0.0,0.489999983311,0.0,0.0,0.0,1.95999993324,1,43.649240041016405,139.48184851823007,361.84940167594704,1.8198268912239763,17.48882517204521,-0.22540484838341465,0,Fixed-Wing
1970-01-01 00:01:09.211146656,5030,1536692213995527000,base_link,0,1,40.5916455,-79.9005553,361.951063165,0.489999983311,0.0,0.0,0.0,0.489999983311,0.0,0.0,0.0,1.95999993324,1,44.43651110218124,146.42262660264282,361.9492238472418,1.9679611771826029,17.35003670699412,0.24952798015908528,0,Fixed-Wing
1970-01-01 00:01:09.633094016,5032,1536692214417582776,base_link,0,1,40.5917072,-79.9005476,362.281045422,0.489999983311,0.0,0.0,0.0,0.489999983311,0.0,0.0,0.0,1.95999993324,1,45.088331648690584,153.2745679098992,362.2790401692704,1.6293721353384667,17.12796919152985,0.8244501155587671,0,Fixed-Wing
1970-01-01 00:01:10.008956384,5034,1536692214790329688,base_link,0,1,40.5917683,-79.9005416,362.661026215,0.489999983311,0.0,0.0,0.0,0.489999983311,0.0,0.0,0.0,1.95999993324,1,45.59623501043391,160.05987901996517,362.6588502872811,1.2696187462962172,16.961412019842758,0.9494208587323135,0,Fixed-Wing
1970-01-01 00:01:10.431429120,5036,1536692215215784024,base_link,0,1,40.5918283,-79.9005374,363.101005648,0.489999983311,0.0,0.0,0.0,0.489999983311,0.0,0.0,0.0,1.95999993324,1,45.951756305232635,166.7230340797222,363.09865606873893,0.8887054793940846,16.656055483289414,1.0993935203573484,0,Fixed-Wing
1970-01-01 00:01:10.793253536,5038,1536692215577779608,base_link,0,1,40.5918887,-79.9005347,362.970983407,0.489999983311,0.0,0.0,0.0,0.489999983311,0.0,0.0,0.0,1.95999993324,1,46.18028739847799,173.43059477226888,362.96845288887016,0.5712648939750409,16.76705735505764,-0.3254721477356795,0,Fixed-Wing
1970-01-01 00:01:11.227604672,5040,1536692216012117016,base_link,0,1,40.5919492,-79.9005327,362.53096043,0.489999983311,0.0,0.0,0.0,0.489999983311,0.0,0.0,0.0,1.95999993324,1,46.3495560424068,180.14925135834724,362.52824200861545,0.42312506606477457,16.794794037851755,-1.1004061559596205,0,Fixed-Wing
1970-01-01 00:01:11.618483840,5042,1536692216402744408,base_link,0,1,40.5920095,-79.9005307,361.970937554,0.489999983311,0.0,0.0,0.0,0.489999983311,0.0,0.0,0.0,1.95999993324,1,46.51882362258928,186.84569309456884,361.96802478354357,0.4231224069914251,16.739263021621625,-1.4003890198875146,0,Fixed-Wing
1970-01-01 00:01:12.060192608,5044,1536692216843068280,base_link,0,1,40.5920698,-79.900529,361.48091439,0.489999983311,0.0,0.0,0.0,0.489999983311,0.0,0.0,0.0,1.95999993324,1,46.66269441353014,193.5421356960582,361.4778004017313,0.359637417236252,16.739265184553116,-1.2254261576532937,0,Fixed-Wing
1970-01-01 00:01:12.417825888,5046,1536692217202285272,base_link,0,1,40.5921312,-79.9005271,361.030890995,0.489999983311,0.0,0.0,0.0,0.489999983311,0.0,0.0,0.0,1.95999993324,1,46.82349574449213,200.36073627206517,361.02756477264654,0.40195911190266015,17.044626531098974,-1.1254652715320637,0,Fixed-Wing
1970-01-01 00:01:12.812420512,5048,1536692217596567384,base_link,0,1,40.5921931,-79.9005255,360.740867106,0.489999983311,0.0,0.0,0.0,0.489999983311,0.0,0.0,0.0,1.95999993324,1,46.95890066925833,207.2348671745984,360.73731971526865,0.33847507965673534,17.18343707825449,-0.725532834832888,0,Fixed-Wing
1970-01-01 00:01:13.227174912,5050,1536692218011397528,base_link,0,1,40.5922551,-79.9005239,360.570843196,0.489999983311,0.0,0.0,0.0,0.489999983311,0.0,0.0,0.0,1.95999993324,1,47.09430614558664,214.12010679630927,360.56706683165675,0.3384764584103646,17.211205821636785,-0.42558539463636147,0,Fixed-Wing
1970-01-01 00:01:13.606301312,5052,1536692218390748696,base_link,0,1,40.5923169,-79.9005225,360.510819183,0.489999983311,0.0,0.0,0.0,0.489999983311,0.0,0.0,0.0,1.95999993324,1,47.21278107118599,220.98313937379325,360.5068072903322,0.296154736977292,17.155694317335037,-0.15063228376021,0,Fixed-Wing
1970-01-01 00:01:14.038305280,5054,1536692218822141944,base_link,0,1,40.5923787,-79.9005216,360.56079468,0.489999983311,0.0,0.0,0.0,0.489999983311,0.0,0.0,0.0,1.95999993324,1,47.28892851315683,227.84617556763573,360.5565401684298,0.19034766668378061,17.15570335723689,0.12431852020688512,0,Fixed-Wing
1970-01-01 00:01:14.399123008,5056,1536692219183515544,base_link,0,1,40.5924398,-79.9005213,360.750769874,0.489999983311,0.0,0.0,0.0,0.489999983311,0.0,0.0,0.0,1.95999993324,1,47.314283700749016,234.63148015232304,360.74626858145496,0.0633809970707795,16.961395708190373,0.4742688629879124,0,Fixed-Wing
1970-01-01 00:01:14.781087136,5058,1536692219565342488,base_link,0,1,40.5925007,-79.9005213,361.020744863,0.489999983311,0.0,0.0,0.0,0.489999983311,0.0,0.0,0.0,1.95999993324,1,47.31424277443421,241.3945776183367,361.0159905867486,-0.00010230453350857068,16.905884017792232,0.674230847840884,0,Fixed-Wing
1970-01-01 00:01:15.222998784,5060,1536692220007552280,base_link,0,1,40.592561,-79.9005213,361.320720118,0.489999983311,0.0,0.0,0.0,0.489999983311,0.0,0.0,0.0,1.95999993324,1,47.31420249333877,248.09104549248087,361.31570826512996,-0.00010069166252730308,16.739328359240886,0.7492117826572616,0,Fixed-Wing
1970-01-01 00:01:15.634019456,5062,1536692220418529112,base_link,0,1,40.5926209,-79.9005213,361.500695554,0.489999983311,0.0,0.0,0.0,0.489999983311,0.0,0.0,0.0,1.95999993324,1,47.314161605269916,254.74308832103475,361.4954208557431,-0.0001022089291490335,16.628277960808997,0.4492320610060928,0,Fixed-Wing
1970-01-01 00:01:16.043401696,5064,1536692220827536504,base_link,0,1,40.5926806,-79.9005209,361.450671497,0.489999983311,0.0,0.0,0.0,0.489999983311,0.0,0.0,0.0,1.95999993324,1,47.34798146842662,261.37291189132935,361.4451276630755,0.08454035845232286,16.572735924784784,-0.1257191525622071,0,Fixed-Wing
1970-01-01 00:01:16.425547360,5066,1536692221208644952,base_link,0,1,40.5927405,-79.9005175,361.320650427,0.489999983311,0.0,0.0,0.0,0.489999983311,0.0,0.0,0.0,1.95999993324,1,47.635767665099195,268.0249441448991,361.3148277226802,0.7193863591819335,16.628251526256506,-0.3257140224457194,0,Fixed-Wing
1970-01-01 00:01:16.789323040,5068,1536692221573789304,base_link,0,1,40.5928003,-79.9005086,361.200635008,0.489999983311,0.0,0.0,0.0,0.489999983311,0.0,0.0,0.0,1.95999993324,1,48.389159461833486,274.6658744122724,361.1945234357975,1.8832723318792222,16.600499613475712,-0.3007276371666256,0,Fixed-Wing
1970-01-01 00:01:17.195323200,5070,1536692221979617400,base_link,0,1,40.5928594,-79.9004923,361.140627416,0.489999983311,0.0,0.0,0.0,0.489999983311,0.0,0.0,0.0,1.95999993324,1,49.76900198211033,281.22907473765065,361.1342185420946,3.4492268857346833,16.40619613187115,-0.1507456522356252,0,Fixed-Wing
1970-01-01 00:01:17.600521856,5072,1536692222384875768,base_link,0,1,40.5929167,-79.9004663,361.140630438,0.489999983311,0.0,0.0,0.0,0.489999983311,0.0,0.0,0.0,1.95999993324,1,51.970002100624704,287.5923894237123,361.13391960221537,5.501895087826269,15.906536996084535,-0.0007472674985777648,0,Fixed-Wing
1970-01-01 00:01:18.010689280,5074,1536692222795258360,base_link,0,1,40.5929712,-79.9004296,361.360645497,0.489999983311,0.0,0.0,0.0,0.489999983311,0.0,0.0,0.0,1.95999993324,1,55.0768155716994,293.64477502846574,361.3536321908165,7.766179397952961,15.129299788906854,0.54922105718649,0,Fixed-Wing
1970-01-01 00:01:18.422776992,5076,1536692223207043192,base_link,0,1,40.5930217,-79.900383,361.760672267,0.489999983311,0.0,0.0,0.0,0.489999983311,0.0,0.0,0.0,1.95999993324,1,59.021717386306925,299.2529680162294,361.7533624363599,9.861169807839953,14.018940385966618,0.9992157001315448,0,Fixed-Wing
