time,field.header.seq,field.header.stamp,field.header.frame_id,field.status.status,field.status.service,lat,lon,alt,field.position_covariance0,field.position_covariance1,field.position_covariance2,field.position_covariance3,field.position_covariance4,field.position_covariance5,field.position_covariance6,field.position_covariance7,field.position_covariance8,field.position_covariance_type,x,y,z,vel_x,vel_y,vel_z,track_id,uav_category
1970-01-01 00:00:00.000000000,1748,1539875435308138216,base_link,0,1,40.5914713,-79.8951085,386.726707185,0.448900022364,0.0,0.0,0.0,0.448900022364,0.0,0.0,0.0,1.79560008945,1,528.0351389855032,144.50944249924527,386.703240927817,-15.930239601320842,3.7730225452610116,-0.7736498333685347,0,Fixed-Wing
1970-01-01 00:00:00.409182880,1750,1539875435718271784,base_link,0,1,40.5914849,-79.8951838,386.416624079,0.448900022364,0.0,0.0,0.0,0.448900022364,0.0,0.0,0.0,1.79560008945,1,521.6602872135238,146.01930425025,386.3936471530484,-15.930239601320842,3.7730225452610116,-0.7736498333685347,0,Fixed-Wing
1970-01-01 00:00:00.812055488,1752,1539875436121143400,base_link,0,1,40.5914988,-79.8952586,386.016541373,0.448900022364,0.0,0.0,0.0,0.448900022364,0.0,0.0,0.0,1.79560008945,1,515.3277578781162,147.56248797544373,385.99404286941865,-15.824479251242765,3.8562914669248753,-0.9985788237330904,0,Fixed-Wing
1970-01-01 00:00:01.210058592,1754,1539875436519209416,base_link,0,1,40.5915148,-79.8953316,385.426459643,0.448900022364,0.0,0.0,0.0,0.448900022364,0.0,0.0,0.0,1.79560008945,1,509.14758452920876,149.33889361266395,385.40441529733414,-15.443753948685913,4.439094184815622,-1.4734316710135609,0,Fixed-Wing
1970-01-01 00:00:01.621736928,1756,1539875436930619912,base_link,0,1,40.5915338,-79.895401,384.44638036,0.448900022364,0.0,0.0,0.0,0.448900022364,0.0,0.0,0.0,1.79560008945,1,503.2721292130608,151.4484735474892,384.4247517739369,-14.682288200723097,5.271669839857347,-2.448100005240786,0,Fixed-Wing
1970-01-01 00:00:02.007032448,1758,1539875437315955496,base_link,0,1,40.5915562,-79.8954669,382.956303252,0.448900022364,0.0,0.0,0.0,0.448900022364,0.0,0.0,0.0,1.79560008945,1,497.69291533250663,153.9356441318531,382.93505211945967,-13.942004784316193,6.215238370314648,-3.7226390947846286,0,Fixed-Wing
1970-01-01 00:00:02.392160128,1760,1539875437701318088,base_link,0,1,40.5915809,-79.8955299,380.946228166,0.448900022364,0.0,0.0,0.0,0.448900022364,0.0,0.0,0.0,1.79560008945,1,492.3591574056249,156.67824230597677,380.92532344268255,-13.328630184649466,6.853531283029232,-5.022149612235496,0,Fixed-Wing
1970-01-01 00:00:02.823674816,1762,1539875438132513960,base_link,0,1,40.5916089,-79.8955906,378.626154066,0.448900022364,0.0,0.0,0.0,0.448900022364,0.0,0.0,0.0,1.79560008945,1,487.22007112106536,159.78732121116423,378.6055660739505,-12.842161476560236,7.769337024705464,-5.7968862685189695,0,Fixed-Wing
1970-01-01 00:00:03.231015424,1764,1539875438539372296,base_link,0,1,40.5916397,-79.8956496,375.976080548,0.448900022364,0.0,0.0,0.0,0.448900022364,0.0,0.0,0.0,1.79560008945,1,482.2248652387772,163.20734950616838,375.9557848048982,-12.482615974311441,8.546374430569175,-6.6215893352432875,0,Fixed-Wing
1970-01-01 00:00:03.645485984,1766,1539875438954676904,base_link,0,1,40.5916735,-79.8957065,373.066007939,0.448900022364,0.0,0.0,0.0,0.448900022364,0.0,0.0,0.0,1.79560008945,1,477.40740747137227,166.9605404925352,373.04597668507563,-12.038437794166423,9.378921082548805,-7.271375429683091,0,Fixed-Wing
1970-01-01 00:00:04.031865632,1768,1539875439339416168,base_link,0,1,40.5917109,-79.8957625,370.245934758,0.448900022364,0.0,0.0,0.0,0.448900022364,0.0,0.0,0.0,1.79560008945,1,472.66613167068755,171.11352737776463,370.22614576979123,-11.848065213506954,10.377978737269727,-7.046529664131261,0,Fixed-Wing
1970-01-01 00:00:04.427785504,1770,1539875439736549224,base_link,0,1,40.5917503,-79.8958186,367.525860651,0.448900022364,0.0,0.0,0.0,0.448900022364,0.0,0.0,0.0,1.79560008945,1,467.9163930195706,175.48862072548764,367.50630219706295,-11.869213193086381,10.933004844712185,-6.796669372317172,0,Fixed-Wing
1970-01-01 00:00:04.792685920,1772,1539875440101616296,base_link,0,1,40.5917913,-79.8958758,365.075784763,0.448900022364,0.0,0.0,0.0,0.448900022364,0.0,0.0,0.0,1.79560008945,1,463.0735498732192,180.04139906971824,365.0564520297573,-12.101873805457672,11.377025297135496,-6.121977662924959,0,Fixed-Wing
1970-01-01 00:00:05.195085152,1774,1539875440504142280,base_link,0,1,40.5918333,-79.8959334,362.785708065,0.448900022364,0.0,0.0,0.0,0.448900022364,0.0,0.0,0.0,1.79560008945,1,458.196858259043,184.70523200744952,362.7665933285617,-12.186458392185868,11.654541755019169,-5.722171913636242,0,Fixed-Wing
1970-01-01 00:00:05.604312480,1776,1539875440910307688,base_link,0,1,40.5918755,-79.8959909,360.455631405,0.448900022364,0.0,0.0,0.0,0.448900022364,0.0,0.0,0.0,1.79560008945,1,453.32863773288767,189.39127459820995,360.43672626092166,-12.16528982753787,11.71004188378632,-5.822149589402748,0,Fixed-Wing
1970-01-01 00:00:06.000761056,1778,1539875441309668744,base_link,0,1,40.5919174,-79.8960493,358.215553969,0.448900022364,0.0,0.0,0.0,0.448900022364,0.0,0.0,0.0,1.79560008945,1,448.38424416614544,194.04399944913428,358.19685762108554,-12.355640102511252,11.62678354342829,-5.597250788624215,0,Fixed-Wing
1970-01-01 00:00:06.443252800,1780,1539875441752173480,base_link,0,1,40.5919593,-79.89611,356.645474194,0.448900022364,0.0,0.0,0.0,0.448900022364,0.0,0.0,0.0,1.79560008945,1,443.2451964970137,198.6967336794226,356.6269929234575,-12.842064979725622,11.626806981701241,-3.9229650616808733,0,Fixed-Wing
1970-01-01 00:00:06.836627392,1782,1539875442144829576,base_link,0,1,40.5920019,-79.8961721,356.405392713,0.448900022364,0.0,0.0,0.0,0.448900022364,0.0,0.0,0.0,1.79560008945,1,437.98772521384177,203.42724130530192,356.38712462320177,-13.13799602464915,11.821156414548987,-0.5994115051633929,0,Fixed-Wing
1970-01-01 00:00:07.192527392,1784,1539875442501518152,base_link,0,1,40.5920443,-79.8962333,356.58531226,0.448900022364,0.0,0.0,0.0,0.448900022364,0.0,0.0,0.0,1.79560008945,1,432.8064816138276,208.1355600294558,356.56724506933784,-12.947509202305428,11.765708141613462,0.45010644430302044,0,Fixed-Wing
1970-01-01 00:00:07.598873216,1786,1539875442907985832,base_link,0,1,40.592086,-79.896293,356.905233657,0.448900022364,0.0,0.0,0.0,0.448900022364,0.0,0.0,0.0,1.79560008945,1,427.75224281140146,212.7661580430024,356.8873537747169,-12.630134472905821,11.571490364283955,0.7999257955411392,0,Fixed-Wing
1970-01-01 00:00:08.003252160,1788,1539875443312381160,base_link,0,1,40.5921266,-79.8963502,357.525158095,0.448900022364,0.0,0.0,0.0,0.448900022364,0.0,0.0,0.0,1.79560008945,1,422.9096776431743,217.27462473554826,357.5074483136858,-12.101179160580967,11.266294059184034,1.5495661600579884,0,Fixed-Wing
1970-01-01 00:00:08.413522464,1790,1539875443722430056,base_link,0,1,40.5921657,-79.8964051,358.435085535,0.448900022364,0.0,0.0,0.0,0.448900022364,0.0,0.0,0.0,1.79560008945,1,418.2618554261027,221.6165380795021,358.41753204294815,-11.614532257477551,10.850090695658748,2.274225720531719,0,Fixed-Wing
1970-01-01 00:00:08.810218400,1792,1539875444119169576,base_link,0,1,40.5922038,-79.8964579,359.43501556,0.448900022364,0.0,0.0,0.0,0.448900022364,0.0,0.0,0.0,1.79560008945,1,413.79182764454123,225.84741634787656,359.41760443961346,-11.170238325827825,10.572623011483667,2.4991001308566614,0,Fixed-Wing
1970-01-01 00:00:09.222761664,1794,1539875444531642600,base_link,0,1,40.5922407,-79.8965094,360.174947434,0.448900022364,0.0,0.0,0.0,0.448900022364,0.0,0.0,0.0,1.79560008945,1,409.4318474167831,229.94503251212535,360.15767050800844,-10.895238378796458,10.239611778527765,1.8493653204863418,0,Fixed-Wing
1970-01-01 00:00:09.630400800,1796,1539875444938207272,base_link,0,1,40.5922769,-79.8965604,360.614880126,0.448900022364,0.0,0.0,0.0,0.448900022364,0.0,0.0,0.0,1.79560008945,1,405.1141843121869,233.9649068393964,360.5977319529988,-10.78949130650042,10.04534120810513,1.0996780017401544,0,Fixed-Wing
1970-01-01 00:00:09.986073920,1798,1539875445295132488,base_link,0,1,40.5923131,-79.8966106,360.944813653,0.448900022364,0.0,0.0,0.0,0.448900022364,0.0,0.0,0.0,1.79560008945,1,400.8642433602715,237.98478377616848,360.9277845256696,-10.620259117720206,10.045347729037388,0.8247747166120872,0,Fixed-Wing
1970-01-01 00:00:10.412852864,1800,1539875445721980680,base_link,0,1,40.5923489,-79.8966604,361.264747771,0.448900022364,0.0,0.0,0.0,0.448900022364,0.0,0.0,0.0,1.79560008945,1,396.64817077729475,241.9602440626855,361.24783190812576,-10.535624799715928,9.934354108140743,0.799772554510556,0,Fixed-Wing
1970-01-01 00:00:10.807776832,1802,1539875446116849512,base_link,0,1,40.5923847,-79.89671,361.554682108,0.448900022364,0.0,0.0,0.0,0.448900022364,0.0,0.0,0.0,1.79560008945,1,392.44903165815765,245.9357068897499,361.53787320072695,-10.493309441509298,9.934360456763462,0.7247897599318,0,Fixed-Wing
1970-01-01 00:00:11.207094176,1804,1539875446515915080,base_link,0,1,40.5924204,-79.8967594,361.924616707,0.448900022364,0.0,0.0,0.0,0.448900022364,0.0,0.0,0.0,1.79560008945,1,388.2668333008715,249.90007125705404,361.9079089201122,-10.45097584616192,9.906626302384575,0.9246893703105182,0,Fixed-Wing
1970-01-01 00:00:11.605289312,1806,1539875446914062408,base_link,0,1,40.5924555,-79.8968085,362.544551876,0.448900022364,0.0,0.0,0.0,0.448900022364,0.0,0.0,0.0,1.79560008945,1,384.11005419658056,253.7978183198844,362.5279411295615,-10.387455186359233,9.740155040021131,1.549410403623627,0,Fixed-Wing
1970-01-01 00:00:12.024715872,1808,1539875447333763048,base_link,0,1,40.59249,-79.8968573,363.354487615,0.448900022364,0.0,0.0,0.0,0.448900022364,0.0,0.0,0.0,1.79560008945,1,379.978690147306,257.6289460437186,363.3379700028557,-10.323945016966578,9.573678693550503,2.024196718154864,0,Fixed-Wing
1970-01-01 00:00:12.382108096,1810,1539875447690933544,base_link,0,1,40.5925242,-79.8969057,363.874423902,0.448900022364,0.0,0.0,0.0,0.448900022364,0.0,0.0,0.0,1.79560008945,1,375.88117631791863,261.42675113021676,363.857993820874,-10.239356051975937,9.490408114735773,1.2994975123717256,0,Fixed-Wing
1970-01-01 00:00:12.840373760,1812,1539875448149264200,base_link,0,1,40.5925596,-79.8969523,364.094361547,0.448900022364,0.0,0.0,0.0,0.448900022364,0.0,0.0,0.0,1.79560008945,1,371.9360226428019,265.35781708205565,364.07799967780176,-9.85862033449715,9.823416252068203,0.5497768638257495,0,Fixed-Wing
1970-01-01 00:00:13.206866432,1814,1539875448515935656,base_link,0,1,40.5925969,-79.896996,364.214301386,0.448900022364,0.0,0.0,0.0,0.448900022364,0.0,0.0,0.0,1.79560008945,1,368.23635887063807,269.4998928630905,364.1979797791095,-9.245160898321053,10.350712769314427,0.2998205808681755,0,Fixed-Wing
1970-01-01 00:00:13.620054560,1816,1539875448929034248,base_link,0,1,40.5926376,-79.8970349,364.304244741,0.448900022364,0.0,0.0,0.0,0.448900022364,0.0,0.0,0.0,1.79560008945,1,364.9430271128899,274.01956741717953,364.2879191048754,-8.229770018837225,11.294301599780649,0.2247511095598582,0,Fixed-Wing
1970-01-01 00:00:14.010270336,1818,1539875449318843016,base_link,0,1,40.5926848,-79.8970646,364.464194832,0.448900022364,0.0,0.0,0.0,0.448900022364,0.0,0.0,0.0,1.79560008945,1,362.42850175229546,279.26112510055515,364.44778447440393,-6.283595746325869,13.098229224299535,0.3994906441177139,0,Fixed-Wing
1970-01-01 00:00:14.407091936,1820,1539875449716290600,base_link,0,1,40.5927385,-79.8970821,364.73415473,0.448900022364,0.0,0.0,0.0,0.448900022364,0.0,0.0,0.0,1.79560008945,1,360.9467513816026,285.2245794556019,364.71756374829715,-3.702774476770923,14.902190690143351,0.6741566119983626,0,Fixed-Wing
1970-01-01 00:00:14.800438400,1822,1539875450109388648,base_link,0,1,40.5927961,-79.8970875,364.974125407,0.448900022364,0.0,0.0,0.0,0.448900022364,0.0,0.0,0.0,1.79560008945,1,360.4893145014292,291.6211871778416,364.9572703035707,-1.1430978106304477,15.984605963520046,0.5990073175189942,0,Fixed-Wing
1970-01-01 00:00:15.212734592,1824,1539875450521857640,base_link,0,1,40.5928556,-79.8970785,365.244110043,0.448900022364,0.0,0.0,0.0,0.448900022364,0.0,0.0,0.0,1.79560008945,1,361.25091074160275,298.2288554511477,365.2269056405194,1.9031674804985845,16.512029230623014,0.6737969252016961,0,Fixed-Wing
1970-01-01 00:00:15.625853440,1826,1539875450934970376,base_link,0,1,40.5929149,-79.897055,365.514109606,0.448900022364,0.0,0.0,0.0,0.448900022364,0.0,0.0,0.0,1.79560008945,1,363.2400121744708,304.8143736582057,365.4964803263796,4.970603796028318,16.45667800440806,0.6736453630308985,0,Fixed-Wing
1970-01-01 00:00:16.046887872,1828,1539875451355929960,base_link,0,1,40.5929719,-79.897021,365.484120868,0.448900022364,0.0,0.0,0.0,0.448900022364,0.0,0.0,0.0,1.79560008945,1,366.11798808288455,311.1445013598941,365.4660208820763,7.191829304860047,15.818477762588708,-0.07611569072198707,0,Fixed-Wing
1970-01-01 00:00:16.411803296,1830,1539875451720872456,base_link,0,1,40.5930247,-79.8969734,365.374147782,0.448900022364,0.0,0.0,0.0,0.448900022364,0.0,0.0,0.0,1.79560008945,1,370.1472910424801,317.0082630679077,365.3555261354112,10.068902598614985,14.653066818634972,-0.2761174458674047,0,Fixed-Wing
1970-01-01 00:00:16.820729376,1832,1539875452129946088,base_link,0,1,40.5930722,-79.8969131,364.994189877,0.448900022364,0.0,0.0,0.0,0.448900022364,0.0,0.0,0.0,1.79560008945,1,375.2517240631512,322.2834893160081,364.97500538904245,12.755565769482402,13.182364247713888,-0.9508906057348827,0,Fixed-Wing
1970-01-01 00:00:17.203580288,1834,1539875452512703048,base_link,0,1,40.5931122,-79.896841,364.614247139,0.448900022364,0.0,0.0,0.0,0.448900022364,0.0,0.0,0.0,1.79560008945,1,381.3551241035826,326.7258763933957,364.59447461255354,15.251903652748782,11.101166438984123,-0.9509156701949176,0,Fixed-Wing
1970-01-01 00:00:17.609023104,1836,1539875452917574984,base_link,0,1,40.5931425,-79.896758,364.314319553,0.448900022364,0.0,0.0,0.0,0.448900022364,0.0,0.0,0.0,1.79560008945,1,388.38131912043997,330.0911117694627,364.29394998760245,17.557893753095144,8.409451352457575,-0.7509867606037756,0,Fixed-Wing
1970-01-01 00:00:18.007277472,1838,1539875453316205544,base_link,0,1,40.5931612,-79.8966661,364.174405856,0.448900022364,0.0,0.0,0.0,0.448900022364,0.0,0.0,0.0,1.79560008945,1,396.1610167982159,332.1681939177662,364.15345042982153,19.440836032855575,5.190460496593911,-0.3510970449803289,0,Fixed-Wing
1970-01-01 00:00:18.400526336,1840,1539875453709463528,base_link,0,1,40.5931689,-79.8965685,364.024502533,0.448900022364,0.0,0.0,0.0,0.448900022364,0.0,0.0,0.0,1.79560008945,1,404.4233100290862,333.023733273746,364.0029846086533,20.64680333473358,2.1379237379329163,-0.37600193208490146,0,Fixed-Wing
1970-01-01 00:00:18.809188480,1842,1539875454118275912,base_link,0,1,40.5931659,-79.8964683,363.724606291,0.448900022364,0.0,0.0,0.0,0.448900022364,0.0,0.0,0.0,1.79560008945,1,412.9057606005855,332.69102537859385,363.70256307922534,21.196958744091358,-0.8314101529892534,-0.7507291332198295,0,Fixed-Wing
1970-01-01 00:00:19.211226016,1844,1539875454520410792,base_link,0,1,40.5931518,-79.8963672,363.224715563,0.448900022364,0.0,0.0,0.0,0.448900022364,0.0,0.0,0.0,1.79560008945,1,421.46445731631906,331.1256394808813,363.202195019569,21.38749169917401,-3.9117729025009957,-1.2503793600676525,0,Fixed-Wing
1970-01-01 00:00:19.612389728,1846,1539875454921313768,base_link,0,1,40.5931272,-79.8962673,362.514827957,0.448900022364,0.0,0.0,0.0,0.448900022364,0.0,0.0,0.0,1.79560008945,1,429.92162313070304,328.3941969481356,362.4918853503631,21.133774178627704,-6.825654236407118,-1.7750064827110088,0,Fixed-Wing
1970-01-01 00:00:20.004816192,1848,1539875455313992200,base_link,0,1,40.5930905,-79.8961708,361.814941887,0.448900022364,0.0,0.0,0.0,0.448900022364,0.0,0.0,0.0,1.79560008945,1,438.0910450421736,324.31901459596185,361.791653220588,20.41472540993665,-10.183551494412983,-1.749823525762828,0,Fixed-Wing
1970-01-01 00:00:20.408438432,1850,1539875455717519336,base_link,0,1,40.5930409,-79.8960811,361.345054212,0.448900022364,0.0,0.0,0.0,0.448900022364,0.0,0.0,0.0,1.79560008945,1,445.6849196772602,318.8112438553623,361.3215185574843,18.976479260436342,-13.763474148929438,-1.1748285444137727,0,Fixed-Wing
1970-01-01 00:00:20.812149248,1852,1539875456121318280,base_link,0,1,40.5929805,-79.8960012,360.985161,0.448900022364,0.0,0.0,0.0,0.448900022364,0.0,0.0,0.0,1.79560008945,1,452.44926221375664,312.1040713600896,360.96148231609504,16.90354555778733,-16.76068224311157,-0.8997014825819148,0,Fixed-Wing
1970-01-01 00:00:21.191824096,1854,1539875456500810088,base_link,0,1,40.5929098,-79.8959336,360.805259489,0.448900022364,0.0,0.0,0.0,0.448900022364,0.0,0.0,0.0,1.79560008945,1,458.1724370530231,304.25301125180556,360.7815531117028,14.301751590603185,-19.619164981855494,-0.44962854663417523,0,Fixed-Wing
1970-01-01 00:00:21.609654304,1856,1539875456918694216,base_link,0,1,40.5928306,-79.8958814,361.005345763,0.448900022364,0.0,0.0,0.0,0.448900022364,0.0,0.0,0.0,1.79560008945,1,462.592013860041,295.45794781767984,360.98173532313785,11.04416541600234,-21.978153034127047,0.5002391751443722,0,Fixed-Wing
1970-01-01 00:00:22.022095072,1858,1539875457331061000,base_link,0,1,40.5927469,-79.8958453,361.325417449,0.448900022364,0.0,0.0,0.0,0.448900022364,0.0,0.0,0.0,1.79560008945,1,465.64868466331234,286.16307114242113,361.30200973131423,7.6383734116778115,-23.227145947524463,0.8003398734456697,0,Fixed-Wing
1970-01-01 00:00:22.400975520,1860,1539875457709019784,base_link,0,1,40.5926613,-79.8958268,361.735471929,0.448900022364,0.0,0.0,0.0,0.448900022364,0.0,0.0,0.0,1.79560008945,1,467.2154409317516,276.6571058301,361.7123702267682,3.915197348244972,-23.75463939926259,1.0254577281674973,0,Fixed-Wing
1970-01-01 00:00:22.809826144,1862,1539875458118940136,base_link,0,1,40.5925752,-79.8958237,362.265510873,0.448900022364,0.0,0.0,0.0,0.448900022364,0.0,0.0,0.0,1.79560008945,1,467.4785123694357,267.0955367508078,362.2427984794517,0.657394271188007,-23.893588721108653,1.3254973541031527,0,Fixed-Wing
1970-01-01 00:00:23.202846656,1864,1539875458512025352,base_link,0,1,40.592492,-79.8958346,362.805534295,0.448900022364,0.0,0.0,0.0,0.448900022364,0.0,0.0,0.0,1.79560008945,1,466.5563804571314,257.8559442441446,362.78327046908316,-2.304333156670441,-23.088995276201043,1.350595841377209,0,Fixed-Wing
1970-01-01 00:00:23.619537408,1866,1539875458928614792,base_link,0,1,40.592412,-79.8958558,363.515545858,0.448900022364,0.0,0.0,0.0,0.448900022364,0.0,0.0,0.0,1.79560008945,1,464.76227792582154,248.9716702685593,363.4937666627135,-4.483317293545229,-22.20108297057848,1.7754725921796817,0,Fixed-Wing
1970-01-01 00:00:24.002911104,1868,1539875459312099912,base_link,0,1,40.5923354,-79.895881,364.245551933,0.448900022364,0.0,0.0,0.0,0.448900022364,0.0,0.0,0.0,1.79560008945,1,462.6295236821746,240.4649527346975,364.2242547383614,-5.329580565522804,-21.257599922687945,1.8254306903462767,0,Fixed-Wing
1970-01-01 00:00:24.402381600,1870,1539875459711499816,base_link,0,1,40.5922612,-79.8959063,364.705556929,0.448900022364,0.0,0.0,0.0,0.448900022364,0.0,0.0,0.0,1.79560008945,1,460.48826251635575,232.22474936779028,364.68472054058304,-5.3508386768193565,-20.591602549165547,1.150666842144822,0,Fixed-Wing
1970-01-01 00:00:24.825184288,1872,1539875460134092936,base_link,0,1,40.5921888,-79.8959304,364.965562429,0.448900022364,0.0,0.0,0.0,0.448900022364,0.0,0.0,0.0,1.79560008945,1,458.448557406763,224.18443906093864,364.9451611282957,-5.097058296268798,-20.09208593996006,0.6508199896361099,0,Fixed-Wing
1970-01-01 00:00:25.200858784,1874,1539875460509754152,base_link,0,1,40.5921173,-79.8959515,365.055570653,0.448900022364,0.0,0.0,0.0,0.448900022364,0.0,0.0,0.0,1.79560008945,1,456.66279909671925,216.24408569839164,365.0355720810677,-4.462465758668671,-19.842301610920778,0.2259296673488812,0,Fixed-Wing
1970-01-01 00:00:25.615181536,1876,1539875460924326440,base_link,0,1,40.5920462,-79.8959692,364.965582218,0.448900022364,0.0,0.0,0.0,0.448900022364,0.0,0.0,0.0,1.79560008945,1,455.1648539538536,208.34816527316295,364.94595400962066,-3.743243904175595,-19.731267289968827,-0.22394832096876777,0,Fixed-Wing
1970-01-01 00:00:26.019933216,1878,1539875461329119432,base_link,0,1,40.5919754,-79.8959834,364.52559727,0.448900022364,0.0,0.0,0.0,0.448900022364,0.0,0.0,0.0,1.79560008945,1,453.9631773002502,200.48556819727895,364.5063071756213,-3.0028928828366372,-19.647994931901945,-1.0986419223669452,0,Fixed-Wing
1970-01-01 00:00:26.417663328,1880,1539875461726778856,base_link,0,1,40.5919042,-79.8959945,363.825615692,0.448900022364,0.0,0.0,0.0,0.448900022364,0.0,0.0,0.0,1.79560008945,1,453.023918614455,192.57855961978174,363.80663650766957,-2.3471315800796395,-19.758975686758497,-1.7484204780226307,0,Fixed-Wing
1970-01-01 00:00:26.787542848,1882,1539875462096611752,base_link,0,1,40.5918326,-79.896003,362.995636972,0.448900022364,0.0,0.0,0.0,0.448900022364,0.0,0.0,0.0,1.79560008945,1,452.30475951373523,184.62714163088424,362.9769444405835,-1.7971204971843788,-19.869951218341825,-2.0733334509975867,0,Fixed-Wing
1970-01-01 00:00:27.219693088,1884,1539875462528802664,base_link,0,1,40.5917603,-79.8960087,362.285661442,0.448900022364,0.0,0.0,0.0,0.448900022364,0.0,0.0,0.0,1.79560008945,1,451.82265173762033,176.59800693713862,362.2672309395541,-1.2047483866100444,-20.064158985602774,-1.773516706597892,0,Fixed-Wing
1970-01-01 00:00:27.606582624,1886,1539875462909375112,base_link,0,1,40.591687,-79.8960121,361.625688716,0.448900022364,0.0,0.0,0.0,0.448900022364,0.0,0.0,0.0,1.79560008945,1,451.53526448119726,168.45783494583452,361.60749925449045,-0.7181575379225328,-20.341632222324098,-1.6486161861586406,0,Fixed-Wing
1970-01-01 00:00:28.045531264,1888,1539875463354745480,base_link,0,1,40.5916128,-79.8960126,361.06571937,0.448900022364,0.0,0.0,0.0,0.448900022364,0.0,0.0,0.0,1.79560008945,1,451.49339543934747,160.2177350498987,361.0477456898734,-0.10462735329418307,-20.591343983566677,-1.3987789396512007,0,Fixed-Wing
1970-01-01 00:00:28.401846048,1890,1539875463710939784,base_link,0,1,40.5915381,-79.8960108,360.575752621,0.448900022364,0.0,0.0,0.0,0.448900022364,0.0,0.0,0.0,1.79560008945,1,451.64624621871866,151.9221240206178,360.5579716112221,0.3819617499711185,-20.73006182146448,-1.2239058573449335,0,Fixed-Wing
1970-01-01 00:00:28.798329600,1892,1539875464105685960,base_link,0,1,40.5914628,-79.8960079,360.105787281,0.448900022364,0.0,0.0,0.0,0.448900022364,0.0,0.0,0.0,1.79560008945,1,451.89222579958806,143.5598890904269,360.0881830395083,0.6146831017320072,-20.89654956778913,-1.1739636899886314,0,Fixed-Wing
1970-01-01 00:00:29.204562080,1894,1539875464513733128,base_link,0,1,40.5913872,-79.8960048,359.795822303,0.448900022364,0.0,0.0,0.0,0.448900022364,0.0,0.0,0.0,1.79560008945,1,452.15515071922056,135.16434425096313,359.7783833374386,0.6570281344131071,-20.979788340202315,-0.774164429058709,0,Fixed-Wing
1970-01-01 00:00:29.663928384,1896,1539875464972978024,base_link,0,1,40.5913116,-79.8960024,359.755856635,0.448900022364,0.0,0.0,0.0,0.448900022364,0.0,0.0,0.0,1.79560008945,1,452.35883508395926,126.76880213111508,359.7385760547404,0.5089907733372964,-20.979781544102288,-0.09947518372848108,0,Fixed-Wing
1970-01-01 00:00:30.008402304,1898,1539875465317572968,base_link,0,1,40.5912359,-79.8960031,359.825887856,0.448900022364,0.0,0.0,0.0,0.448900022364,0.0,0.0,0.0,1.79560008945,1,452.30008985230324,118.36214112388896,359.80877337068137,-0.14679958831809958,-21.007566745447892,0.17541742181746148,0,Fixed-Wing
1970-01-01 00:00:30.384185504,1900,1539875465693027688,base_link,0,1,40.5911611,-79.8960108,359.915911542,0.448900022364,0.0,0.0,0.0,0.448900022364,0.0,0.0,0.0,1.79560008945,1,451.64873606111365,110.05539152719328,359.8989922462441,-1.6276805061550688,-20.757896201631997,0.22544968191945702,0,Fixed-Wing
1970-01-01 00:00:30.827396544,1902,1539875466136444904,base_link,0,1,40.5910884,-79.8960303,360.115922254,0.448900022364,0.0,0.0,0.0,0.448900022364,0.0,0.0,0.0,1.79560008945,1,449.9984126903369,101.98179307648545,360.0992539581123,-4.124024786221789,-20.175270322355168,0.5004378403044821,0,Fixed-Wing
1970-01-01 00:00:31.265601856,1904,1539875466574587880,base_link,0,1,40.5910194,-79.8960635,360.735917362,0.448900022364,0.0,0.0,0.0,0.448900022364,0.0,0.0,0.0,1.79560008945,1,447.1882775655607,94.31902465819778,360.71956462581716,-7.022300666902053,-19.148639259239552,1.5501062483097832,0,Fixed-Wing
1970-01-01 00:00:31.628545664,1906,1539875466937316840,base_link,0,1,40.5909547,-79.8961089,361.495898148,0.448900022364,0.0,0.0,0.0,0.448900022364,0.0,0.0,0.0,1.79560008945,1,443.34529023429974,87.13372128133784,361.47991575648496,-9.60331489446061,-17.955492691560735,1.9000560524268257,0,Fixed-Wing
1970-01-01 00:00:31.990252032,1908,1539875467299053768,base_link,0,1,40.590895,-79.8961656,362.615865234,0.448900022364,0.0,0.0,0.0,0.448900022364,0.0,0.0,0.0,1.79560008945,1,438.54565060697246,80.50362812629416,362.60030151391635,-11.9939117015073,-16.568067198545833,2.79975350018965,0,Fixed-Wing
1970-01-01 00:00:32.413181472,1910,1539875467721941928,base_link,0,1,40.5908387,-79.896229,363.305824017,0.448900022364,0.0,0.0,0.0,0.448900022364,0.0,0.0,0.0,1.79560008945,1,433.17874009354944,74.25107580558304,363.2907025514353,-13.411475820265292,-15.62462315226444,1.7252564203955256,0,Fixed-Wing
1970-01-01 00:00:32.819449824,1912,1539875468128544936,base_link,0,1,40.5907855,-79.8962972,363.155776574,0.448900022364,0.0,0.0,0.0,0.448900022364,0.0,0.0,0.0,1.79560008945,1,427.40538404622646,68.34275603879658,363.14111023046667,-14.427150375769923,-14.764413807994199,-0.3738191256497128,0,Fixed-Wing
1970-01-01 00:00:33.213674560,1914,1539875468517522024,base_link,0,1,40.5907386,-79.8963722,362.635719494,0.448900022364,0.0,0.0,0.0,0.448900022364,0.0,0.0,0.0,1.79560008945,1,421.0562790165191,63.134034617469666,362.6215286400725,-15.865900572270856,-13.016174058037183,-1.2983924212632587,0,Fixed-Wing
1970-01-01 00:00:33.622837600,1916,1539875468931713480,base_link,0,1,40.5907025,-79.8964559,362.205648916,0.448900022364,0.0,0.0,0.0,0.448900022364,0.0,0.0,0.0,1.79560008945,1,413.97057813918957,59.12464450647758,362.1919597259413,-17.706594091379337,-10.019141998565836,-1.0734580147366504,0,Fixed-Wing
1970-01-01 00:00:34.025267008,1918,1539875469334173128,base_link,0,1,40.590679,-79.8965455,361.96556695,0.448900022364,0.0,0.0,0.0,0.448900022364,0.0,0.0,0.0,1.79560008945,1,406.3853222539265,56.51449535461933,361.9523885657576,-18.954941700872002,-6.5225518759592775,-0.5986689761270414,0,Fixed-Wing
1970-01-01 00:00:34.421899424,1920,1539875469730911528,base_link,0,1,40.5906702,-79.8966379,361.955475886,0.448900022364,0.0,0.0,0.0,0.448900022364,0.0,0.0,0.0,1.79560008945,1,398.56294533755846,55.53681252484131,361.94279899202047,-19.547488002359124,-2.443150411891903,-0.023963570098723682,0,Fixed-Wing
1970-01-01 00:00:34.777776736,1922,1539875470086794120,base_link,0,1,40.5906775,-79.8967276,362.435380776,0.448900022364,0.0,0.0,0.0,0.448900022364,0.0,0.0,0.0,1.79560008945,1,390.969080135381,56.347096605419296,362.4231660779524,-18.97645568835849,2.0248344605407818,1.2003985424601427,0,Fixed-Wing
1970-01-01 00:00:35.198914592,1924,1539875470507925320,base_link,0,1,40.5906967,-79.8968114,363.525286688,0.448900022364,0.0,0.0,0.0,0.448900022364,0.0,0.0,0.0,1.79560008945,1,383.8746681566012,58.478942685940865,363.5134830496528,-17.72836243019834,5.327311139236204,2.7246140336814766,0,Fixed-Wing
1970-01-01 00:00:35.576367776,1926,1539875470885472808,base_link,0,1,40.59072,-79.896891,364.625195186,0.448900022364,0.0,0.0,0.0,0.448900022364,0.0,0.0,0.0,1.79560008945,1,377.13580025754356,61.06612904078165,364.61376867874446,-16.839886496734294,6.465169701206182,2.7495249032085436,0,Fixed-Wing
1970-01-01 00:00:36.013645504,1928,1539875471322634632,base_link,0,1,40.5907441,-79.8969672,365.47510685,0.448900022364,0.0,0.0,0.0,0.448900022364,0.0,0.0,0.0,1.79560008945,1,370.6847539616069,63.74217610706225,365.4640317257737,-16.12064356150138,6.687225440698405,2.1247386680990874,0,Fixed-Wing
1970-01-01 00:00:36.436945792,1930,1539875471744620136,base_link,0,1,40.5907679,-79.8970413,366.24502081,0.448900022364,0.0,0.0,0.0,0.448900022364,0.0,0.0,0.0,1.79560008945,1,364.4114899971376,66.38492161543107,366.2342796337667,-15.676379876876414,6.6040075376620075,1.9247872994754665,0,Fixed-Wing
1970-01-01 00:00:36.811581312,1932,1539875472120650248,base_link,0,1,40.5907898,-79.8971148,366.644936205,0.448900022364,0.0,0.0,0.0,0.448900022364,0.0,0.0,0.0,1.79560008945,1,358.1890133032024,68.81667190707279,366.6345211571405,-15.549466590537644,6.076747535795068,1.0001712343757228,0,Fixed-Wing
1970-01-01 00:00:37.196222816,1934,1539875472505069928,base_link,0,1,40.5908093,-79.8971882,366.364852732,0.448900022364,0.0,0.0,0.0,0.448900022364,0.0,0.0,0.0,1.79560008945,1,351.9749808245322,70.981894730525,366.3547593333478,-15.528365178735603,5.410716923561088,-0.6991021977813083,0,Fixed-Wing
1970-01-01 00:00:37.602711456,1936,1539875472911257416,base_link,0,1,40.5908254,-79.8972631,365.664769175,0.448900022364,0.0,0.0,0.0,0.448900022364,0.0,0.0,0.0,1.79560008945,1,345.6339600043874,72.76953371018143,365.65500184549524,-15.845698785637262,4.467165400105543,-1.748637433941163,0,Fixed-Wing
1970-01-01 00:00:38.001175136,1938,1539875473310190088,base_link,0,1,40.5908374,-79.8973415,365.214683777,0.448900022364,0.0,0.0,0.0,0.448900022364,0.0,0.0,0.0,1.79560008945,1,338.9966740548046,74.101852377701,365.20525676715954,-16.586041411046732,3.3293567220166245,-1.1238766192014338,0,Fixed-Wing
1970-01-01 00:00:38.379497696,1940,1539875473688553160,base_link,0,1,40.5908461,-79.8974221,364.524597533,0.448900022364,0.0,0.0,0.0,0.448900022364,0.0,0.0,0.0,1.79560008945,1,332.1731473537559,75.06769280369218,364.51551768931927,-17.051442003955056,2.4135572014883286,-1.723602236633337,0,Fixed-Wing
1970-01-01 00:00:38.800015136,1942,1539875474109041096,base_link,0,1,40.5908529,-79.897503,363.234511798,0.448900022364,0.0,0.0,0.0,0.448900022364,0.0,0.0,0.0,1.79560008945,1,325.324205107202,75.82253152664046,363.2257754984906,-17.11495339903971,1.886280990842157,-3.2229615462029924,0,Fixed-Wing
1970-01-01 00:00:39.196283712,1944,1539875474505370440,base_link,0,1,40.590858,-79.8975847,361.974425973,0.448900022364,0.0,0.0,0.0,0.448900022364,0.0,0.0,0.0,1.79560008945,1,318.40755010222375,76.38858475223483,361.9660314277629,-17.284162112331977,1.4145212835308068,-3.1479986673955094,0,Fixed-Wing
1970-01-01 00:00:39.602767424,1946,1539875474911877800,base_link,0,1,40.5908606,-79.8976681,360.994339476,0.448900022364,0.0,0.0,0.0,0.448900022364,0.0,0.0,0.0,1.79560008945,1,311.3470054018684,76.67701077383171,360.9862895132266,-17.64373083730128,0.7207533281777546,-2.44829589836472,0,Fixed-Wing
1970-01-01 00:00:39.988367744,1948,1539875475297302504,base_link,0,1,40.5908605,-79.8977525,360.404253106,0.448900022364,0.0,0.0,0.0,0.448900022364,0.0,0.0,0.0,1.79560008945,1,304.2018361643914,76.66560345050058,360.3965475593279,-17.855200719381312,-0.028505979491688278,-1.473717501927119,0,Fixed-Wing
1970-01-01 00:00:40.427289984,1950,1539875475736138472,base_link,0,1,40.5908578,-79.8978369,360.164167845,0.448900022364,0.0,0.0,0.0,0.448900022364,0.0,0.0,0.0,1.79560008945,1,297.0566960064742,76.36547123007631,360.15680219061215,-17.855128051910505,-0.7500061733906935,-0.5991043091757154,0,Fixed-Wing
1970-01-01 00:00:40.864165088,1952,1539875476172889800,base_link,0,1,40.5908529,-79.8979214,360.204083421,0.448900022364,0.0,0.0,0.0,0.448900022364,0.0,0.0,0.0,1.79560008945,1,289.9031122125428,75.82103385056095,360.1970529535356,-17.87622801621157,-1.3605050303627633,0.10058340498596657,0,Fixed-Wing
1970-01-01 00:00:41.190301280,1954,1539875476499453896,base_link,0,1,40.5908469,-79.8980048,360.524000598,0.448900022364,0.0,0.0,0.0,0.448900022364,0.0,0.0,0.0,1.79560008945,1,282.8426682084145,75.15445264389422,360.5172945793842,-17.643479205564272,-1.6657325873228186,0.8002579530568269,0,Fixed-Wing
1970-01-01 00:00:41.584140128,1956,1539875476893179592,base_link,0,1,40.5908407,-79.8980868,360.913919302,0.448900022364,0.0,0.0,0.0,0.448900022364,0.0,0.0,0.0,1.79560008945,1,275.9007474164305,74.46567280088951,360.9075250006223,-17.347299273024532,-1.7212051862687134,0.9751542988609244,0,Fixed-Wing
1970-01-01 00:00:41.999723552,1958,1539875477308864584,base_link,0,1,40.5908347,-79.8981676,361.183839161,0.448900022364,0.0,0.0,0.0,0.448900022364,0.0,0.0,0.0,1.79560008945,1,269.0604083742018,73.79911207556782,361.17774442027314,-17.093454686419783,-1.6656814060960825,0.6752565006905942,0,Fixed-Wing
1970-01-01 00:00:42.416523872,1960,1539875477725537896,base_link,0,1,40.5908291,-79.8982475,361.343759781,0.448900022364,0.0,0.0,0.0,0.448900022364,0.0,0.0,0.0,1.79560008945,1,262.2962537599085,73.17697991155362,361.337953568943,-16.90307595538259,-1.5546580204416682,0.4003497204206137,0,Fixed-Wing
1970-01-01 00:00:42.811416320,1962,1539875478120022184,base_link,0,1,40.5908245,-79.8983269,361.243680502,0.448900022364,0.0,0.0,0.0,0.448900022364,0.0,0.0,0.0,1.79560008945,1,255.57441253152442,72.66590465290966,361.2381526341298,-16.797338222179107,-1.2771357853827119,-0.2493944739231067,0,Fixed-Wing
1970-01-01 00:00:43.187887392,1964,1539875478496950376,base_link,0,1,40.5908217,-79.8984062,360.973600576,0.448900022364,0.0,0.0,0.0,0.448900022364,0.0,0.0,0.0,1.79560008945,1,248.86102311084332,72.35472798082967,360.9683413365683,-16.776217837488026,-0.7776053658792444,-0.674236636558411,0,Fixed-Wing
1970-01-01 00:00:43.605092768,1966,1539875478913745448,base_link,0,1,40.5908211,-79.8984855,360.773519733,0.448900022364,0.0,0.0,0.0,0.448900022364,0.0,0.0,0.0,1.79560008945,1,242.14762841297517,72.28787324121797,360.76851928074007,-16.776231024752178,-0.1670645935925192,-0.49933917537723815,0,Fixed-Wing
1970-01-01 00:00:44.044820960,1968,1539875479353847976,base_link,0,1,40.5908211,-79.8985649,360.593438545,0.448900022364,0.0,0.0,0.0,0.448900022364,0.0,0.0,0.0,1.79560008945,1,235.42576683843598,72.2876558918291,360.58868937962745,-16.797389065577114,-0.0005431385647256961,-0.4493803957603633,0,Fixed-Wing
1970-01-01 00:00:44.413979072,1970,1539875479723015880,base_link,0,1,40.5908216,-79.8986448,360.343356647,0.448900022364,0.0,0.0,0.0,0.448900022364,0.0,0.0,0.0,1.79560008945,1,228.66157237209072,72.34296865724394,360.33885257846737,-16.90317554244104,0.13822213246480836,-0.6243219836422897,0,Fixed-Wing
1970-01-01 00:00:44.849882496,1972,1539875480158991784,base_link,0,1,40.5908232,-79.8987245,360.233274501,0.448900022364,0.0,0.0,0.0,0.448900022364,0.0,0.0,0.0,1.79560008945,1,221.91431138752557,72.52044717785762,360.2290063869653,-16.860860139402572,0.44350448584406127,-0.27449675890695296,0,Fixed-Wing
1970-01-01 00:00:45.206661216,1974,1539875480515588648,base_link,0,1,40.5908248,-79.8988044,360.523192161,0.448900022364,0.0,0.0,0.0,0.448900022364,0.0,0.0,0.0,1.79560008945,1,215.1501328071248,72.69793587947999,360.5191534399744,-16.903135844749062,0.44352992736233043,0.7250540466475581,0,Fixed-Wing
1970-01-01 00:00:45.607510336,1976,1539875480916476008,base_link,0,1,40.5908253,-79.8988844,361.103110193,0.448900022364,0.0,0.0,0.0,0.448900022364,0.0,0.0,0.0,1.79560008945,1,208.37750099847113,72.75327627872048,361.0992953707357,-16.924259779279637,0.13829118716278307,1.4497278196213355,0,Fixed-Wing
1970-01-01 00:00:46.019352384,1978,1539875481327426632,base_link,0,1,40.5908251,-79.8989638,361.643029144,0.448900022364,0.0,0.0,0.0,0.448900022364,0.0,0.0,0.0,1.79560008945,1,201.65566377647846,72.7308871340673,361.63943032222244,-16.797328210530626,-0.05594866383582903,1.3497536102803553,0,Fixed-Wing
1970-01-01 00:00:46.424732384,1980,1539875481733312104,base_link,0,1,40.5908238,-79.8990427,362.102949078,0.448900022364,0.0,0.0,0.0,0.448900022364,0.0,0.0,0.0,1.79560008945,1,194.97615520166394,72.586346679549,362.0995592881754,-16.69155234064897,-0.3611949194930859,1.1498251155199053,0,Fixed-Wing
1970-01-01 00:00:46.827724000,1982,1539875482136694984,base_link,0,1,40.5908221,-79.8991208,362.532870009,0.448900022364,0.0,0.0,0.0,0.448900022364,0.0,0.0,0.0,1.79560008945,1,188.36437215646475,72.39739262181055,362.52968077060007,-16.52231171318202,-0.47218092609556944,1.074838838264154,0,Fixed-Wing
1970-01-01 00:00:47.231294400,1984,1539875482539905064,base_link,0,1,40.5908199,-79.8991984,362.88279167,0.448900022364,0.0,0.0,0.0,0.448900022364,0.0,0.0,0.0,1.79560008945,1,181.79491604091226,72.15291835956805,362.8797955589397,-16.41654013527274,-0.6109214320868858,0.8749085728912852,0,Fixed-Wing
1970-01-01 00:00:47.627622208,1986,1539875482936717608,base_link,0,1,40.590817,-79.8992758,363.08271384,0.448900022364,0.0,0.0,0.0,0.448900022364,0.0,0.0,0.0,1.79560008945,1,175.24238811942286,71.83071192025665,363.0799045036202,-16.374237945811934,-0.8051678631776782,0.5000560874434158,0,Fixed-Wing
1970-01-01 00:00:48.046949952,1988,1539875483355911496,base_link,0,1,40.590814,-79.8993526,362.842636674,0.448900022364,0.0,0.0,0.0,0.448900022364,0.0,0.0,0.0,1.79560008945,1,168.7406427469128,71.49740218994958,362.84000615732384,-16.247336458256914,-0.8329140904235529,-0.5994865877916373,0,Fixed-Wing
1970-01-01 00:00:48.408127328,1990,1539875483716798984,base_link,0,1,40.5908122,-79.8994292,362.312559217,0.448900022364,0.0,0.0,0.0,0.448900022364,0.0,0.0,0.0,1.79560008945,1,162.25581864624408,71.29735807881497,362.3100989630683,-16.20505156686916,-0.49989407364968724,-1.32419527118407,0,Fixed-Wing
1970-01-01 00:00:48.776787616,1992,1539875484085843464,base_link,0,1,40.5908107,-79.899507,361.722480419,0.448900022364,0.0,0.0,0.0,0.448900022364,0.0,0.0,0.0,1.79560008945,1,155.66940333757157,71.13063254510789,361.7201859436717,-16.458919788872596,-0.4166336402183053,-1.474144980787285,0,Fixed-Wing
1970-01-01 00:00:49.223903648,1994,1539875484532661032,base_link,0,1,40.5908099,-79.8995859,361.012400214,0.448900022364,0.0,0.0,0.0,0.448900022364,0.0,0.0,0.0,1.79560008945,1,148.98986064064542,71.04164627655584,361.01026602357547,-16.691637609049458,-0.2223694965728532,-1.7740325311708693,0,Fixed-Wing
1970-01-01 00:00:49.644627968,1996,1539875484952884808,base_link,0,1,40.5908103,-79.8996666,360.602317678,0.448900022364,0.0,0.0,0.0,0.448900022364,0.0,0.0,0.0,1.79560008945,1,142.15793876876765,71.0859292109285,360.60033869560993,-17.072420857673475,0.11065947570840627,-1.0243752776062691,0,Fixed-Wing
1970-01-01 00:00:50.015506016,1998,1539875485324507688,base_link,0,1,40.5908109,-79.8997479,360.792234457,0.448900022364,0.0,0.0,0.0,0.448900022364,0.0,0.0,0.0,1.79560008945,1,135.2752352832075,71.15243464685034,360.79040420132094,-17.1993200079969,0.16619171188920845,0.4749583447933877,0,Fixed-Wing
1970-01-01 00:00:50.398359072,2000,1539875485707369544,base_link,0,1,40.5908114,-79.8998289,361.502151595,0.448900022364,0.0,0.0,0.0,0.448900022364,0.0,0.0,0.0,1.79560008945,1,128.4179395952744,71.20784746794524,361.5004622613436,-17.135827974233937,0.1384721635265361,1.7743777316877323,0,Fixed-Wing
1970-01-01 00:00:50.838033504,2002,1539875486147160744,base_link,0,1,40.5908117,-79.8999087,362.152070052,0.448900022364,0.0,0.0,0.0,0.448900022364,0.0,0.0,0.0,1.79560008945,1,121.66223149095833,71.24105712932726,362.15051259421216,-16.881968809280128,0.08298826103214603,1.6244232691074745,0,Fixed-Wing
1970-01-01 00:00:51.212136384,2004,1539875486520849768,base_link,0,1,40.590812,-79.8999872,362.311989846,0.422499969006,0.0,0.0,0.0,0.422499969006,0.0,0.0,0.0,1.68999987602,1,115.01656885696897,71.27426912623025,362.31055513646925,-16.606974068688693,0.08299409731039278,0.39993338445394344,0,Fixed-Wing
1970-01-01 00:00:51.630052192,2006,1539875486939123688,base_link,0,1,40.5908129,-79.9000649,362.361910215,0.422499969006,0.0,0.0,0.0,0.422499969006,0.0,0.0,0.0,1.68999987602,1,108.43862963747618,71.37411820131834,362.3605894435151,-16.437738726732665,0.24951477258107768,0.1250316914080871,0,Fixed-Wing
1970-01-01 00:00:51.989455776,2008,1539875487298553864,base_link,0,1,40.5908151,-79.9001417,362.231830967,0.422499969006,0.0,0.0,0.0,0.422499969006,0.0,0.0,0.0,1.68999987602,1,101.93687798372423,71.618340129595,362.23061452051115,-16.24735215457303,0.610290869890419,-0.3247968328796356,0,Fixed-Wing
1970-01-01 00:00:52.384129760,2010,1539875487691732040,base_link,0,1,40.5908205,-79.900218,361.961750898,0.422499969006,0.0,0.0,0.0,0.422499969006,0.0,0.0,0.0,1.68999987602,1,95.47744945043164,72.21793411776511,361.960627491905,-16.141590095515177,1.4983369396988635,-0.6746757742430922,0,Fixed-Wing
1970-01-01 00:00:52.807348224,2012,1539875488115469736,base_link,0,1,40.5908304,-79.9002943,361.551668952,0.422499969006,0.0,0.0,0.0,0.422499969006,0.0,0.0,0.0,1.68999987602,1,89.01801458297166,73.31726747989958,361.5506262602489,-16.14160592408777,2.7471452650090664,-1.0245599569587496,0,Fixed-Wing
1970-01-01 00:00:53.225357792,2014,1539875488533155688,base_link,0,1,40.590846,-79.90037,361.011585242,0.422499969006,0.0,0.0,0.0,0.422499969006,0.0,0.0,0.0,1.68999987602,1,82.60936861745807,75.04960349972654,361.0106084493046,-16.014688560981337,4.328967771006439,-1.3494608855278456,0,Fixed-Wing
1970-01-01 00:00:53.625445152,2016,1539875488934309096,base_link,0,1,40.5908691,-79.9004445,360.491499628,0.422499969006,0.0,0.0,0.0,0.422499969006,0.0,0.0,0.0,1.68999987602,1,76.30230810702719,77.61483827040388,360.4905705165399,-15.760834715062952,6.4103144656869295,-1.2995327839826631,0,Fixed-Wing
1970-01-01 00:00:53.991257760,2018,1539875489300412936,base_link,0,1,40.5909007,-79.9005164,360.421413122,0.422499969006,0.0,0.0,0.0,0.422499969006,0.0,0.0,0.0,1.68999987602,1,70.21535988026127,81.12403025315376,360.420510047025,-15.210791899418282,8.769187283374647,-0.17507545365350843,0,Fixed-Wing
1970-01-01 00:00:54.427770752,2020,1539875489735155912,base_link,0,1,40.5909394,-79.9005837,360.991328351,0.422499969006,0.0,0.0,0.0,0.422499969006,0.0,0.0,0.0,1.68999987602,1,64.51784385122383,85.42171042147172,360.9904291199753,-14.237632296625321,10.739555563013878,1.4241817237802474,0,Fixed-Wing
1970-01-01 00:00:54.817184864,2022,1539875490126016488,base_link,0,1,40.590982,-79.9006467,361.651246352,0.422499969006,0.0,0.0,0.0,0.422499969006,0.0,0.0,0.0,1.68999987602,1,59.184359891960206,90.1525039495888,361.6503334959427,-13.327945561703624,11.82187086114528,1.6490477267765635,0,Fixed-Wing
1970-01-01 00:00:55.232443936,2024,1539875490538377672,base_link,0,1,40.5910285,-79.9007037,362.081168858,0.422499969006,0.0,0.0,0.0,0.422499969006,0.0,0.0,0.0,1.68999987602,1,54.35882380332551,95.31640665769959,362.0802236300325,-12.058624866332059,12.90417571428053,1.074260717464239,0,Fixed-Wing
1970-01-01 00:00:55.585822304,2026,1539875490894824936,base_link,0,1,40.5910792,-79.900753,362.331097475,0.422499969006,0.0,0.0,0.0,0.422499969006,0.0,0.0,0.0,1.68999987602,1,50.18515445294007,100.94673455704529,362.33009956806757,-10.429662546912056,14.069734588154876,0.6244197835313097,0,Fixed-Wing
1970-01-01 00:00:55.984181920,2028,1539875491293219528,base_link,0,1,40.5911345,-79.9007916,362.551035093,0.422499969006,0.0,0.0,0.0,0.422499969006,0.0,0.0,0.0,1.68999987602,1,46.917325646743684,107.08791119845625,362.54996163008093,-8.166040203103117,15.346304326906026,0.5494175319508374,0,Fixed-Wing
1970-01-01 00:00:56.392928576,2030,1539875491702072520,base_link,0,1,40.5911938,-79.9008184,362.790983081,0.422499969006,0.0,0.0,0.0,0.422499969006,0.0,0.0,0.0,1.68999987602,1,44.64846015308243,113.67330541166291,362.7898116383783,-5.669711583893097,16.456368153790123,0.5993657950370638,0,Fixed-Wing
1970-01-01 00:00:56.805595392,2032,1539875492114398024,base_link,0,1,40.5912549,-79.9008351,362.920940625,0.422499969006,0.0,0.0,0.0,0.422499969006,0.0,0.0,0.0,1.68999987602,1,43.23463843481538,120.45859794115995,362.91965406994825,-3.5330262618093964,16.955897897901764,0.32446574748909823,0,Fixed-Wing
1970-01-01 00:00:57.187612064,2034,1539875492496537384,base_link,0,1,40.5913164,-79.9008446,362.840905354,0.422499969006,0.0,0.0,0.0,0.422499969006,0.0,0.0,0.0,1.68999987602,1,42.430351791479346,127.28831127288998,362.8394912285987,-2.0098473493614875,17.066901894255817,-0.20032046477281992,0,Fixed-Wing
1970-01-01 00:00:57.592616864,2036,1539875492901450952,base_link,0,1,40.591378,-79.9008458,362.980878511,0.422499969006,0.0,0.0,0.0,0.422499969006,0.0,0.0,0.0,1.68999987602,1,42.32872484560488,134.12913842112476,362.9793245332405,-0.2539575280552774,17.094674423898613,0.34943213220731395,0,Fixed-Wing
1970-01-01 00:00:58.018633184,2038,1539875493327130952,base_link,0,1,40.5914388,-79.9008421,363.260857007,0.422499969006,0.0,0.0,0.0,0.422499969006,0.0,0.0,0.0,1.68999987602,1,42.6419206552643,140.88112952130416,363.2591550289701,0.7826510275791194,16.872680316211728,0.6992738034039879,0,Fixed-Wing
1970-01-01 00:00:58.436396064,2040,1539875493742824488,base_link,0,1,40.5914987,-79.9008364,363.520837931,0.422499969006,0.0,0.0,0.0,0.422499969006,0.0,0.0,0.0,1.68999987602,1,43.1244309771427,147.53317468365273,363.5189819531795,1.2057543159543518,16.62292349146137,0.6492864941147755,0,Fixed-Wing
1970-01-01 00:00:58.833305568,2042,1539875494142251048,base_link,0,1,40.5915574,-79.9008297,363.490820387,0.422499969006,0.0,0.0,0.0,0.422499969006,0.0,0.0,0.0,1.68999987602,1,43.69159650644198,154.05195111995957,363.4888060658677,1.417300840634628,16.28989571087214,-0.07540710470664079,0,Fixed-Wing
1970-01-01 00:00:59.199841504,2044,1539875494508671336,base_link,0,1,40.591615,-79.9008233,363.03080301,0.422499969006,0.0,0.0,0.0,0.422499969006,0.0,0.0,0.0,1.68999987602,1,44.23336164031737,160.4485590069666,363.0286268761865,1.3538273043793236,15.98460637526029,-1.1499506205597116,0,Fixed-Wing
1970-01-01 00:00:59.630443776,2046,1539875494939193032,base_link,0,1,40.5916721,-79.9008184,362.40078433,0.422499969006,0.0,0.0,0.0,0.422499969006,0.0,0.0,0.0,1.68999987602,1,44.64813929876588,166.78963467996996,362.398442250343,1.0364958616610995,15.845835858499598,-1.5747804720545098,0,Fixed-Wing
1970-01-01 00:00:59.979031488,2048,1539875495288083784,base_link,0,1,40.5917292,-79.9008146,361.580764547,0.422499969006,0.0,0.0,0.0,0.422499969006,0.0,0.0,0.0,1.68999987602,1,44.96979214440995,173.13070345020145,361.5782508304906,0.8037844773237428,15.845818609030314,-2.0495921010472777,0,Fixed-Wing
1970-01-01 00:01:00.377718976,2050,1539875495686867240,base_link,0,1,40.5917864,-79.9008119,360.920743618,0.422499969006,0.0,0.0,0.0,0.422499969006,0.0,0.0,0.0,1.68999987602,1,45.1983228288376,179.48287984147296,360.91805227612457,0.571079719090609,15.873575656707256,-1.6497828548304048,0,Fixed-Wing
1970-01-01 00:01:00.800451008,2052,1539875496109397160,base_link,0,1,40.5918437,-79.9008099,360.270721952,0.422499969006,0.0,0.0,0.0,0.422499969006,0.0,0.0,0.0,1.68999987602,1,45.36759330046843,185.84616014953207,360.26784673305747,0.4229932345031557,15.901323447756603,-1.6248111268553902,0,Fixed-Wing
1970-01-01 00:01:01.237943168,2054,1539875496546780904,base_link,0,1,40.5919012,-79.9008089,359.770699202,0.422499969006,0.0,0.0,0.0,0.422499969006,0.0,0.0,0.0,1.68999987602,1,45.45220763552811,192.23165369953637,359.7676336687948,0.21144438795141926,15.956832544935061,-1.2499920390997208,0,Fixed-Wing
1970-01-01 00:01:01.580530144,2056,1539875496889432424,base_link,0,1,40.5919586,-79.9008091,359.50067529,0.422499969006,0.0,0.0,0.0,0.422499969006,0.0,0.0,0.0,1.68999987602,1,45.435235513206194,198.606047639547,359.49741410361867,-0.04241196263095468,15.929095516215822,-0.6752568643465414,0,Fixed-Wing
1970-01-01 00:01:02.010001312,2058,1539875497317366280,base_link,0,1,40.5920154,-79.9008105,359.61065042,0.422499969006,0.0,0.0,0.0,0.422499969006,0.0,0.0,0.0,1.68999987602,1,45.31667860866024,204.91382134226745,359.60719006261485,-0.29626412712990247,15.76261692498108,0.27432125354829306,0,Fixed-Wing
1970-01-01 00:01:02.419076736,2060,1539875497728109000,base_link,0,1,40.5920716,-79.9008132,360.000624492,0.422499969006,0.0,0.0,0.0,0.422499969006,0.0,0.0,0.0,1.68999987602,1,45.08807078912976,211.15497256535093,359.9969616954027,-0.5712724734814218,15.596132730302838,0.9740078235859735,0,Fixed-Wing
1970-01-01 00:01:02.859038208,2062,1539875498167940712,base_link,0,1,40.5921272,-79.9008171,360.380597607,0.422499969006,0.0,0.0,0.0,0.422499969006,0.0,0.0,0.0,1.68999987602,1,44.75787589147968,217.32949227660652,360.37672923171004,-0.8251303752379122,15.429625964909137,0.9490083946376361,0,Fixed-Wing
1970-01-01 00:01:03.203017216,2064,1539875498511669768,base_link,0,1,40.5921823,-79.9008171,360.59057491,0.422499969006,0.0,0.0,0.0,0.422499969006,0.0,0.0,0.0,1.68999987602,1,44.757840623928374,223.44848263818216,360.5864945903827,-8.813076170613705e-05,15.290862605862067,0.5241866859399688,0,Fixed-Wing
1970-01-01 00:01:03.598663840,2066,1539875498907818472,base_link,0,1,40.5922372,-79.900814,360.800555463,0.422499969006,0.0,0.0,0.0,0.422499969006,0.0,0.0,0.0,1.68999987602,1,45.020240134937424,229.5452645777297,360.79625627457983,0.6557151807069703,15.235365553267098,0.5241775037224726,0,Fixed-Wing
1970-01-01 00:01:04.027868384,2068,1539875499336667720,base_link,0,1,40.5922922,-79.9008109,360.40053599,0.422499969006,0.0,0.0,0.0,0.422499969006,0.0,0.0,0.0,1.68999987602,1,45.28263484275972,235.65312962690825,360.396011666528,0.6557031779312834,15.26306134891295,-1.0001789427368193,0,Fixed-Wing
1970-01-01 00:01:04.380333952,2070,1539875499689400584,base_link,0,1,40.5923481,-79.9008073,359.970516671,0.422499969006,0.0,0.0,0.0,0.422499969006,0.0,0.0,0.0,1.68999987602,1,45.587356355488936,241.8609401828367,359.96575724127837,0.7614744441259561,15.512817096426948,-1.0751710516442718,0,Fixed-Wing
1970-01-01 00:01:04.811002272,2072,1539875500118678344,base_link,0,1,40.5924048,-79.9008036,359.80049714,0.422499969006,0.0,0.0,0.0,0.422499969006,0.0,0.0,0.0,1.68999987602,1,45.90054425182688,248.15760201466895,359.7954930042076,0.7826312528280107,15.734849257276824,-0.42547657405871037,0,Fixed-Wing
1970-01-01 00:01:05.196768480,2074,1539875500505875080,base_link,0,1,40.5924617,-79.9008006,359.92047683,0.422499969006,0.0,0.0,0.0,0.422499969006,0.0,0.0,0.0,1.68999987602,1,46.154474332869164,254.47648527873002,359.91522128311766,0.6345507594022696,15.79037882131246,0.299191297039251,0,Fixed-Wing
1970-01-01 00:01:05.617426720,2076,1539875500926193480,base_link,0,1,40.5925186,-79.9007987,359.970455418,0.422499969006,0.0,0.0,0.0,0.422499969006,0.0,0.0,0.0,1.68999987602,1,46.315281915972406,260.7953654045383,359.96494285102426,0.40184515972652396,15.790370979072245,0.12425018156297814,0,Fixed-Wing
1970-01-01 00:01:06.021009984,2078,1539875501330156680,base_link,0,1,40.5925752,-79.9007979,360.070433027,0.422499969006,0.0,0.0,0.0,0.422499969006,0.0,0.0,0.0,1.68999987602,1,46.38296830870465,267.08093151548223,360.0646592366251,0.16914282755768512,15.707121947117702,0.24918319227148492,0,Fixed-Wing
1970-01-01 00:01:06.406697120,2080,1539875501713999656,base_link,0,1,40.5926315,-79.9007988,360.560409047,0.422499969006,0.0,0.0,0.0,0.422499969006,0.0,0.0,0.0,1.68999987602,1,46.306742711501826,273.3331980473435,360.5543702970536,-0.19048160971085357,15.623908989015417,1.2237483798968851,0,Fixed-Wing
1970-01-01 00:01:06.824376416,2082,1539875502133191656,base_link,0,1,40.5926875,-79.9008001,360.880384798,0.422499969006,0.0,0.0,0.0,0.422499969006,0.0,0.0,0.0,1.68999987602,1,46.196653897875976,279.5521422195104,360.87407665522034,-0.2751030519946384,15.540639104004804,0.7989203623601311,0,Fixed-Wing
1970-01-01 00:01:07.177307232,2084,1539875502486445544,base_link,0,1,40.5927433,-79.9007986,361.250363494,0.422499969006,0.0,0.0,0.0,0.422499969006,0.0,0.0,0.0,1.68999987602,1,46.323601727994316,285.74888032486547,361.2437791596602,0.3172323722948319,15.48514793690492,0.923856693079957,0,Fixed-Wing
1970-01-01 00:01:07.612561120,2086,1539875502921531400,base_link,0,1,40.592799,-79.9007925,361.77034692,0.422499969006,0.0,0.0,0.0,0.422499969006,0.0,0.0,0.0,1.68999987602,1,46.83996647424354,291.93452329736004,361.76347802274904,1.2903537876099176,15.457422096179844,1.2986854762535702,0,Fixed-Wing
1970-01-01 00:01:08.028199456,2088,1539875503337085896,base_link,0,1,40.5928546,-79.9007798,362.270337111,0.422499969006,0.0,0.0,0.0,0.422499969006,0.0,0.0,0.0,1.68999987602,1,47.915057183770145,298.10906477084177,362.2631739482468,2.686564834525582,15.429680346954253,1.2486997511020155,0,Fixed-Wing
1970-01-01 00:01:08.432032768,2090,1539875503741131016,base_link,0,1,40.5929087,-79.9007567,362.620338497,0.422499969006,0.0,0.0,0.0,0.422499969006,0.0,0.0,0.0,1.68999987602,1,49.87056357564455,304.11702753023303,362.61287604650994,4.886652502478698,15.01341359709741,0.8738772937283403,0,Fixed-Wing
1970-01-01 00:01:08.844076512,2092,1539875504153139720,base_link,0,1,40.5929612,-79.9007222,363.050352135,0.422499969006,0.0,0.0,0.0,0.422499969006,0.0,0.0,0.0,1.68999987602,1,52.79114108911208,309.94731837566286,363.04258487952154,7.2982872744226315,14.569425836900113,1.073807660715747,0,Fixed-Wing
1970-01-01 00:01:09.215305312,2094,1539875504523960520,base_link,0,1,40.5930109,-79.9006767,363.460378106,0.422499969006,0.0,0.0,0.0,0.422499969006,0.0,0.0,0.0,1.68999987602,1,56.64292594098262,315.46667053177015,363.4523066031033,9.625299187777637,13.79241517070689,1.0238614888604525,0,Fixed-Wing
1970-01-01 00:01:09.619026016,2096,1539875504928061512,base_link,0,1,40.593057,-79.9006202,363.600416734,0.422499969006,0.0,0.0,0.0,0.422499969006,0.0,0.0,0.0,1.68999987602,1,61.42591501481266,320.5862308026463,363.59204514159967,11.952303313392052,12.793367545726849,0.3491953192653529,0,Fixed-Wing
1970-01-01 00:01:10.005475008,2098,1539875505314562408,base_link,0,1,40.5930969,-79.9005509,363.610470909,0.422499969006,0.0,0.0,0.0,0.422499969006,0.0,0.0,0.0,1.68999987602,1,67.29249021312982,325.01727259393556,363.6018154096661,14.660097503622595,11.07281548552566,0.02441511063066284,0,Fixed-Wing
1970-01-01 00:01:10.399334368,2100,1539875505708453256,base_link,0,1,40.5931286,-79.90047,363.660540227,0.422499969006,0.0,0.0,0.0,0.422499969006,0.0,0.0,0.0,1.68999987602,1,74.14106876006382,328.5377011517701,363.6516281059291,17.114044543070104,8.79726657679184,0.12447790396408077,0,Fixed-Wing
1970-01-01 00:01:10.790620352,2102,1539875506099754760,base_link,0,1,40.5931502,-79.9003812,363.660621701,0.422499969006,0.0,0.0,0.0,0.422499969006,0.0,0.0,0.0,1.68999987602,1,81.65842876540596,330.9365115272998,363.6514935904683,18.785275381752744,5.994433346401946,-0.0003361432700010575,0,Fixed-Wing
1970-01-01 00:01:11.198612032,2104,1539875506507747464,base_link,0,1,40.5931628,-79.9002876,363.750711733,0.422499969006,0.0,0.0,0.0,0.422499969006,0.0,0.0,0.0,1.68999987602,1,89.58214215018984,332.3358674720054,363.7414044758718,19.800719650710768,3.496877462261654,0.22468003939163653,0,Fixed-Wing
1970-01-01 00:01:11.611462880,2106,1539875506919446248,base_link,0,1,40.5931657,-79.900192,363.910807766,0.422499969006,0.0,0.0,0.0,0.422499969006,0.0,0.0,0.0,1.68999987602,1,97.67517835599122,332.65802944933284,363.90136504643414,20.223843702102297,0.8050567562714765,0.39972854381070605,0,Fixed-Wing
1970-01-01 00:01:12.041218560,2108,1539875507349896680,base_link,0,1,40.5931572,-79.9000968,364.730908054,0.422499969006,0.0,0.0,0.0,0.422499969006,0.0,0.0,0.0,1.68999987602,1,105.73438106872631,331.71423672272215,364.72138628786337,20.13929653608586,-2.358461781806107,2.0491668389152466,0,Fixed-Wing
1970-01-01 00:01:12.414630464,2110,1539875507722658856,base_link,0,1,40.593144,-79.9000039,365.751007938,0.422499969006,0.0,0.0,0.0,0.422499969006,0.0,0.0,0.0,1.68999987602,1,113.59889232617017,330.24851344616405,365.7414273932263,19.65277831698757,-3.6627240632378855,2.5490003207685348,0,Fixed-Wing
1970-01-01 00:01:12.884932864,2112,1539875508193749544,base_link,0,1,40.5931308,-79.8999137,366.321105092,0.422499969006,0.0,0.0,0.0,0.422499969006,0.0,0.0,0.0,1.68999987602,1,121.23483136567557,328.7827710270842,366.31146008980346,19.08159480900861,-3.6627718988533586,1.4244656600449968,0,Fixed-Wing
1970-01-01 00:01:13.196894144,2114,1539875508505929128,base_link,0,1,40.5931191,-79.8998256,366.181199515,0.422499969006,0.0,0.0,0.0,0.422499969006,0.0,0.0,0.0,1.68999987602,1,128.69298144518638,327.48357523967917,366.171475605079,18.637314560229704,-3.2465853203615436,-0.34980991902111513,0,Fixed-Wing
1970-01-01 00:01:13.593300352,2116,1539875508902189736,base_link,0,1,40.5931098,-79.8997391,365.761291345,0.422499969006,0.0,0.0,0.0,0.422499969006,0.0,0.0,0.0,1.68999987602,1,136.01567447704053,326.45089598928195,365.75146876915994,18.29881834070304,-2.5805820242675614,-1.0495631537337158,0,Fixed-Wing
1970-01-01 00:01:13.976942144,2118,1539875509286063080,base_link,0,1,40.5931035,-79.8996534,365.06138115,0.422499969006,0.0,0.0,0.0,0.422499969006,0.0,0.0,0.0,1.68999987602,1,143.27063164401582,325.75136571740325,365.0514358189583,18.129551886247416,-1.7480696395776332,-1.7493257920990666,0,Fixed-Wing
1970-01-01 00:01:14.437655968,2120,1539875509742773320,base_link,0,1,40.5931002,-79.8995678,364.211469641,0.448900022364,0.0,0.0,0.0,0.448900022364,0.0,0.0,0.0,1.79560008945,1,150.51711279194726,325.3849920492506,364.201376408638,18.108370999371356,-0.9155382001099995,-2.1242297964137618,0,Fixed-Wing
1970-01-01 00:01:14.816774464,2122,1539875510125654152,base_link,0,1,40.593099,-79.8994816,363.321557897,0.448900022364,0.0,0.0,0.0,0.448900022364,0.0,0.0,0.0,1.79560008945,1,157.81437996996428,325.2518345787589,363.3112953500826,18.235281185929644,-0.33274976195722905,-2.224240662302008,0,Fixed-Wing
1970-01-01 00:01:15.191342016,2124,1539875510500270504,base_link,0,1,40.5930993,-79.8993945,362.49164647,0.448900022364,0.0,0.0,0.0,0.448900022364,0.0,0.0,0.0,1.79560008945,1,165.1878329814968,325.2852676093442,362.48119578251493,18.42566342939808,0.08354644262677868,-2.074351761782244,0,Fixed-Wing
1970-01-01 00:01:15.618651776,2126,1539875510927750152,base_link,0,1,40.5931013,-79.8993071,361.701734666,0.448900022364,0.0,0.0,0.0,0.448900022364,0.0,0.0,0.0,1.79560008945,1,172.5866772990683,325.5074995766541,361.69107698709615,18.489114252014758,0.5553397338398166,-1.9744430419313088,0,Fixed-Wing
1970-01-01 00:01:16.017588192,2128,1539875511323228360,base_link,0,1,40.5931046,-79.8992198,361.081822241,0.448900022364,0.0,0.0,0.0,0.448900022364,0.0,0.0,0.0,1.79560008945,1,179.9770551244079,325.8741153886524,361.07094183823074,18.467957171872197,0.9161432980193945,-1.5496676409088455,0,Fixed-Wing
1970-01-01 00:01:16.418043040,2130,1539875511726254088,base_link,0,1,40.5931089,-79.8991325,360.711909419,0.448900022364,0.0,0.0,0.0,0.448900022364,0.0,0.0,0.0,1.79560008945,1,187.36743533100872,326.35180362322086,360.70079202415866,18.467963122451565,1.1937043093073776,-0.9249744837159896,0,Fixed-Wing
1970-01-01 00:01:16.846665056,2132,1539875512150231144,base_link,0,1,40.5931123,-79.8990453,360.511996876,0.448900022364,0.0,0.0,0.0,0.448900022364,0.0,0.0,0.0,1.79560008945,1,194.74935600499458,326.72956052933716,360.5006392943309,18.44682343382952,0.9439839922141262,-0.5001655029894018,0,Fixed-Wing
1970-01-01 00:01:17.193865824,2134,1539875512502338728,base_link,0,1,40.5931148,-79.8989586,360.522084204,0.448900022364,0.0,0.0,0.0,0.448900022364,0.0,0.0,0.0,1.79560008945,1,202.08895721088663,327.00738726067624,360.51048435678376,18.341070501738127,0.6942665580613276,0.024602015760389388,0,Fixed-Wing
1970-01-01 00:01:17.601350080,2136,1539875512910410408,base_link,0,1,40.5931162,-79.8988724,360.672171484,0.448900022364,0.0,0.0,0.0,0.448900022364,0.0,0.0,0.0,1.79560008945,1,209.386238302351,327.16306965004145,360.6603285929329,18.235315954510565,0.38903771460146197,0.3744486413354616,0,Fixed-Wing
1970-01-01 00:01:18.018474016,2138,1539875513327315912,base_link,0,1,40.5931171,-79.8987867,360.752258472,0.448900022364,0.0,0.0,0.0,0.448900022364,0.0,0.0,0.0,1.79560008945,1,216.64119105769007,327.2632281863781,360.74016849287926,18.12954086192491,0.2502880912421987,0.19951346029433348,0,Fixed-Wing
1970-01-01 00:01:18.422018080,2140,1539875513730689160,base_link,0,1,40.5931179,-79.8987012,360.492345309,0.448900022364,0.0,0.0,0.0,0.448900022364,0.0,0.0,0.0,1.79560008945,1,223.87920117089104,327.3522705500048,360.4800011624648,18.087202567891815,0.22250967363284033,-0.6501371417223225,0,Fixed-Wing
